%time,field.header.seq,field.header.stamp,field.header.frame_id,field.time_stamp,field.quat_x,field.quat_y,field.quat_z,field.quat_w,field.gyro_x,field.gyro_y,field.gyro_z,field.accel_x,field.accel_y,field.accel_z
1455212654803119897,109,0,/imu_data_acquisition2,23450.0,-0.0302124023438,-0.0316162109375,0.808776855469,0.586486816406,-1.125,-0.9375,-1.375,-0.03,-0.73,10.12
1455212654811002969,110,0,/imu_data_acquisition2,23460.0,-0.0301513671875,-0.0316772460938,0.808715820312,0.586608886719,-1.3125,-1.0,-1.5,-0.27,-0.66,10.06
1455212654820849895,111,0,/imu_data_acquisition2,23470.0,-0.0302124023438,-0.03173828125,0.808654785156,0.586669921875,-1.625,-1.125,-1.5,-0.41,-0.69,-0.01
1455212654830915927,112,0,/imu_data_acquisition2,23480.0,-0.0145874023438,-6.103515625e-05,-6.103515625e-05,0.586791992188,-2.1875,-1.25,-2.0,-0.2,-0.62,9.9
1455212654840826988,113,0,/imu_data_acquisition2,23490.0,-0.0302734375,-0.031982421875,0.808410644531,0.586975097656,-2.75,-1.375,-2.375,-0.39,-0.68,10.21
1455212654850728034,114,0,/imu_data_acquisition2,23500.0,-0.0303344726562,-0.0321655273438,0.808288574219,0.587097167969,-2.9375,-1.5,-2.5625,-0.16,-0.71,9.98
1455212654860804080,115,0,/imu_data_acquisition2,23510.0,-0.0303955078125,-0.0324096679688,0.808166503906,0.587280273438,-3.0625,-1.3125,-2.625,-0.32,-0.82,10.14
1455212654870742082,116,0,/imu_data_acquisition2,23520.0,-0.0304565429688,-0.0325927734375,0.808044433594,0.587463378906,-2.8125,-1.1875,-2.4375,-0.23,-0.81,10.0
1455212654880731105,117,0,/imu_data_acquisition2,23530.0,-0.0305786132812,-0.0325927734375,0.807861328125,0.587646484375,-2.0625,-0.25,-3.3125,-0.42,-0.54,10.09
1455212654890753030,118,0,/imu_data_acquisition2,23540.0,-0.0150756835938,-6.103515625e-05,-6.103515625e-05,0.587829589844,-2.5625,-0.3125,-2.3125,-0.28,-0.79,10.15
1455212654900912046,119,0,/imu_data_acquisition2,23550.0,-0.0308837890625,-0.0326538085938,0.807678222656,0.587890625,-2.3125,-0.0625,-1.5625,-0.4,-0.67,10.15
1455212654910770893,120,0,/imu_data_acquisition2,23560.0,-0.031005859375,-0.0327758789062,0.8076171875,0.588012695312,-2.0,0.6875,-1.5625,-0.62,-0.3,8.67
1455212654921225070,121,0,/imu_data_acquisition2,23571.0,-0.0311889648438,-0.0328979492188,0.807495117188,0.588134765625,-2.125,0.8125,-1.5625,-0.78,-0.44,11.52
1455212654936503887,122,0,/imu_data_acquisition2,23585.0,-0.0313720703125,-0.0330200195312,0.807434082031,0.588256835938,-3.0625,1.0625,-1.6875,0.46,-1.05,10.09
1455212654941013097,123,0,/imu_data_acquisition2,23590.0,-0.0316162109375,-0.0333251953125,0.807250976562,0.58837890625,-4.375,0.375,-2.4375,-0.35,-1.26,10.23
1455212654953649997,124,0,/imu_data_acquisition2,23602.0,-0.0317993164062,-0.0335693359375,0.80712890625,0.588562011719,-3.5625,0.5625,-2.5625,-0.61,-0.73,10.59
1455212654962383031,125,0,/imu_data_acquisition2,23611.0,-0.0320434570312,-0.0338134765625,0.807006835938,0.588684082031,-3.6875,0.875,-1.8125,-0.26,-0.66,9.78
1455212654972938060,126,0,/imu_data_acquisition2,23622.0,-0.0322875976562,-0.0340576171875,0.806884765625,0.588806152344,-4.1875,0.9375,-2.0625,-0.36,-0.66,9.85
1455212654985672950,127,0,/imu_data_acquisition2,23634.0,-0.0325927734375,-0.0343017578125,0.806762695312,0.588989257812,-4.625,1.0625,-2.4375,-0.16,-0.79,9.82
1455212654991986036,128,0,/imu_data_acquisition2,23641.0,-0.0328979492188,-0.0345458984375,0.806579589844,0.589172363281,-4.3125,1.6875,-3.25,-0.42,-0.84,10.36
1455212655004060029,129,0,/imu_data_acquisition2,23652.0,-0.033203125,-0.0347900390625,0.806396484375,0.589416503906,-4.375,1.4375,-3.8125,-0.07,-0.82,10.12
1455212655013880014,130,0,/imu_data_acquisition2,23662.0,-0.0335083007812,-0.0350341796875,0.806213378906,0.589660644531,-4.1875,1.1875,-3.25,-0.5,-0.86,10.37
1455212655023250102,131,0,/imu_data_acquisition2,23672.0,-0.0338134765625,-0.0352172851562,0.806030273438,0.58984375,-4.1875,1.375,-2.6875,-0.33,-1.04,9.93
1455212655037065029,132,0,/imu_data_acquisition2,23686.0,-0.0342407226562,-0.035400390625,0.805908203125,0.590026855469,-4.375,2.3125,-2.875,-0.4,-1.03,10.2
1455212655042757987,133,0,/imu_data_acquisition2,23690.0,-0.03466796875,-0.0355224609375,0.805725097656,0.590209960938,-4.4375,2.25,-3.25,-0.4,-1.03,10.2
1455212655053168058,134,0,/imu_data_acquisition2,23701.0,-0.03515625,-0.03564453125,0.805541992188,0.590454101562,-4.125,2.3125,-3.25,-0.47,-1.08,10.18
1455212655064835071,135,0,/imu_data_acquisition2,23713.0,-0.0355834960938,-0.0357666015625,0.805297851562,0.590698242188,-3.875,2.3125,-3.6875,-0.37,-1.04,10.22
1455212655072927951,136,0,/imu_data_acquisition2,23722.0,-0.035888671875,-0.035888671875,0.805114746094,0.590942382812,-3.5,2.375,-3.75,0.0,-1.15,9.89
1455212655087975025,137,0,/imu_data_acquisition2,23736.0,-0.0362548828125,-0.0359497070312,0.804931640625,0.591186523438,-3.1875,3.0,-3.8125,-0.18,-0.69,9.97
1455212655094221115,138,0,/imu_data_acquisition2,23743.0,-0.0366821289062,-0.0360107421875,0.8046875,0.591430664062,-2.9375,3.875,-3.375,-0.01,-0.99,9.84
1455212655108917951,139,0,/imu_data_acquisition2,23753.0,-0.037109375,-0.0359497070312,0.804504394531,0.591674804688,-2.875,4.9375,-3.5,-0.16,-0.85,10.22
1455212655119360923,140,0,/imu_data_acquisition2,23766.0,-0.0377197265625,-0.0358276367188,0.804321289062,0.591918945312,-2.9375,6.375,-3.4375,-0.27,-1.05,10.16
1455212655124444007,141,0,/imu_data_acquisition2,23771.0,-0.038330078125,-0.03564453125,0.804138183594,0.592163085938,-2.625,7.125,-3.25,-0.06,-1.22,9.86
1455212655136723041,142,0,/imu_data_acquisition2,23782.0,-0.0390014648438,-0.035400390625,0.803894042969,0.592407226562,-2.4375,9.25,-3.3125,0.0,-0.67,9.85
1455212655169423103,143,0,/imu_data_acquisition2,23793.0,-0.0398559570312,-0.0350341796875,0.8037109375,0.592590332031,-2.8125,11.5,-2.5625,0.17,-1.16,10.04
1455212655175502061,144,0,/imu_data_acquisition2,23819.0,-0.0418090820312,-0.0341186523438,0.803344726562,0.593017578125,-2.8125,15.9375,-2.5625,0.13,-1.2,9.83
1455212655181930065,146,0,/imu_data_acquisition2,23830.0,-0.0444946289062,-0.0327758789062,0.802978515625,0.593444824219,-3.0,21.5625,-2.0,-0.15,-0.87,9.81
1455212655193448066,148,0,/imu_data_acquisition2,23842.0,-0.0462646484375,-0.03173828125,0.802795410156,0.593627929688,-2.625,24.25,-2.3125,-0.2,-0.56,10.1
1455212655204915046,149,0,/imu_data_acquisition2,23852.0,-0.0482177734375,-0.0307006835938,0.802551269531,0.593872070312,-3.6875,26.3125,-2.375,0.23,-0.76,9.81
1455212655211592912,150,0,/imu_data_acquisition2,23861.0,-0.050537109375,-0.029541015625,0.802307128906,0.594055175781,-5.375,30.25,-1.6875,0.6,-1.35,9.71
1455212655222565889,151,0,/imu_data_acquisition2,23871.0,-0.052734375,-0.028076171875,0.802062988281,0.594299316406,-5.625,36.9375,-2.125,-0.39,-0.35,10.13
1455212655234375000,152,0,/imu_data_acquisition2,23882.0,-0.055908203125,-0.0267944335938,0.801696777344,0.594543457031,-10.0625,39.9375,-2.8125,-0.25,0.0,10.17
1455212655241045951,153,0,/imu_data_acquisition2,23890.0,-0.0596313476562,-0.025634765625,0.801208496094,0.594848632812,-14.875,43.5625,-4.625,0.1,-1.54,9.79
1455212655252547025,154,0,/imu_data_acquisition2,23900.0,-0.0636596679688,-0.0242309570312,0.800537109375,0.595397949219,-15.1875,49.125,-7.375,-0.27,-0.48,10.21
1455212655262895107,155,0,/imu_data_acquisition2,23911.0,-0.0681762695312,-0.0227661132812,0.799621582031,0.596130371094,-17.625,53.6875,-11.1875,-0.12,0.3,9.94
1455212655273698091,156,0,/imu_data_acquisition2,23921.0,-0.07421875,-0.0219116210938,0.798706054688,0.5966796875,-34.0625,64.375,-9.3125,-0.27,-0.93,10.06
1455212655283701896,157,0,/imu_data_acquisition2,23931.0,-0.0814208984375,-0.02099609375,0.797790527344,0.597045898438,-42.4375,75.0,-7.75,0.22,-0.41,9.79
1455212655293195962,158,0,/imu_data_acquisition2,23942.0,-0.0897216796875,-0.0194702148438,0.796447753906,0.597717285156,-43.6875,90.625,-11.875,-0.47,-0.45,9.98
1455212655302743911,159,0,/imu_data_acquisition2,23951.0,-0.0991821289062,-0.0173950195312,0.794616699219,0.598693847656,-46.625,106.4375,-17.125,-0.87,0.13,10.02
1455212655312417984,160,0,/imu_data_acquisition2,23961.0,-0.110290527344,-0.0153198242188,0.792724609375,0.599304199219,-58.875,121.8125,-15.1875,-0.24,1.26,10.29
1455212655322709083,161,0,/imu_data_acquisition2,23972.0,-0.123291015625,-0.0128784179688,0.790771484375,0.599426269531,-69.75,141.125,-9.1875,-0.58,-1.3,9.71
1455212655332225084,162,0,/imu_data_acquisition2,23980.0,-0.138061523438,-0.01025390625,0.78857421875,0.599182128906,-80.875,160.5625,-6.9375,-0.74,0.8,10.6
1455212655344491958,163,0,/imu_data_acquisition2,23991.0,-0.154357910156,-0.0079345703125,0.786437988281,0.597961425781,-96.5,171.8125,1.625,-1.05,0.72,11.31
1455212655353404045,164,0,/imu_data_acquisition2,24002.0,-0.172119140625,-0.00689697265625,0.784606933594,0.595520019531,-120.375,176.0625,-0.0625,-2.01,-3.09,10.06
1455212655364558935,165,0,/imu_data_acquisition2,24011.0,-0.190551757812,-0.0059814453125,-6.103515625e-05,0.592529296875,-127.875,181.25,17.75,-2.35,-2.56,10.77
1455212655381963014,166,0,/imu_data_acquisition2,24021.0,-0.209838867188,-0.0048828125,0.780700683594,0.588562011719,-134.3125,190.625,26.375,-2.2,-0.84,12.27
1455212655385118007,167,0,/imu_data_acquisition2,24032.0,-0.229431152344,-0.00408935546875,0.779296875,0.583129882812,-142.625,189.5,43.6875,-4.54,-3.39,12.01
1455212655391422033,168,0,/imu_data_acquisition2,24041.0,-0.248352050781,-0.00335693359375,0.778503417969,0.576416015625,-141.75,181.5,59.1875,-4.45,-4.02,12.26
1455212655403023004,169,0,/imu_data_acquisition2,24052.0,-0.265380859375,-0.00213623046875,0.778381347656,0.568908691406,-127.0,165.1875,72.6875,-4.39,-4.32,12.33
1455212655415280103,170,0,/imu_data_acquisition2,24063.0,-0.280212402344,-0.0003662109375,0.778991699219,0.560913085938,-109.125,147.0625,84.1875,-3.33,-5.38,13.33
1455212655421036005,171,0,/imu_data_acquisition2,24070.0,-0.292419433594,0.00152587890625,0.779907226562,0.553405761719,-88.3125,122.0625,81.5,5.22,-10.68,18.56
1455212655434297084,172,0,/imu_data_acquisition2,24082.0,-0.301330566406,0.003173828125,0.779663085938,0.548889160156,-58.6875,94.0,45.5,6.21,-14.46,17.18
1455212655444911003,173,0,/imu_data_acquisition2,24091.0,-0.307250976562,0.00384521484375,0.776672363281,0.549865722656,-28.875,69.5625,-26.8125,4.81,-0.01,-0.01
1455212655452177047,174,0,/imu_data_acquisition2,24101.0,-0.310241699219,0.002685546875,0.772705078125,0.553833007812,-15.5,33.625,-66.4375,7.14,-1.39,8.49
1455212655463408946,175,0,/imu_data_acquisition2,24112.0,-0.312438964844,0.001220703125,0.7685546875,0.558288574219,-11.1875,25.875,-73.0625,6.64,-0.12,11.6
1455212655474728107,176,0,/imu_data_acquisition2,24121.0,-0.313354492188,0.000244140625,0.765075683594,0.562561035156,1.0625,15.0625,-65.6875,6.32,1.1,-0.01
1455212655481503963,177,0,/imu_data_acquisition2,24131.0,-0.311828613281,-0.0003662109375,0.762756347656,0.566528320312,19.1875,-10.0,-53.5,5.02,3.41,15.02
1455212655492733955,178,0,/imu_data_acquisition2,24141.0,-0.307189941406,-0.0009765625,0.76220703125,0.56982421875,37.8125,-43.75,-35.625,4.44,3.42,12.98
1455212655505835056,179,0,/imu_data_acquisition2,24152.0,-0.300109863281,-0.00115966796875,0.763488769531,0.571838378906,53.1875,-69.875,-10.25,3.66,2.12,11.89
1455212655511567115,180,0,/imu_data_acquisition2,24161.0,-0.291442871094,-0.00103759765625,0.766418457031,0.572387695312,61.8125,-87.3125,15.125,2.8,-0.26,11.56
1455212655522583007,181,0,/imu_data_acquisition2,24171.0,-0.28173828125,-0.00103759765625,0.770446777344,0.571899414062,64.125,-101.75,31.75,1.27,-5.62,10.31
1455212655534241914,182,0,/imu_data_acquisition2,24181.0,-0.271362304688,-0.00152587890625,0.774841308594,0.570983886719,62.625,-113.125,35.875,0.51,-7.34,8.98
1455212655541275978,183,0,/imu_data_acquisition2,24190.0,-0.260681152344,-0.0028076171875,0.778991699219,0.570251464844,58.5625,-119.75,30.4375,-0.18,-8.37,7.52
1455212655553162097,184,0,/imu_data_acquisition2,24201.0,-0.250305175781,-0.0047607421875,0.782592773438,0.570007324219,51.1875,-119.875,20.6875,-1.27,-8.99,5.61
1455212655567044973,185,0,/imu_data_acquisition2,24213.0,-0.240783691406,-0.00732421875,0.785461425781,0.570068359375,40.9375,-114.1875,10.375,-1.69,-9.29,5.95
1455212655571948051,186,0,/imu_data_acquisition2,24221.0,-0.232360839844,-0.0104370117188,0.787658691406,0.570556640625,29.125,-105.5,0.625,-2.08,-9.53,6.96
1455212655583468914,187,0,/imu_data_acquisition2,24232.0,-6.103515625e-05,-6.103515625e-05,-6.103515625e-05,0.571472167969,18.4375,-98.6875,-10.125,-2.59,-8.71,8.94
1455212655592987060,188,0,/imu_data_acquisition2,24241.0,-0.014892578125,-6.103515625e-05,-6.103515625e-05,0.572875976562,9.5625,-16.0,-0.0625,-2.82,-7.75,9.23
1455212655601759910,189,0,/imu_data_acquisition2,24251.0,-0.211608886719,-0.0236206054688,0.790283203125,0.574523925781,0.5625,-94.875,-27.1875,-3.0,-6.79,9.36
1455212655613461017,190,0,/imu_data_acquisition2,24262.0,-0.205688476562,-0.029296875,0.790466308594,0.576171875,-8.8125,-93.875,-29.75,-3.2,-6.05,9.71
1455212655622313976,191,0,/imu_data_acquisition2,24271.0,-0.200256347656,-0.0355224609375,0.790588378906,0.577575683594,-17.1875,-93.5,-29.5625,-3.24,-2.15,-0.01
1455212655632590055,192,0,/imu_data_acquisition2,24281.0,-0.194946289062,-0.0421142578125,0.790710449219,0.578735351562,-22.625,-94.1875,-28.0,-3.12,-3.92,10.02
1455212655643627882,193,0,/imu_data_acquisition2,24292.0,-0.189758300781,-0.0487670898438,0.791015625,0.579528808594,-24.875,-94.8125,-23.4375,-2.94,-3.24,10.1
1455212655652934074,194,0,/imu_data_acquisition2,24301.0,-0.184509277344,-0.0555419921875,0.791625976562,0.579833984375,-26.25,-96.0625,-16.875,-2.41,-2.87,10.37
1455212655662049055,195,0,/imu_data_acquisition2,24311.0,-0.179260253906,-0.062255859375,0.79248046875,0.57958984375,-26.875,-98.0,-9.5625,-2.12,-3.01,10.43
1455212655673465013,196,0,/imu_data_acquisition2,24322.0,-0.173767089844,-0.069091796875,0.793701171875,0.578857421875,-27.125,-101.125,-3.5625,-1.83,-0.8,-0.01
1455212655683573961,197,0,/imu_data_acquisition2,24331.0,-0.168151855469,-0.0759887695312,0.795043945312,0.577819824219,-26.875,-7.6875,-0.0625,-1.25,-3.67,10.0
1455212655692399024,198,0,/imu_data_acquisition2,24341.0,-0.162292480469,-0.0829467773438,0.796325683594,0.576721191406,-26.9375,-106.375,0.4375,-1.03,-3.81,10.0
1455212655704778909,199,0,/imu_data_acquisition2,24353.0,-0.156372070312,-0.0901489257812,0.797546386719,0.575622558594,-28.0,-108.4375,-0.625,-0.84,-3.87,10.03
1455212655712493896,200,0,/imu_data_acquisition2,24361.0,-0.156372070312,-0.0901489257812,0.797546386719,0.575622558594,-28.75,-109.9375,-3.875,-0.5,-1.17,-0.01
1455212655722750902,201,0,/imu_data_acquisition2,24372.0,-0.144104003906,-0.104919433594,0.79931640625,0.573913574219,-28.625,-112.0,-8.5625,-0.45,-3.37,10.23
1455212655734803915,202,0,/imu_data_acquisition2,24383.0,-0.137573242188,-0.112548828125,0.799682617188,0.573486328125,-27.875,-114.4375,-14.0625,-0.44,-2.99,10.25
1455212655743832111,203,0,/imu_data_acquisition2,24391.0,-0.130798339844,-0.120239257812,0.7998046875,0.573364257812,-26.75,-116.5625,-19.5625,-0.42,-2.65,10.21
1455212655752713918,204,0,/imu_data_acquisition2,24401.0,-0.123718261719,-0.127868652344,0.799682617188,0.573486328125,-24.25,-6.0,-0.0625,-0.47,-1.99,10.34
1455212655764466047,205,0,/imu_data_acquisition2,24412.0,-0.123718261719,-0.127868652344,0.799682617188,0.573486328125,-20.0625,-119.25,-28.6875,-0.48,-1.72,10.21
1455212655773366928,206,0,/imu_data_acquisition2,24421.0,-0.108520507812,-0.142395019531,0.798645019531,0.574523925781,-14.625,-120.5625,-32.3125,-0.45,-1.54,9.91
1455212655783243894,207,0,/imu_data_acquisition2,24432.0,-0.00665283203125,-6.103515625e-05,-6.103515625e-05,0.575378417969,-8.3125,-120.4375,-35.1875,-0.46,-1.53,9.96
1455212655794447898,208,0,/imu_data_acquisition2,24442.0,-0.0919799804688,-0.155395507812,0.796997070312,0.576293945312,-2.3125,-119.75,-37.5625,-0.51,-1.65,9.98
1455212655844563961,209,0,/imu_data_acquisition2,24451.0,-0.0919799804688,-0.155395507812,0.796997070312,0.576293945312,3.75,-118.75,-40.3125,-0.51,-1.83,9.79
1455212655886545896,210,0,/imu_data_acquisition2,24462.0,-0.0742797851562,-0.166564941406,0.794799804688,0.578857421875,10.0625,-117.0625,-43.4375,-0.58,-2.43,-0.01
1455212655890053033,211,0,/imu_data_acquisition2,24474.0,-0.0652465820312,-0.0150756835938,-6.103515625e-05,0.580444335938,15.625,-113.125,-46.625,-0.7,-2.74,10.45
1455212655891180038,212,0,/imu_data_acquisition2,24481.0,-0.0652465820312,-0.171325683594,0.793395996094,0.580444335938,19.4375,-109.5,-50.0625,-0.84,-3.12,11.08
1455212655892044067,213,0,/imu_data_acquisition2,24491.0,-0.0562133789062,-0.175659179688,0.791748046875,0.582275390625,22.125,-106.875,-53.9375,-1.25,-3.61,12.09
1455212655893697977,214,0,/imu_data_acquisition2,24500.0,-0.0471801757812,-0.1796875,0.789916992188,0.584411621094,22.125,-106.875,-53.9375,-1.39,-3.8,12.18
1455212655895231008,215,0,/imu_data_acquisition2,24510.0,-0.0379638671875,-0.183349609375,0.787780761719,0.586791992188,26.1875,-105.3125,-58.4375,-1.4,-4.09,11.96
1455212655897815942,216,0,/imu_data_acquisition2,24521.0,-0.0285034179688,-0.0148315429688,-6.103515625e-05,0.58935546875,36.1875,-102.9375,-65.5,-1.87,-4.13,12.0
1455212655899919033,217,0,/imu_data_acquisition2,24531.0,-0.0188598632812,-0.189575195312,0.782958984375,0.592163085938,41.75,-0.0625,-0.0625,-2.57,-3.8,12.16
1455212655903235912,218,0,/imu_data_acquisition2,24541.0,0.0006103515625,-0.193664550781,0.777770996094,0.598022460938,46.5625,-95.0625,-67.75,-3.16,-3.42,12.3
1455212655910376071,219,0,/imu_data_acquisition2,24553.0,0.0101928710938,-6.103515625e-05,-6.103515625e-05,0.600769042969,50.25,-90.5625,-65.4375,-3.78,-2.96,12.26
1455212655912867069,220,0,/imu_data_acquisition2,24562.0,0.0193481445312,-0.19580078125,0.773010253906,0.603088378906,52.0625,-85.4375,-57.8125,-5.19,-1.91,11.56
1455212655929708957,221,0,/imu_data_acquisition2,24578.0,0.0278930664062,-0.196350097656,0.771423339844,0.604614257812,51.1875,-79.0,-45.25,-6.01,-1.62,11.56
1455212655933140039,222,0,/imu_data_acquisition2,24582.0,0.0357666015625,-0.196838378906,0.770446777344,0.605346679688,49.6875,-74.1875,-31.8125,-6.89,-0.98,11.09
1455212655944217920,223,0,/imu_data_acquisition2,24593.0,0.0428466796875,-0.197204589844,0.770141601562,0.605041503906,46.9375,-68.0625,-15.75,-9.24,0.81,9.88
1455212655954143047,224,0,/imu_data_acquisition2,24601.0,0.0428466796875,-0.197204589844,0.770141601562,0.605041503906,39.0625,-61.5625,3.25,-10.82,1.8,9.37
1455212655964469909,225,0,/imu_data_acquisition2,24612.0,0.053466796875,-0.199096679688,0.772338867188,0.600830078125,26.625,-57.1875,26.75,-12.76,2.65,8.76
1455212655975518941,226,0,/imu_data_acquisition2,24624.0,0.0567626953125,-0.201171875,0.775207519531,0.596069335938,14.375,-54.3125,58.0,-14.6,2.8,7.57
1455212655985959053,227,0,/imu_data_acquisition2,24633.0,0.058837890625,-0.203979492188,0.779907226562,0.588806152344,4.6875,-52.9375,96.3125,-16.17,2.6,3.29
1455212655992211103,228,0,/imu_data_acquisition2,24641.0,0.058837890625,-6.103515625e-05,-6.103515625e-05,0.588806152344,-13.375,-46.5,131.375,-15.14,0.23,0.36
1455212656003989934,229,0,/imu_data_acquisition2,24651.0,0.0589599609375,-6.103515625e-05,-6.103515625e-05,0.579406738281,-36.9375,-28.125,154.5,-13.0,-5.47,-2.76
1455212656015569925,230,0,/imu_data_acquisition2,24662.0,0.0511474609375,-0.215087890625,0.799377441406,0.558654785156,-35.875,9.625,155.1875,-8.14,-13.89,-3.98
1455212656026047945,231,0,/imu_data_acquisition2,24673.0,0.04541015625,-0.211608886719,0.805908203125,0.551086425781,16.3125,-0.0625,-0.0625,-6.22,-13.7,-1.37
1455212656036847114,232,0,/imu_data_acquisition2,24685.0,0.0405883789062,-0.200744628906,0.811584472656,0.547119140625,88.5,109.875,81.5625,-4.59,-10.54,2.19
1455212656045006036,233,0,/imu_data_acquisition2,24692.0,0.0405883789062,-0.200744628906,0.811584472656,0.547119140625,130.6875,144.5625,-0.0625,8.75,-12.07,13.46
1455212656055283069,234,0,/imu_data_acquisition2,24703.0,0.0316772460938,-0.169555664062,0.818725585938,0.547668457031,128.25,147.6875,6.4375,13.72,-14.31,24.58
1455212656065625905,235,0,/imu_data_acquisition2,24713.0,0.0279541015625,-0.155456542969,0.81884765625,0.551879882812,111.4375,135.625,-38.0,17.46,-13.99,24.58
1455212656072762966,236,0,/imu_data_acquisition2,24721.0,0.0279541015625,-0.155456542969,0.81884765625,0.551879882812,95.5625,101.0,-4.4375,10.54,-9.07,16.39
1455212656083944082,237,0,/imu_data_acquisition2,24732.0,0.0265502929688,-0.143920898438,0.816284179688,0.558776855469,83.5625,118.5625,-118.125,-1.46,2.28,-10.74
1455212656095356941,238,0,/imu_data_acquisition2,24743.0,0.0237426757812,-0.00726318359375,-6.103515625e-05,0.568115234375,71.25,152.25,-125.4375,-1.67,3.41,-8.76
1455212656101422071,239,0,/imu_data_acquisition2,24751.0,0.0181274414062,-0.119812011719,0.806884765625,0.578186035156,71.25,152.25,-125.4375,-2.01,2.45,6.25
1455212656113121032,240,0,/imu_data_acquisition2,24762.0,0.0086669921875,-0.105590820312,0.801635742188,0.58837890625,61.125,200.625,-122.875,-5.73,17.62,34.2
1455212656125463008,241,0,/imu_data_acquisition2,24772.0,-0.00146484375,-0.0880737304688,0.796569824219,0.59814453125,138.4375,202.75,-92.25,-7.15,18.89,34.45
1455212656132900953,242,0,/imu_data_acquisition2,24782.0,-0.00738525390625,-0.0684814453125,0.792724609375,0.605712890625,135.9375,125.0,-23.1875,-7.04,10.28,28.02
1455212656144910097,243,0,/imu_data_acquisition2,24793.0,-0.0086669921875,-0.0530395507812,0.792114257812,0.607971191406,92.1875,47.375,22.0625,-2.53,-3.67,14.22
1455212656152730941,244,0,/imu_data_acquisition2,24801.0,-0.0072021484375,-0.0443725585938,0.793579101562,0.606750488281,92.1875,47.375,22.0625,-2.53,-3.67,14.22
1455212656161870002,245,0,/imu_data_acquisition2,24811.0,-0.0054931640625,-0.0422973632812,0.794677734375,0.605529785156,32.625,-1.875,18.6875,1.47,3.59,11.87
1455212656174488067,246,0,/imu_data_acquisition2,24823.0,-6.103515625e-05,-6.103515625e-05,-6.103515625e-05,0.605712890625,5.875,-0.0625,-0.0625,-0.93,-0.01,-0.01
1455212656187827110,247,0,/imu_data_acquisition2,24833.0,-0.004150390625,-6.103515625e-05,-6.103515625e-05,0.605712890625,-15.6875,10.4375,3.8125,-1.06,-0.51,13.21
1455212656193370103,248,0,/imu_data_acquisition2,24842.0,-0.00567626953125,-0.04052734375,0.794799804688,0.605529785156,-18.375,4.4375,1.0625,-0.24,-0.23,11.56
1455212656203545093,249,0,/imu_data_acquisition2,24852.0,-0.0069580078125,-0.04150390625,0.794799804688,0.60546875,-18.375,4.4375,1.0625,0.33,-0.63,9.56
1455212656215850114,250,0,/imu_data_acquisition2,24862.0,-0.0074462890625,-0.0428466796875,0.794616699219,0.605590820312,-14.3125,-3.1875,-4.375,0.45,-1.4,9.25
1455212656223661899,251,0,/imu_data_acquisition2,24873.0,-0.008544921875,-0.0450439453125,0.794067382812,0.606079101562,-14.8125,-1.9375,-4.0625,0.22,-1.41,9.8
1455212656237131118,252,0,/imu_data_acquisition2,24885.0,-0.0091552734375,-0.0457153320312,0.793762207031,0.6064453125,-10.5,0.9375,-5.25,0.41,-1.29,9.63
1455212656245357990,253,0,/imu_data_acquisition2,24892.0,-0.0091552734375,-0.0457153320312,0.793762207031,0.6064453125,-5.75,1.1875,-6.3125,0.2,-0.84,9.61
1455212656253587961,254,0,/imu_data_acquisition2,24903.0,-0.009521484375,-0.0460815429688,0.793395996094,0.606872558594,-3.875,3.3125,-6.6875,0.21,-0.87,9.91
1455212656264188051,255,0,/imu_data_acquisition2,24913.0,-0.0098876953125,-0.046142578125,0.793029785156,0.607360839844,-3.875,3.3125,-6.6875,0.16,-0.76,9.61
1455212656273639917,256,0,/imu_data_acquisition2,24922.0,-0.0103149414062,-0.0462036132812,0.792724609375,0.607788085938,-2.1875,3.875,-5.6875,-0.02,-0.89,10.04
1455212656284300088,257,0,/imu_data_acquisition2,24933.0,-0.0106811523438,-0.046142578125,0.792419433594,0.608154296875,-0.1875,4.4375,-5.0625,-0.13,-1.03,9.9
1455212656295489072,258,0,/imu_data_acquisition2,24943.0,-0.0109252929688,-0.0458984375,0.792114257812,0.608520507812,1.4375,4.1875,-2.9375,0.1,-1.11,10.01
1455212656302572011,259,0,/imu_data_acquisition2,24952.0,-0.0111083984375,-0.0455932617188,0.7919921875,0.608764648438,1.4375,4.1875,-2.9375,0.1,-1.11,10.01
1455212656313833951,260,0,/imu_data_acquisition2,24962.0,-0.0113525390625,-0.0451049804688,0.791931152344,0.608825683594,3.6875,3.125,-1.1875,0.04,-0.94,10.0
1455212656323904037,261,0,/imu_data_acquisition2,24971.0,-0.011474609375,-0.04443359375,0.791931152344,0.608825683594,5.625,4.125,-0.3125,0.19,-0.54,9.78
1455212656334314107,262,0,/imu_data_acquisition2,24983.0,-0.0115356445312,-0.0436401367188,0.792053222656,0.608825683594,6.5625,5.125,0.9375,0.19,-0.58,9.87
1455212656347410917,263,0,/imu_data_acquisition2,24996.0,-0.0115356445312,-0.04296875,0.792114257812,0.608764648438,6.0,6.875,1.3125,0.0,-0.01,-0.01
1455212656355119943,264,0,/imu_data_acquisition2,25000.0,-0.01171875,-0.0421752929688,0.792175292969,0.608703613281,6.0,6.875,1.3125,0.0,-0.52,10.22
1455212656363430023,265,0,/imu_data_acquisition2,25012.0,-0.0120239257812,-0.0414428710938,0.792236328125,0.608642578125,5.0625,8.3125,1.375,0.03,-0.25,10.56
1455212656374886989,266,0,/imu_data_acquisition2,25023.0,-0.012451171875,-0.0407104492188,0.792358398438,0.608581542969,0.125,9.5625,1.75,-0.02,-0.51,9.95
1455212656384993076,267,0,/imu_data_acquisition2,25032.0,-0.0131225585938,-6.103515625e-05,-6.103515625e-05,0.608459472656,0.125,9.5625,1.75,-0.2,-0.63,10.37
1455212656394345998,268,0,/imu_data_acquisition2,25043.0,-0.0138549804688,-0.0398559570312,0.79248046875,0.6083984375,-3.5625,10.375,0.8125,-0.06,-0.52,10.28
1455212656403145074,269,0,/imu_data_acquisition2,25051.0,-0.0147705078125,-0.0396118164062,0.792541503906,0.6083984375,-3.5625,10.375,0.8125,-0.06,-0.52,10.28
1455212656412277936,270,0,/imu_data_acquisition2,25061.0,-0.015625,-0.0391235351562,0.792541503906,0.6083984375,-3.1875,10.375,0.625,0.14,-0.7,10.25
1455212656426959991,271,0,/imu_data_acquisition2,25072.0,-0.0165405273438,-0.0386962890625,0.792541503906,0.608337402344,-3.1875,10.375,0.625,0.04,-0.01,-0.01
1455212656436434984,272,0,/imu_data_acquisition2,25083.0,-0.0173950195312,-0.038330078125,0.792541503906,0.6083984375,-0.0625,12.25,1.0625,0.2,-0.83,10.1
1455212656444194078,273,0,/imu_data_acquisition2,25093.0,-0.0182495117188,-0.0377197265625,0.792541503906,0.608337402344,1.1875,13.6875,1.75,-0.26,-0.86,10.0
1455212656455646991,274,0,/imu_data_acquisition2,25102.0,-0.0191040039062,-0.0369262695312,0.792602539062,0.608276367188,1.1875,13.6875,1.75,-0.26,-0.86,10.0
1455212656464523077,275,0,/imu_data_acquisition2,25112.0,-0.0199584960938,-0.0360717773438,0.792724609375,0.608215332031,1.875,13.8125,2.125,0.03,-0.76,10.15
1455212656472975015,276,0,/imu_data_acquisition2,25122.0,-6.103515625e-05,-6.103515625e-05,-6.103515625e-05,0.608032226562,1.25,13.5625,2.8125,-0.33,-0.61,10.05
1455212656486798048,277,0,/imu_data_acquisition2,25134.0,-0.0216674804688,-0.0345458984375,0.793029785156,0.607849121094,0.0,9.9375,3.5,-0.16,-0.08,10.14
1455212656496953964,278,0,/imu_data_acquisition2,25143.0,-0.0223388671875,-0.0340576171875,0.793151855469,0.607604980469,-1.75,8.4375,3.3125,-0.17,-1.03,9.87
1455212656502681970,279,0,/imu_data_acquisition2,25152.0,-0.00738525390625,-6.103515625e-05,-6.103515625e-05,0.607421875,-1.75,8.4375,3.3125,-0.17,-1.03,9.87
1455212656514086008,280,0,/imu_data_acquisition2,25162.0,-0.0234375,-0.0333862304688,0.79345703125,0.607299804688,-0.5625,6.375,2.5625,-0.43,-0.55,10.57
1455212656526721954,281,0,/imu_data_acquisition2,25173.0,-0.02392578125,-0.0331420898438,0.793579101562,0.607116699219,-1.0,6.4375,2.6875,-0.11,-0.64,10.0
1455212656535691022,282,0,/imu_data_acquisition2,25183.0,-0.0243530273438,-0.032958984375,0.793640136719,0.606994628906,-1.4375,4.875,1.8125,0.01,-0.61,10.31
1455212656546787023,283,0,/imu_data_acquisition2,25193.0,-0.024658203125,-0.03271484375,0.793701171875,0.60693359375,-1.6875,4.375,1.0625,-0.11,-0.25,10.18
1455212656553210973,284,0,/imu_data_acquisition2,25201.0,-0.0250244140625,-0.0325927734375,0.793701171875,0.606872558594,-1.3125,4.1875,1.0,-0.11,-0.25,10.18
1455212656561640024,285,0,/imu_data_acquisition2,25211.0,-0.0254516601562,-0.032470703125,0.793762207031,0.606811523438,-1.75,4.6875,0.75,-0.12,-0.72,10.55
1455212656575048923,286,0,/imu_data_acquisition2,25224.0,-0.0258178710938,-0.0324096679688,0.793762207031,0.606872558594,-1.3125,4.4375,-0.125,-0.25,-0.64,10.23
1455212656588032007,287,0,/imu_data_acquisition2,25234.0,-0.0261840820312,-0.0322265625,0.793701171875,0.606872558594,-1.25,3.8125,0.1875,-0.17,-0.87,10.17
1455212656594247102,288,0,/imu_data_acquisition2,25243.0,-0.0264892578125,-0.0321044921875,0.793701171875,0.606872558594,-1.25,3.8125,0.1875,-0.56,-0.56,10.29
1455212656603606939,289,0,/imu_data_acquisition2,25252.0,-0.0267944335938,-0.0318603515625,0.793701171875,0.606872558594,0.0,4.5625,-0.1875,-0.56,-0.56,10.29
1455212656613169908,290,0,/imu_data_acquisition2,25260.0,-0.0270385742188,-0.03173828125,0.793701171875,0.606872558594,-0.125,3.1875,0.125,0.28,-1.01,9.58
1455212656624401092,291,0,/imu_data_acquisition2,25273.0,-0.0272827148438,-0.031494140625,0.793701171875,0.606872558594,0.25,4.0,-0.4375,-0.25,-0.88,10.4
1455212656635261058,292,0,/imu_data_acquisition2,25283.0,-0.0118408203125,-6.103515625e-05,-6.103515625e-05,0.60693359375,0.9375,3.0,0.0,-0.24,-0.83,10.1
1455212656645407915,293,0,/imu_data_acquisition2,25293.0,-0.011962890625,-6.103515625e-05,-6.103515625e-05,0.60693359375,1.25,2.6875,0.375,-0.21,-0.7,10.38
1455212656653239011,294,0,/imu_data_acquisition2,25302.0,-0.0276489257812,-0.03076171875,0.793701171875,0.60693359375,2.1875,2.625,0.4375,-0.21,-0.7,10.38
1455212656664179086,295,0,/imu_data_acquisition2,25312.0,-0.0276489257812,-0.0304565429688,0.793701171875,0.606872558594,2.8125,2.1875,0.625,-0.54,-0.7,10.26
1455212656676244974,296,0,/imu_data_acquisition2,25323.0,-0.0276489257812,-0.0301513671875,0.793762207031,0.606872558594,2.8125,1.5625,0.6875,-0.35,-0.71,10.18
1455212656685143947,297,0,/imu_data_acquisition2,25334.0,-0.0120239257812,-6.103515625e-05,-6.103515625e-05,0.606872558594,2.875,1.375,0.5625,-0.38,-0.6,10.11
1455212656696002960,298,0,/imu_data_acquisition2,25344.0,-0.027587890625,-0.0294799804688,0.793762207031,0.606872558594,2.6875,0.625,0.4375,-0.62,-0.64,10.23
1455212656702903985,299,0,/imu_data_acquisition2,25351.0,-0.027587890625,-0.0291137695312,0.793762207031,0.606872558594,2.4375,0.125,0.25,-0.62,-0.64,10.23
1455212656715075016,300,0,/imu_data_acquisition2,25363.0,-0.0274658203125,-0.0289916992188,0.793823242188,0.606872558594,2.125,-0.5,0.3125,-0.86,-0.53,10.32
1455212656725811004,301,0,/imu_data_acquisition2,25374.0,-0.02734375,-0.0289306640625,0.793823242188,0.606872558594,1.4375,-0.6875,-0.125,-0.59,-0.49,10.18
1455212656734749078,302,0,/imu_data_acquisition2,25384.0,-0.0272216796875,-0.0289306640625,0.793762207031,0.60693359375,0.1875,-1.5,-0.75,-0.47,-0.52,10.22
1455212656744981050,303,0,/imu_data_acquisition2,25393.0,-0.0272827148438,-0.028564453125,0.793762207031,0.60693359375,0.1875,-1.5,-0.75,-0.47,-0.52,10.22
1455212656752490043,304,0,/imu_data_acquisition2,25400.0,-0.0272827148438,-0.0126953125,-6.103515625e-05,0.606994628906,-0.25,-1.9375,-1.0625,-0.59,-0.59,10.3
1455212656762850046,305,0,/imu_data_acquisition2,25411.0,-0.0272827148438,-0.028076171875,0.793640136719,0.607116699219,-0.5625,-2.375,-1.5,-0.4,-0.47,10.1
1455212656774171113,306,0,/imu_data_acquisition2,25421.0,-0.0272827148438,-0.0280151367188,0.793579101562,0.607238769531,-1.1875,-2.625,-1.75,-0.53,-0.57,10.3
1455212656786446094,307,0,/imu_data_acquisition2,25434.0,-0.02734375,-0.02783203125,0.793518066406,0.607360839844,-1.625,-2.5,-2.0625,-0.53,-0.56,10.13
1455212656795896053,308,0,/imu_data_acquisition2,25444.0,-0.0274047851562,-0.0277709960938,0.793395996094,0.607482910156,-2.5625,-3.125,-2.875,-0.51,-0.62,10.18
1455212656805228948,309,0,/imu_data_acquisition2,25451.0,-0.0274658203125,-0.02783203125,0.793273925781,0.607666015625,-2.5625,-3.125,-2.875,-0.51,-0.62,10.18
1455212656814162015,310,0,/imu_data_acquisition2,25462.0,-0.0275268554688,-0.0279541015625,0.793090820312,0.607849121094,-2.6875,-3.3125,-3.0,-0.37,-0.61,10.26
1455212656858510017,311,0,/imu_data_acquisition2,25472.0,-0.0275268554688,-0.0125122070312,-6.103515625e-05,0.608032226562,-3.0,-3.4375,-2.9375,-0.55,-0.65,10.13
1455212656860658884,312,0,/imu_data_acquisition2,25488.0,-0.0276489257812,-0.028564453125,0.792663574219,0.608337402344,-3.1875,-3.6875,-2.9375,-0.41,-0.75,9.86
1455212656862729072,313,0,/imu_data_acquisition2,25493.0,-0.0276489257812,-0.012939453125,-6.103515625e-05,0.608337402344,-3.1875,-3.6875,-2.9375,-0.41,-0.75,9.86
1455212656863455057,314,0,/imu_data_acquisition2,25501.0,-0.0277099609375,-0.0286865234375,0.792541503906,0.608520507812,-2.9375,-3.5,-2.75,-0.69,-0.64,10.12
1455212656865159034,315,0,/imu_data_acquisition2,25510.0,-0.0277709960938,-0.0289306640625,0.792419433594,0.608703613281,-2.875,-3.4375,-2.6875,-0.36,-0.75,10.11
1455212656873661994,316,0,/imu_data_acquisition2,25520.0,-0.0277709960938,-0.0134887695312,-6.103515625e-05,0.608825683594,-2.75,-3.4375,-2.625,-0.4,-0.64,10.02
1455212656884473085,317,0,/imu_data_acquisition2,25533.0,-0.0277709960938,-0.029296875,0.792175292969,0.609008789062,-2.625,-3.125,-2.375,-0.44,-0.66,9.85
1455212656897593975,318,0,/imu_data_acquisition2,25543.0,-0.02783203125,-0.0294799804688,0.792053222656,0.609130859375,-2.8125,-3.5625,-2.3125,-0.44,-0.6,10.04
1455212656902683973,319,0,/imu_data_acquisition2,25551.0,-0.0278930664062,-0.0296020507812,0.791931152344,0.609252929688,-3.0625,-3.375,-2.5625,-0.58,-0.59,10.22
1455212656915601015,320,0,/imu_data_acquisition2,25563.0,-0.02783203125,-0.0298461914062,0.791809082031,0.609436035156,-3.5,-3.8125,-2.625,-0.19,-0.57,10.16
1455212656921766042,321,0,/imu_data_acquisition2,25571.0,-0.02783203125,-0.0301513671875,0.791625976562,0.609619140625,-4.0,-3.5625,-2.8125,-0.25,-0.69,10.11
1455212656935801029,322,0,/imu_data_acquisition2,25584.0,-0.02783203125,-0.0306396484375,0.79150390625,0.609741210938,-4.25,-3.5625,-2.75,-0.13,-0.75,10.0
1455212656946831941,323,0,/imu_data_acquisition2,25594.0,-0.02783203125,-0.0310668945312,0.791381835938,0.609924316406,-4.3125,-2.875,-2.625,-0.13,-0.75,10.0
1455212656953128099,324,0,/imu_data_acquisition2,25602.0,-0.0278930664062,-0.031494140625,0.791259765625,0.610046386719,-4.375,-2.25,-2.125,-0.15,-0.75,10.01
1455212656966331958,325,0,/imu_data_acquisition2,25613.0,-0.0280151367188,-0.0318603515625,0.791137695312,0.610107421875,-4.1875,-1.5,-1.5,-0.15,-0.82,9.91
1455212656972491025,326,0,/imu_data_acquisition2,25621.0,-0.0281982421875,-0.0321655273438,0.791076660156,0.610168457031,-4.125,-0.625,-1.0625,0.05,-0.81,9.82
1455212656985466957,327,0,/imu_data_acquisition2,25634.0,-0.0283813476562,-0.0324096679688,0.791076660156,0.610168457031,-4.0625,0.3125,-0.375,-0.21,-0.71,-0.01
1455212656996619939,328,0,/imu_data_acquisition2,25644.0,-0.0286254882812,-0.0325927734375,0.791076660156,0.610168457031,-4.0,0.4375,-0.1875,-0.21,-0.71,10.26
1455212657002814054,329,0,/imu_data_acquisition2,25652.0,-0.0288696289062,-0.03271484375,0.791076660156,0.610168457031,-3.9375,1.0,-0.1875,-0.23,-0.65,10.16
1455212657013761997,330,0,/imu_data_acquisition2,25662.0,-0.0291748046875,-0.032958984375,0.791076660156,0.610168457031,-4.0625,1.0625,-0.375,-0.16,-0.63,10.3
1455212657030673027,331,0,/imu_data_acquisition2,25674.0,-0.0138549804688,-6.103515625e-05,-6.103515625e-05,0.610168457031,-4.0,1.5,-0.25,-0.18,-0.72,10.13
1455212657035325050,332,0,/imu_data_acquisition2,25684.0,-0.0298461914062,-0.0333251953125,0.791015625,0.610168457031,-3.9375,1.875,-0.4375,-0.82,0.26,8.78
1455212657047302007,333,0,/imu_data_acquisition2,25694.0,-0.0301513671875,-0.0333862304688,0.790893554688,0.610290527344,-3.3125,2.4375,-1.875,-0.82,0.26,8.78
1455212657052407026,334,0,/imu_data_acquisition2,25701.0,-0.030517578125,-0.0333862304688,0.790893554688,0.610290527344,-2.5,3.8125,-0.5,-0.74,-0.86,10.98
1455212657063088893,335,0,/imu_data_acquisition2,25712.0,-0.031005859375,-0.0332641601562,0.790893554688,0.610290527344,-2.3125,5.0625,-0.0625,-0.63,0.7,10.28
1455212657075818061,336,0,/imu_data_acquisition2,25724.0,-0.031494140625,-0.033447265625,0.790832519531,0.610290527344,-5.0,3.1875,-0.5,-0.38,-1.85,10.75
1455212657084414005,337,0,/imu_data_acquisition2,25733.0,-0.0319213867188,-0.0336303710938,0.790771484375,0.6103515625,-4.9375,3.3125,-0.0625,-0.43,-1.12,11.11
1455212657095114946,338,0,/imu_data_acquisition2,25744.0,-0.0323486328125,-0.03369140625,0.790649414062,0.610473632812,-3.8125,3.1875,-1.0625,-0.45,-1.02,9.54
1455212657105457067,339,0,/imu_data_acquisition2,25753.0,-0.0328369140625,-0.0338134765625,0.790588378906,0.610534667969,-4.3125,3.5,-0.0625,-0.33,-0.79,-0.01
1455212657112211942,340,0,/imu_data_acquisition2,25760.0,-0.0331420898438,-0.0341186523438,0.790466308594,0.610656738281,-5.25,1.0625,-1.875,0.29,-0.79,8.77
1455212657123572111,341,0,/imu_data_acquisition2,25773.0,-0.0336303710938,-0.034423828125,0.790283203125,0.61083984375,-6.1875,2.5,-2.9375,-0.48,-0.64,10.05
1455212657135968923,342,0,/imu_data_acquisition2,25785.0,-0.0341186523438,-0.03466796875,0.790100097656,0.611022949219,-5.9375,2.5625,-3.1875,-0.62,-0.93,10.11
1455212657145209074,343,0,/imu_data_acquisition2,25793.0,-0.0344848632812,-0.0350341796875,0.789855957031,0.611328125,-5.8125,1.6875,-4.75,-0.38,-1.07,-0.01
1455212657153578996,344,0,/imu_data_acquisition2,25801.0,-6.103515625e-05,-6.103515625e-05,-6.103515625e-05,0.611633300781,-6.5,1.5,-4.6875,-0.17,-1.45,9.9
1455212657162934064,345,0,/imu_data_acquisition2,25810.0,-0.0353393554688,-0.0357666015625,0.789306640625,0.611938476562,-6.625,1.4375,-4.6875,-0.32,-1.19,10.12
1455212657173515081,346,0,/imu_data_acquisition2,25822.0,-0.0357666015625,-0.0361328125,0.789001464844,0.6123046875,-6.1875,1.5,-5.0625,-0.18,-0.64,9.92
1455212657185642957,347,0,/imu_data_acquisition2,25834.0,-0.0362548828125,-0.036376953125,0.788696289062,0.612609863281,-5.8125,2.6875,-4.9375,-0.4,-0.6,10.05
1455212657195267915,348,0,/imu_data_acquisition2,25842.0,-6.103515625e-05,-6.103515625e-05,-6.103515625e-05,0.612915039062,-5.25,3.625,-4.875,-0.24,-0.68,10.03
1455212657203810930,349,0,/imu_data_acquisition2,25852.0,-0.0372924804688,-0.0366821289062,0.788146972656,0.61328125,-5.0,4.25,-5.3125,-0.02,-0.66,10.31
1455212657213978052,350,0,/imu_data_acquisition2,25862.0,-0.0379028320312,-0.0367431640625,0.787780761719,0.613647460938,-5.0625,5.5625,-5.875,0.03,-0.89,10.05
1455212657221213102,351,0,/imu_data_acquisition2,25870.0,-0.0386352539062,-0.0367431640625,0.787475585938,0.614074707031,-5.25,7.1875,-5.6875,-0.35,-1.33,9.91
1455212657235579013,352,0,/imu_data_acquisition2,25883.0,-0.039306640625,-0.0365600585938,0.787109375,0.614440917969,-5.0,8.9375,-5.6875,0.15,-0.39,10.09
1455212657245285987,353,0,/imu_data_acquisition2,25894.0,-0.0404052734375,-0.0364379882812,0.786804199219,0.614807128906,-6.25,11.3125,-5.0625,-0.31,-1.23,10.3
1455212657252584934,354,0,/imu_data_acquisition2,25900.0,-0.0416259765625,-0.0361328125,0.786437988281,0.615234375,-6.3125,13.4375,-5.75,0.15,-0.99,9.86
1455212657262861967,355,0,/imu_data_acquisition2,25911.0,-0.0430297851562,-0.0358276367188,0.786010742188,0.615661621094,-7.125,15.8125,-6.5625,0.0,-1.0,-0.01
1455212657275027990,356,0,/imu_data_acquisition2,25923.0,-0.0446166992188,-0.0354614257812,0.785461425781,0.616271972656,-8.1875,18.1875,-8.125,0.1,-1.17,9.95
1455212657282454967,357,0,/imu_data_acquisition2,25931.0,-0.0151977539062,-6.103515625e-05,-6.103515625e-05,0.616821289062,-9.0,21.25,-7.875,-0.12,-1.27,10.03
1455212657294271945,358,0,/imu_data_acquisition2,25942.0,-0.0484619140625,-0.034423828125,0.784362792969,0.617492675781,-9.3125,22.6875,-9.875,0.16,-0.65,10.08
1455212657306160926,359,0,/imu_data_acquisition2,25951.0,-0.05029296875,-0.0341796875,0.783630371094,0.618286132812,-12.875,26.1875,-10.9375,0.33,-1.01,9.85
1455212657311619997,360,0,/imu_data_acquisition2,25961.0,-0.052978515625,-0.0338134765625,0.782836914062,0.619079589844,-17.3125,31.4375,-11.5625,-0.2,-1.25,10.11
1455212657325669050,361,0,/imu_data_acquisition2,25972.0,-0.05615234375,-0.033203125,0.781921386719,0.619934082031,-17.375,34.875,-13.25,-0.39,-0.65,10.22
1455212657336741924,362,0,/imu_data_acquisition2,25983.0,-0.0597534179688,-0.03271484375,0.780822753906,0.621032714844,-21.25,37.5,-16.25,0.05,-0.35,9.82
1455212657341766119,363,0,/imu_data_acquisition2,25991.0,-0.063720703125,-0.0322875976562,0.779724121094,0.6220703125,-25.375,41.375,-15.9375,-0.03,-1.72,9.84
1455212657355426073,364,0,/imu_data_acquisition2,26001.0,-0.0682373046875,-0.0316772460938,0.778442382812,0.623229980469,-26.375,47.375,-17.6875,-0.53,-1.23,9.7
1455212657362937927,365,0,/imu_data_acquisition2,26011.0,-0.0734252929688,-0.031005859375,0.777160644531,0.624206542969,-32.3125,54.1875,-16.1875,0.19,-0.6,9.66
1455212657371382951,366,0,/imu_data_acquisition2,26020.0,-6.103515625e-05,-6.103515625e-05,-6.103515625e-05,0.625,-42.0,63.875,-13.125,-0.63,-1.51,10.06
1455212657384650945,367,0,/imu_data_acquisition2,26032.0,-0.08642578125,-0.0294799804688,0.774658203125,0.625732421875,-39.0,69.8125,-13.0,-0.49,-1.06,9.58
1455212657394738912,368,0,/imu_data_acquisition2,26042.0,-0.093505859375,-0.0281372070312,0.773376464844,0.626403808594,-40.375,76.625,-11.8125,-0.57,-1.5,9.96
1455212657401907920,369,0,/imu_data_acquisition2,26051.0,-0.10107421875,-0.0263061523438,0.771911621094,0.627075195312,-38.9375,84.625,-12.5,-0.77,-1.68,9.68
1455212657413228988,370,0,/imu_data_acquisition2,26061.0,-0.109313964844,-0.0238037109375,0.770263671875,0.627868652344,-37.6875,95.8125,-13.5625,-0.85,-1.02,10.03
1455212657423139095,371,0,/imu_data_acquisition2,26071.0,-0.118469238281,-0.0210571289062,0.768493652344,0.62841796875,-42.875,106.5,-11.75,-1.0,-0.58,9.93
1455212657433440923,372,0,/imu_data_acquisition2,26082.0,-6.103515625e-05,-6.103515625e-05,-6.103515625e-05,0.628723144531,-43.1875,119.375,-8.625,-0.95,0.48,10.5
1455212657443483114,373,0,/imu_data_acquisition2,26092.0,-0.139831542969,-0.0146484375,0.765258789062,0.628234863281,-59.0625,127.0,-0.375,-1.6,-1.89,9.54
1455212657453192949,374,0,/imu_data_acquisition2,26101.0,-0.152160644531,-0.0120239257812,0.763610839844,0.627319335938,-69.3125,134.0,2.5625,-1.53,-2.18,9.91
1455212657461673974,375,0,/imu_data_acquisition2,26111.0,-0.1650390625,-0.0091552734375,0.761840820312,0.626281738281,-71.75,140.5,3.375,-1.48,-1.3,10.73
1455212657472738981,376,0,/imu_data_acquisition2,26121.0,-0.178649902344,-0.006591796875,0.760070800781,0.624816894531,-80.6875,145.1875,6.5,-2.23,-2.69,9.76
1455212657482616901,377,0,/imu_data_acquisition2,26131.0,-0.19287109375,-0.00408935546875,0.758056640625,0.623046875,-7.0625,-0.0625,-0.0625,-2.39,-3.22,9.44
1455212657495980978,378,0,/imu_data_acquisition2,26144.0,-0.207580566406,-0.00115966796875,0.755737304688,0.62109375,-86.3125,159.125,8.125,-2.53,-0.01,-0.01
1455212657503950119,379,0,/imu_data_acquisition2,26153.0,-0.22265625,0.0020751953125,0.753540039062,0.618591308594,-88.125,163.9375,14.25,-3.38,-2.01,11.33
1455212657513103961,380,0,/imu_data_acquisition2,26161.0,-0.237915039062,0.00531005859375,0.75146484375,0.615417480469,-91.125,165.5,21.3125,-3.65,-2.69,10.75
1455212657523637056,381,0,/imu_data_acquisition2,26172.0,-0.253173828125,0.00872802734375,0.74951171875,0.611633300781,-91.25,166.125,28.125,-3.85,-3.07,9.99
1455212657534774065,382,0,/imu_data_acquisition2,26183.0,-0.267944335938,0.0125122070312,0.747741699219,0.607360839844,-86.25,164.0625,34.8125,-4.49,-2.64,10.98
1455212657542462110,383,0,/imu_data_acquisition2,26191.0,-0.281860351562,0.01611328125,0.74658203125,0.602416992188,-83.3125,153.875,44.375,-4.58,-2.48,11.55
1455212657552838087,384,0,/imu_data_acquisition2,26201.0,-0.294982910156,0.0191040039062,0.746032714844,0.5966796875,-86.4375,140.125,54.625,-4.38,-3.09,10.7
1455212657564197063,385,0,/imu_data_acquisition2,26212.0,-0.30712890625,0.021728515625,0.74609375,0.59033203125,-84.8125,126.625,62.6875,-3.72,-5.9,11.06
1455212657572181940,386,0,/imu_data_acquisition2,26221.0,-0.317626953125,0.0244750976562,0.746643066406,0.584045410156,-72.0,111.75,66.75,-1.64,-7.73,13.19
1455212657584852933,387,0,/imu_data_acquisition2,26233.0,-0.325622558594,0.0276489257812,0.746887207031,0.5791015625,-46.1875,92.875,55.125,2.95,-8.33,15.76
1455212657597737073,388,0,/imu_data_acquisition2,26244.0,-0.33154296875,0.03076171875,0.74609375,0.576599121094,-22.125,77.8125,26.5625,5.43,-10.58,17.12
1455212657604340076,389,0,/imu_data_acquisition2,26252.0,-0.333740234375,0.0325927734375,0.743408203125,0.578674316406,10.3125,41.6875,-30.375,5.71,-5.38,13.79
1455212657613703966,390,0,/imu_data_acquisition2,26262.0,-0.332092285156,0.0322875976562,0.740783691406,0.5830078125,26.5625,-7.625,-56.125,5.93,-2.43,10.97
1455212657621248960,391,0,/imu_data_acquisition2,26270.0,-0.329223632812,0.0313110351562,0.738708496094,0.587341308594,28.9375,-25.75,-7.4375,5.72,-0.01,-0.01
1455212657633085012,392,0,/imu_data_acquisition2,26281.0,-0.325744628906,0.0300903320312,0.73779296875,0.590454101562,26.1875,-36.4375,-37.0,4.43,1.64,12.01
1455212657645560026,393,0,/imu_data_acquisition2,26291.0,-0.321472167969,0.0286254882812,0.738586425781,0.591857910156,21.75,-51.0,-10.9375,3.84,1.4,13.13
1455212657651906013,394,0,/imu_data_acquisition2,26301.0,-0.315979003906,0.026611328125,0.741271972656,0.591552734375,19.125,-72.0,16.125,3.27,0.69,13.33
1455212657664746046,395,0,/imu_data_acquisition2,26312.0,-0.30908203125,0.0242919921875,0.745727539062,0.589721679688,19.375,-92.9375,40.5,1.87,-0.72,12.12
1455212657675456047,396,0,/imu_data_acquisition2,26322.0,-0.301086425781,0.0216064453125,0.751647949219,0.58642578125,18.0,-110.125,62.625,1.11,-1.75,11.39
1455212657682069063,397,0,/imu_data_acquisition2,26331.0,-0.292541503906,0.0184326171875,0.758728027344,0.581726074219,12.6875,-122.0,81.25,0.34,-2.95,10.56
1455212657693794012,398,0,/imu_data_acquisition2,26342.0,-0.283874511719,0.0146484375,0.766418457031,0.576049804688,4.5,-129.1875,93.5,-0.26,-4.29,10.0
1455212657704623937,399,0,/imu_data_acquisition2,26351.0,-0.275451660156,0.01025390625,0.774291992188,0.569702148438,-4.8125,-131.6875,97.9375,-1.1,-0.01,-0.01
1455212657711754083,400,0,/imu_data_acquisition2,26361.0,-0.267272949219,0.00531005859375,0.781799316406,0.563293457031,-12.1875,-4.3125,-0.0625,-1.35,-7.88,8.83
1455212657723157882,401,0,/imu_data_acquisition2,26372.0,-0.259460449219,-0.00018310546875,0.788696289062,0.557373046875,-17.625,-130.1875,83.625,-1.56,-8.15,8.45
1455212657736486911,402,0,/imu_data_acquisition2,26382.0,-0.252197265625,-0.006103515625,0.794677734375,0.552124023438,-23.5,-125.4375,70.375,-1.81,-7.91,7.91
1455212657742213010,403,0,/imu_data_acquisition2,26391.0,-0.24560546875,-0.0125122070312,0.7998046875,0.547607421875,-30.125,-119.375,56.1875,-1.87,-7.69,7.94
1455212657752855062,404,0,/imu_data_acquisition2,26401.0,-0.00537109375,-6.103515625e-05,-6.103515625e-05,0.543884277344,-36.0625,-112.0,41.6875,-1.86,-7.46,8.11
1455212657763719081,405,0,/imu_data_acquisition2,26411.0,-0.234497070312,-0.0261840820312,0.807250976562,0.541076660156,-39.375,-104.4375,27.3125,-1.78,-6.83,8.92
1455212657771533012,406,0,/imu_data_acquisition2,26421.0,-0.229675292969,-0.0330810546875,0.8095703125,0.539184570312,-40.1875,-97.125,12.3125,-1.7,-1.21,-0.01
1455212657783349990,407,0,/imu_data_acquisition2,26432.0,-0.225219726562,-0.0399780273438,0.811096191406,0.538269042969,-6.8125,-0.0625,-0.0625,-1.59,-5.61,9.42
1455212657792442083,408,0,/imu_data_acquisition2,26441.0,-0.220825195312,-0.0466918945312,0.811950683594,0.538330078125,-36.5,-87.0,-15.0,-1.53,-4.18,10.18
1455212657802803039,409,0,/imu_data_acquisition2,26452.0,-0.216552734375,-0.0532836914062,0.812194824219,0.5390625,-33.8125,-83.375,-24.875,-1.48,-3.68,10.66
1455212657813159942,410,0,/imu_data_acquisition2,26461.0,-0.212219238281,-0.0596923828125,0.812072753906,0.540344238281,-30.6875,-81.625,-32.5,-1.41,-0.77,-0.01
1455212657915322065,411,0,/imu_data_acquisition2,26473.0,-0.20751953125,-0.06591796875,0.811645507812,0.542053222656,-26.0,-82.3125,-38.25,-1.33,-2.87,11.04
1455212657918119907,412,0,/imu_data_acquisition2,26482.0,-0.202514648438,-0.0719604492188,0.81103515625,0.544067382812,-21.0,-84.0625,-42.0625,-1.07,-2.28,10.95
1455212657920250892,413,0,/imu_data_acquisition2,26492.0,-0.197143554688,-0.0778198242188,0.810363769531,0.546264648438,-16.9375,-86.0625,-43.5625,-1.02,-2.47,11.15
1455212657921668052,414,0,/imu_data_acquisition2,26501.0,-0.191345214844,-0.0836181640625,0.809692382812,0.548461914062,-13.5,-89.375,-44.6875,-0.95,-2.7,11.12
1455212657924407958,415,0,/imu_data_acquisition2,26510.0,-0.18505859375,-0.0894165039062,0.808898925781,0.550842285156,-9.9375,-93.75,-47.0,-0.71,-3.23,10.67
1455212657925741910,416,0,/imu_data_acquisition2,26520.0,-0.17822265625,-0.0951538085938,0.808044433594,0.553405761719,-6.4375,-98.0625,-50.1875,-0.61,-3.45,10.41
1455212657929938077,417,0,/imu_data_acquisition2,26530.0,-0.0148315429688,-6.103515625e-05,-6.103515625e-05,0.556213378906,-3.6875,-5.25,-0.0625,-0.65,-3.8,10.11
1455212657931559085,418,0,/imu_data_acquisition2,26540.0,-6.103515625e-05,-6.103515625e-05,-6.103515625e-05,0.559265136719,-1.5,-104.5625,-59.125,-0.67,-4.19,9.5
1455212657934164047,419,0,/imu_data_acquisition2,26550.0,-0.155517578125,-0.112731933594,0.804016113281,0.562744140625,1.0625,-107.375,-65.1875,-0.66,-4.14,9.07
1455212657935698032,420,0,/imu_data_acquisition2,26560.0,-6.103515625e-05,-6.103515625e-05,-6.103515625e-05,0.566589355469,3.9375,-109.375,-71.5625,-0.65,-3.91,8.66
1455212657937244892,421,0,/imu_data_acquisition2,26570.0,-0.138671875,-0.124328613281,0.799682617188,0.57080078125,7.25,-109.6875,-77.4375,-0.65,-0.01,-0.01
1455212657938782930,422,0,/imu_data_acquisition2,26582.0,-0.1298828125,-0.00469970703125,-6.103515625e-05,0.575256347656,11.875,-108.1875,-81.9375,-0.73,-3.08,7.66
1455212657940742015,423,0,/imu_data_acquisition2,26590.0,-0.12109375,-0.134521484375,0.794250488281,0.580017089844,17.5625,-104.375,-84.75,-0.69,-2.8,8.11
1455212657952905893,424,0,/imu_data_acquisition2,26601.0,-0.112243652344,-0.138732910156,0.791259765625,0.584838867188,22.75,-100.1875,-85.9375,-0.61,-3.0,8.61
1455212657961760997,425,0,/imu_data_acquisition2,26611.0,-0.103393554688,-0.142333984375,0.788269042969,0.589660644531,29.25,-96.375,-85.6875,-1.17,-3.23,10.38
1455212657972903966,426,0,/imu_data_acquisition2,26621.0,-6.103515625e-05,-6.103515625e-05,-6.103515625e-05,0.594604492188,37.875,-95.0625,-86.75,-1.34,-2.9,10.92
1455212657981266975,427,0,/imu_data_acquisition2,26630.0,-0.00628662109375,-6.103515625e-05,-6.103515625e-05,0.599487304688,46.3125,-95.125,-86.4375,-1.63,-2.45,-0.01
1455212657992558002,428,0,/imu_data_acquisition2,26642.0,-0.0744018554688,-0.149597167969,0.779174804688,0.604125976562,53.0,-95.125,-83.1875,-2.76,-1.92,14.23
1455212658004703998,429,0,/imu_data_acquisition2,26651.0,-0.0641479492188,-0.1513671875,0.776489257812,0.608276367188,55.3125,-97.3125,-77.25,-3.27,-1.89,15.21
1455212658012447118,430,0,/imu_data_acquisition2,26661.0,-0.053466796875,-0.153503417969,0.774169921875,0.611755371094,55.6875,-105.4375,-69.0625,-3.84,-1.89,15.67
1455212658024640083,431,0,/imu_data_acquisition2,26674.0,-0.042236328125,-0.015380859375,-6.103515625e-05,0.614379882812,57.1875,-114.9375,-59.6875,-4.33,-1.57,15.64
1455212658033557891,432,0,/imu_data_acquisition2,26681.0,-0.030517578125,-0.158569335938,0.770874023438,0.616149902344,59.9375,-122.0625,-49.375,-5.77,-1.25,14.91
1455212658042087078,433,0,/imu_data_acquisition2,26691.0,-0.0185546875,-0.1611328125,0.770080566406,0.617004394531,62.625,-125.8125,-36.8125,-6.65,-1.06,14.61
1455212658053513050,434,0,/imu_data_acquisition2,26702.0,-0.006591796875,-0.163513183594,0.769958496094,0.61669921875,65.0,-126.9375,-21.8125,-7.52,-0.97,14.21
1455212658063556909,435,0,/imu_data_acquisition2,26711.0,-0.006591796875,-0.163513183594,0.769958496094,0.61669921875,66.5,-125.0625,-5.5,-9.76,-0.86,13.25
1455212658073038101,436,0,/imu_data_acquisition2,26721.0,0.0162353515625,-0.167785644531,0.772094726562,0.61279296875,65.8125,-122.0,12.375,-11.0,-0.87,12.37
1455212658084793090,437,0,/imu_data_acquisition2,26733.0,0.0267333984375,-0.169860839844,0.774475097656,0.608825683594,62.4375,-118.5625,32.9375,-12.38,-1.06,11.16
1455212658091312885,438,0,/imu_data_acquisition2,26740.0,0.0363159179688,-0.172241210938,0.777709960938,0.603454589844,55.5,-114.75,54.25,-15.98,-0.62,8.71
1455212658104398965,439,0,/imu_data_acquisition2,26753.0,0.0445556640625,-0.175354003906,0.78173828125,0.596740722656,41.3125,-110.0625,74.8125,-18.54,0.41,7.62
1455212658114188909,440,0,/imu_data_acquisition2,26762.0,0.0508422851562,-0.180053710938,0.786376953125,0.588745117188,14.4375,-105.625,96.5,-21.27,1.71,5.91
1455212658121140956,441,0,/imu_data_acquisition2,26770.0,0.0508422851562,-0.180053710938,0.786376953125,0.588745117188,-28.25,-102.375,120.5,-21.78,0.18,-2.91
1455212658133508920,442,0,/imu_data_acquisition2,26782.0,0.0542602539062,-0.197937011719,0.796630859375,0.568603515625,-80.25,-90.375,142.0625,-18.49,-8.15,-9.32
1455212658143388032,443,0,/imu_data_acquisition2,26791.0,0.0498657226562,-0.208190917969,0.801391601562,0.558532714844,-108.625,-47.5,143.625,-14.93,-13.54,-12.85
1455212658151793956,444,0,/imu_data_acquisition2,26801.0,0.04296875,-0.211364746094,0.805419921875,0.552124023438,-61.5,30.625,106.6875,-10.77,-1.98,-0.01
1455212658163340091,445,0,/imu_data_acquisition2,26812.0,0.04296875,-0.211364746094,0.805419921875,0.552124023438,37.1875,93.4375,46.4375,13.1,-9.62,13.74
1455212658174031972,446,0,/imu_data_acquisition2,26821.0,0.0375366210938,-0.20458984375,0.808532714844,0.550476074219,124.8125,106.1875,-29.125,23.55,-11.59,27.43
1455212658181543111,447,0,/imu_data_acquisition2,26831.0,0.0359497070312,-0.178588867188,0.808959960938,0.558959960938,111.0625,99.0625,-57.1875,18.82,-12.01,19.54
1455212658192698001,448,0,/imu_data_acquisition2,26841.0,0.0333862304688,-0.165893554688,0.806335449219,0.566711425781,96.0625,124.125,-91.625,-0.87,3.73,-12.2
1455212658202892065,449,0,/imu_data_acquisition2,26851.0,0.027587890625,-0.150756835938,0.80322265625,0.57568359375,96.0625,173.0625,-101.25,-1.57,3.96,-13.33
1455212658211849927,450,0,/imu_data_acquisition2,26861.0,0.027587890625,-0.150756835938,0.80322265625,0.57568359375,82.9375,224.1875,-96.375,-2.67,3.24,0.94
1455212658223459959,451,0,/imu_data_acquisition2,26872.0,0.00531005859375,-0.115112304688,0.796630859375,0.593383789062,86.3125,260.4375,-89.0,-3.8,3.97,30.15
1455212658232970952,452,0,/imu_data_acquisition2,26881.0,-0.0047607421875,-0.0946655273438,0.79345703125,0.601196289062,117.1875,248.8125,-0.0625,-7.84,13.15,36.91
1455212658242110013,453,0,/imu_data_acquisition2,26891.0,-0.00927734375,-0.0757446289062,0.791564941406,0.606323242188,143.1875,183.1875,-55.375,-7.32,13.78,30.9
1455212658253951072,454,0,/imu_data_acquisition2,26902.0,-0.00927734375,-0.0621337890625,0.791809082031,0.607482910156,128.5625,98.625,-7.5625,-5.27,7.27,24.09
1455212658263118982,455,0,/imu_data_acquisition2,26911.0,-0.00927734375,-0.0621337890625,0.791809082031,0.607482910156,101.125,45.6875,10.1875,-2.66,-2.96,18.62
1455212658272499084,456,0,/imu_data_acquisition2,26921.0,-0.0072021484375,-0.006103515625,-6.103515625e-05,0.607116699219,44.75,12.0,11.4375,0.92,5.97,5.62
1455212658285140991,457,0,/imu_data_acquisition2,26933.0,-0.00482177734375,-0.0469970703125,0.793762207031,0.606384277344,29.125,8.0,1.375,1.37,2.48,10.92
1455212658299168109,458,0,/imu_data_acquisition2,26942.0,-0.0057373046875,-0.0453491210938,0.7939453125,0.606262207031,9.0,20.8125,3.125,-1.28,-0.13,13.16
1455212658302993059,459,0,/imu_data_acquisition2,26952.0,-0.0069580078125,-0.0451049804688,0.794067382812,0.606079101562,-6.8125,-0.0625,-0.0625,-0.97,-0.01,-0.01
1455212658314275979,460,0,/imu_data_acquisition2,26962.0,-0.0069580078125,-0.0451049804688,0.794067382812,0.606079101562,-10.5625,1.75,-0.375,-0.11,0.17,11.41
1455212658323432922,461,0,/imu_data_acquisition2,26971.0,-0.00762939453125,-0.0145263671875,-6.103515625e-05,0.606079101562,-13.3125,-4.0,-3.4375,0.42,-1.24,9.56
1455212658334228038,462,0,/imu_data_acquisition2,26983.0,-0.0087890625,-0.048095703125,0.793518066406,0.606567382812,-16.9375,-1.9375,-4.3125,0.2,-1.45,9.25
1455212658344120025,463,0,/imu_data_acquisition2,26992.0,-0.0087890625,-0.048095703125,0.793518066406,0.606567382812,-15.5625,0.0,-5.3125,0.37,-1.26,9.77
1455212658353548049,464,0,/imu_data_acquisition2,27001.0,-0.009521484375,-0.0491333007812,0.793151855469,0.60693359375,-11.6875,0.75,-6.375,0.2,-1.24,9.22
1455212658362947940,465,0,/imu_data_acquisition2,27012.0,-0.0101928710938,-0.0499267578125,0.792785644531,0.607360839844,-7.9375,1.625,-0.0625,0.25,-1.67,9.54
1455212658373512983,466,0,/imu_data_acquisition2,27022.0,-0.0106811523438,-0.0503540039062,0.79248046875,0.607727050781,-3.625,3.5625,-5.375,0.28,-1.17,9.64
1455212658383456945,467,0,/imu_data_acquisition2,27031.0,-0.0113525390625,-0.0501708984375,0.791931152344,0.608459472656,-0.4375,4.5,-4.8125,0.32,-1.06,9.06
1455212658393517017,468,0,/imu_data_acquisition2,27042.0,-0.0113525390625,-0.0501708984375,0.791931152344,0.608459472656,2.3125,6.25,-3.75,0.05,-0.73,10.04
1455212658409615993,469,0,/imu_data_acquisition2,27054.0,-0.0116577148438,-0.0496826171875,0.791748046875,0.608764648438,3.875,6.8125,-2.6875,0.01,-0.83,10.11
1455212658414891004,470,0,/imu_data_acquisition2,27063.0,-0.0119018554688,-0.049072265625,0.791564941406,0.608947753906,4.5625,5.8125,-1.375,-0.04,-1.04,10.11
1455212658423954010,471,0,/imu_data_acquisition2,27072.0,-0.0120239257812,-0.0484619140625,0.79150390625,0.609069824219,5.4375,4.875,-0.4375,-0.11,-0.59,10.07
1455212658433985948,472,0,/imu_data_acquisition2,27081.0,-0.0120849609375,-0.0478515625,0.791564941406,0.609130859375,5.3125,3.625,0.4375,0.33,-0.01,-0.01
1455212658443591117,473,0,/imu_data_acquisition2,27092.0,-0.0120239257812,-0.0473022460938,0.791564941406,0.609130859375,4.375,3.125,0.4375,0.27,-0.46,9.86
1455212658454935073,474,0,/imu_data_acquisition2,27102.0,-0.0120239257812,-0.046875,0.791564941406,0.609130859375,3.3125,4.875,0.625,0.14,-0.71,10.21
1455212658461409091,475,0,/imu_data_acquisition2,27111.0,-0.01220703125,-0.04638671875,0.791625976562,0.609130859375,3.3125,4.875,0.625,0.23,-0.01,-0.01
1455212658472748994,476,0,/imu_data_acquisition2,27122.0,-0.012451171875,-0.0458374023438,0.791687011719,0.609069824219,2.4375,7.8125,1.4375,0.0,-0.54,10.25
1455212658485193967,477,0,/imu_data_acquisition2,27132.0,-0.0128784179688,-0.0452880859375,0.791748046875,0.609008789062,1.25,8.75,2.0,0.12,-0.62,10.15
1455212658492280960,478,0,/imu_data_acquisition2,27141.0,-0.013427734375,-6.103515625e-05,-6.103515625e-05,0.608947753906,-0.1875,9.5,1.875,0.1,-0.7,10.16
1455212658503807067,479,0,/imu_data_acquisition2,27152.0,-0.0140380859375,-0.0438842773438,0.791931152344,0.608825683594,-1.125,10.5,1.625,0.19,-0.67,-0.01
1455212658515456914,480,0,/imu_data_acquisition2,27161.0,-0.0148315429688,-0.0120239257812,-6.103515625e-05,0.608764648438,-1.125,10.5,1.625,-0.14,-0.62,10.27
1455212658523080110,481,0,/imu_data_acquisition2,27172.0,-0.015625,-0.0426025390625,0.792114257812,0.608703613281,-1.1875,10.8125,1.8125,0.06,-0.68,10.07
1455212658534667968,482,0,/imu_data_acquisition2,27183.0,-0.0164794921875,-0.0419921875,0.792175292969,0.608642578125,-0.625,10.9375,1.1875,-0.11,-0.77,10.07
1455212658548294067,483,0,/imu_data_acquisition2,27196.0,-0.0172729492188,-0.0413208007812,0.792236328125,0.608581542969,-0.5,11.375,1.1875,0.08,-0.69,10.05
1455212658553028106,484,0,/imu_data_acquisition2,27202.0,-0.01806640625,-0.0405883789062,0.792297363281,0.608520507812,-0.75,10.625,0.875,-0.05,-0.23,9.95
1455212658564014911,485,0,/imu_data_acquisition2,27212.0,-0.018798828125,-0.039794921875,0.792297363281,0.608520507812,-0.75,10.625,0.875,-0.13,-1.15,10.35
1455212658576495885,486,0,/imu_data_acquisition2,27222.0,-0.01953125,-0.0391845703125,0.792358398438,0.608520507812,-0.4375,10.0625,0.75,-0.25,-0.61,10.58
