%time,field.header.seq,field.header.stamp,field.header.frame_id,field.time_stamp,field.quat_x,field.quat_y,field.quat_z,field.quat_w,field.gyro_x,field.gyro_y,field.gyro_z,field.accel_x,field.accel_y,field.accel_z
1543854626027400016,747,0,/imu_data_acquisition2,32015.0,-0.0173950195312,0.05859375,0.659912109375,0.748840332031,1.25,21.1875,-7.5,2.25,-0.69,-0.01
1543854626036741018,748,0,/imu_data_acquisition2,32025.0,-0.0183715820312,0.0597534179688,0.659423828125,0.749206542969,0.9375,17.75,-7.625,-5.28,-0.18,11.13
1543854626047437906,749,0,/imu_data_acquisition2,32035.0,-0.02001953125,0.0615234375,0.658630371094,0.749694824219,0.5625,28.5,-11.8125,-0.6,1.13,9.3
1543854626053472042,750,0,/imu_data_acquisition2,32041.0,-0.0213012695312,0.0631103515625,0.658020019531,0.750061035156,1.8125,23.6875,-9.0,-0.6,1.13,-0.01
1543854626067497968,751,0,/imu_data_acquisition2,32052.0,-6.103515625e-05,-6.103515625e-05,-6.103515625e-05,0.750427246094,0.0,29.375,-9.4375,0.3,-0.31,8.2
1543854626079374074,752,0,/imu_data_acquisition2,32065.0,-0.0250244140625,0.0671997070312,0.656616210938,0.750793457031,-0.3125,35.9375,-10.4375,-0.57,-0.36,9.27
1543854626088527917,753,0,/imu_data_acquisition2,32076.0,-0.0272827148438,0.0697631835938,0.655944824219,0.751098632812,-1.375,45.8125,-9.3125,-0.88,0.36,9.31
1543854626105914115,754,0,/imu_data_acquisition2,32087.0,-0.0299682617188,0.0725708007812,0.655212402344,0.751342773438,-3.125,52.875,-8.0,-1.33,0.46,9.91
1543854626107444047,755,0,/imu_data_acquisition2,32093.0,-0.0331420898438,0.0757446289062,0.654602050781,0.75146484375,-3.125,52.875,-8.0,-1.33,0.46,9.91
1543854626117016077,756,0,/imu_data_acquisition2,32102.0,-0.0364990234375,0.0791625976562,0.654052734375,0.751403808594,-2.8125,56.625,-6.0625,-1.65,0.59,10.22
1543854626132616996,757,0,/imu_data_acquisition2,32115.0,-0.039794921875,0.0824584960938,0.653625488281,0.751220703125,-3.125,55.375,-4.0625,-2.25,1.1,9.29
1543854626137859106,758,0,/imu_data_acquisition2,32125.0,-0.043212890625,0.0858154296875,0.6533203125,0.7509765625,-4.0,56.25,-2.9375,-1.52,0.27,9.73
1543854626149009943,759,0,/imu_data_acquisition2,32135.0,-0.0466918945312,0.0891723632812,0.652893066406,0.750732421875,-4.625,57.375,-3.25,-1.52,0.27,9.73
1543854626155325889,760,0,/imu_data_acquisition2,32143.0,-0.0503540039062,0.0927124023438,0.652465820312,0.750427246094,-5.125,60.8125,-3.875,-1.1,0.33,9.66
1543854626166680097,761,0,/imu_data_acquisition2,32153.0,-0.054443359375,0.0966186523438,0.651916503906,0.750122070312,-5.8125,66.625,-3.9375,-1.47,0.67,9.66
1543854626175259113,762,0,/imu_data_acquisition2,32162.0,-0.0587158203125,0.100891113281,0.651489257812,0.749633789062,-6.875,74.875,-3.375,-2.0,0.91,9.2
1543854626196372032,763,0,/imu_data_acquisition2,32175.0,-0.063720703125,0.105590820312,0.650939941406,0.7490234375,-7.9375,81.1875,-0.0625,-2.28,0.5,9.58
1543854626200566053,764,0,/imu_data_acquisition2,32187.0,-0.0690307617188,0.110595703125,0.650390625,0.748291015625,-7.375,91.5,-2.125,-2.3,0.19,9.51
1543854626209692001,765,0,/imu_data_acquisition2,32197.0,-0.0745239257812,0.115966796875,0.649780273438,0.747497558594,-6.125,96.5625,-2.5625,-2.6,0.52,9.57
1543854626216084003,766,0,/imu_data_acquisition2,32202.0,-0.0802612304688,0.121704101562,0.649047851562,0.746643066406,-6.125,96.5625,-2.5625,-2.6,0.52,9.57
1543854626230146884,767,0,/imu_data_acquisition2,32215.0,-0.0861206054688,0.127624511719,0.648254394531,0.745727539062,-5.875,100.0625,-3.0,-3.58,0.35,9.22
1543854626237947940,768,0,/imu_data_acquisition2,32225.0,-0.0921630859375,0.133850097656,0.647338867188,0.744689941406,-5.375,-0.0625,-0.0625,-3.58,0.35,9.22
1543854626249552965,769,0,/imu_data_acquisition2,32235.0,-0.0982055664062,0.140014648438,0.646362304688,0.743591308594,-5.375,103.625,-3.0,-3.57,0.06,9.34
1543854626255122900,770,0,/imu_data_acquisition2,32243.0,-0.104248046875,0.146240234375,0.645324707031,0.742492675781,-5.25,103.75,-3.625,-4.2,0.23,9.4
1543854626267077922,771,0,/imu_data_acquisition2,32255.0,-0.1103515625,0.152404785156,0.644165039062,0.741394042969,-5.8125,104.6875,-4.4375,-4.13,0.29,9.46
1543854626274245977,772,0,/imu_data_acquisition2,32261.0,-0.116516113281,0.158569335938,0.643005371094,0.740112304688,-6.6875,104.6875,-3.5625,-3.68,0.26,9.19
1543854626291451930,773,0,/imu_data_acquisition2,32277.0,-0.122741699219,0.164733886719,0.641845703125,0.738830566406,-7.1875,105.875,-3.5,-4.1,0.15,9.06
1543854626297565937,774,0,/imu_data_acquisition2,32284.0,-0.129089355469,0.171081542969,0.640563964844,0.737365722656,-7.0,-0.0625,-0.0625,-4.1,0.15,9.06
1543854626303678989,775,0,/imu_data_acquisition2,32291.0,-0.135375976562,0.177490234375,0.639282226562,0.735900878906,-5.8125,108.875,-3.125,-4.02,0.1,9.23
1543854626317112922,776,0,/imu_data_acquisition2,32303.0,-0.1416015625,0.184143066406,0.637878417969,0.734252929688,-3.625,110.4375,-2.4375,-4.15,-0.16,9.34
1543854626327852964,777,0,/imu_data_acquisition2,32315.0,-0.14794921875,0.191162109375,0.636413574219,0.732543945312,-1.9375,114.8125,-1.625,-4.4,-0.18,9.09
1543854626338217020,778,0,/imu_data_acquisition2,32326.0,-0.154296875,0.198547363281,0.634826660156,0.730590820312,0.8125,119.125,-0.6875,-4.07,-0.04,9.11
1543854626349437952,779,0,/imu_data_acquisition2,32337.0,-6.103515625e-05,-6.103515625e-05,-6.103515625e-05,0.728515625,4.0,123.75,1.0625,-4.42,0.0,9.17
1543854626357423067,780,0,/imu_data_acquisition2,32343.0,-0.167175292969,0.214782714844,0.63134765625,0.726135253906,7.0,130.1875,2.0,-4.42,0.0,9.17
1543854626363881111,781,0,/imu_data_acquisition2,32352.0,-0.173828125,0.223693847656,0.62939453125,0.7236328125,9.1875,136.625,2.9375,-4.85,0.0,8.85
1543854626378936052,782,0,/imu_data_acquisition2,32366.0,-0.180725097656,0.233032226562,0.627258300781,0.720764160156,10.0,143.5625,3.625,-5.26,0.65,8.75
1543854626388219118,783,0,/imu_data_acquisition2,32376.0,-0.188110351562,0.242553710938,0.625061035156,0.717712402344,7.5,149.3125,4.0,-5.26,0.65,8.75
1543854626397052049,784,0,/imu_data_acquisition2,32385.0,-0.19580078125,0.252014160156,0.622802734375,0.714294433594,3.375,151.625,5.0625,-5.64,0.9,8.34
1543854626408927917,785,0,/imu_data_acquisition2,32397.0,-0.203796386719,0.261108398438,0.620727539062,0.710632324219,-2.6875,152.1875,6.25,-6.09,1.48,8.05
1543854626416651010,786,0,/imu_data_acquisition2,32403.0,-0.212219238281,0.269714355469,-6.103515625e-05,0.706665039062,-11.0,151.3125,7.1875,-6.09,1.48,8.05
1543854626424045085,787,0,/imu_data_acquisition2,32412.0,-0.221374511719,0.277587890625,0.617004394531,0.702331542969,-24.0,150.8125,7.875,-6.18,1.54,7.81
1543854626438079118,788,0,/imu_data_acquisition2,32425.0,-0.231384277344,0.284606933594,0.615539550781,0.697509765625,-40.125,151.5625,8.6875,-6.16,1.38,7.72
1543854626449950933,789,0,/imu_data_acquisition2,32436.0,-0.242370605469,0.290954589844,0.614440917969,0.692138671875,-55.5,152.875,10.1875,-6.33,1.01,7.38
1543854626455904960,790,0,/imu_data_acquisition2,32444.0,-0.254028320312,0.296752929688,0.613586425781,0.686218261719,-67.375,155.25,12.375,-6.23,0.9,7.21
1543854626468287944,791,0,/imu_data_acquisition2,32455.0,-0.266296386719,0.302307128906,0.612915039062,0.679748535156,-76.0625,159.125,15.5625,-6.24,0.88,7.2
1543854626476605892,792,0,/imu_data_acquisition2,32462.0,-0.279174804688,0.307800292969,0.612426757812,0.672485351562,-85.3125,164.875,19.9375,-6.04,2.09,7.93
1543854626491327047,793,0,/imu_data_acquisition2,32479.0,-0.293090820312,0.312805175781,0.612426757812,0.664184570312,-127.9375,177.5,34.75,-6.24,2.91,8.26
1543854626498718023,794,0,/imu_data_acquisition2,32486.0,-0.308471679688,0.316955566406,0.61328125,0.654418945312,-127.9375,177.5,34.75,-1.12,-0.01,-0.01
1543854626506669998,795,0,/imu_data_acquisition2,32493.0,-0.325500488281,0.319885253906,0.615356445312,0.642700195312,-161.0625,182.6875,47.9375,-5.73,2.3,7.67
1543854626516079902,796,0,/imu_data_acquisition2,32503.0,-0.343933105469,0.322082519531,0.618713378906,0.628601074219,-191.4375,191.0,67.0625,-6.27,2.67,8.53
1543854626526822090,797,0,/imu_data_acquisition2,32513.0,-0.362060546875,0.323608398438,0.624084472656,0.612182617188,-211.3125,185.125,97.6875,-6.57,8.89,17.32
1543854626535547018,798,0,/imu_data_acquisition2,32522.0,-0.375915527344,0.323425292969,0.634094238281,0.59326171875,-220.875,130.875,158.3125,1.09,20.49,34.08
1543854626546331882,799,0,/imu_data_acquisition2,32534.0,-0.381286621094,0.3212890625,0.650451660156,0.572937011719,-207.3125,30.8125,237.75,0.29,14.41,-0.01
1543854626556150913,800,0,/imu_data_acquisition2,32543.0,-0.378295898438,0.318542480469,0.670532226562,0.553039550781,-166.625,-56.8125,288.1875,5.96,8.24,27.84
1543854626566886901,801,0,/imu_data_acquisition2,32551.0,-0.36767578125,0.316711425781,0.692932128906,0.533264160156,-6.5625,-0.0625,-0.0625,6.57,3.64,20.92
1543854626575153112,802,0,/imu_data_acquisition2,32562.0,-0.351135253906,0.316223144531,0.715942382812,0.513916015625,-70.0,-166.3125,363.5,5.17,-4.02,16.12
1543854626587551116,803,0,/imu_data_acquisition2,32575.0,-0.332336425781,0.315795898438,0.738098144531,0.495056152344,-50.5625,-183.5625,363.75,4.32,-6.38,15.28
1543854626596191883,804,0,/imu_data_acquisition2,32582.0,-0.313293457031,0.313049316406,0.759033203125,0.477233886719,-60.75,-197.8125,338.875,3.55,-8.85,14.08
1543854626605915069,805,0,/imu_data_acquisition2,32593.0,-0.295471191406,0.306762695312,0.778442382812,0.461120605469,-87.6875,-207.9375,297.4375,2.96,-14.61,10.99
1543854626616683006,806,0,/imu_data_acquisition2,32603.0,-0.279907226562,0.297241210938,0.795532226562,0.447692871094,-111.375,-206.5625,239.9375,2.6,-16.11,10.43
1543854626624317884,807,0,/imu_data_acquisition2,32612.0,-0.266967773438,0.285705566406,0.809387207031,0.438171386719,-120.6875,-195.375,171.125,1.07,-16.19,11.49
1543854626637027025,808,0,/imu_data_acquisition2,32625.0,-0.256652832031,0.273071289062,0.819702148438,0.433227539062,-118.0625,-180.875,95.8125,-0.3,-14.85,13.38
1543854626646898031,809,0,/imu_data_acquisition2,32633.0,-0.248229980469,0.259948730469,0.826721191406,0.432800292969,-107.75,-168.5625,26.9375,-7.2,-0.65,15.4
1543854626655158042,810,0,/imu_data_acquisition2,32642.0,-0.240539550781,0.247619628906,0.831420898438,0.435363769531,-88.375,-160.1875,-13.5625,-10.23,4.25,17.9
1543854626667161941,811,0,/imu_data_acquisition2,32653.0,-0.232299804688,0.235961914062,0.835021972656,0.439453125,-71.1875,-163.625,-30.5,-10.19,5.8,18.39
1543854626678904056,812,0,/imu_data_acquisition2,32662.0,-0.222778320312,0.224426269531,0.838317871094,0.444091796875,-61.0625,-176.4375,-33.375,-7.66,1.73,14.27
1543854626684571027,813,0,/imu_data_acquisition2,32672.0,-0.21240234375,0.212951660156,0.841369628906,0.449096679688,-54.3125,-184.25,-36.5,-5.69,-1.77,13.0
1543854626699778079,814,0,/imu_data_acquisition2,32688.0,-0.201599121094,0.201843261719,0.843505859375,0.455139160156,-42.8125,-187.4375,-49.875,-4.97,-3.54,12.09
1543854626707717895,815,0,/imu_data_acquisition2,32693.0,-0.190795898438,0.191528320312,0.84423828125,0.462829589844,-28.9375,-183.625,-7.1875,-5.75,-1.96,12.38
1543854626716222047,816,0,/imu_data_acquisition2,32704.0,-0.179931640625,0.181823730469,0.843688964844,0.471923828125,-15.625,-181.125,-91.75,-6.48,-1.23,13.15
1543854626727503061,817,0,/imu_data_acquisition2,32713.0,-0.168701171875,0.172424316406,0.842163085938,0.482299804688,-5.5625,-183.4375,-107.6875,-7.13,-1.12,13.07
1543854626734622955,818,0,/imu_data_acquisition2,32721.0,-0.156677246094,0.163208007812,0.839782714844,0.493469238281,3.8125,-190.6875,-119.125,-7.49,-1.23,11.91
1543854626746906042,819,0,/imu_data_acquisition2,32735.0,-0.143920898438,0.154357910156,0.836669921875,0.50537109375,14.5,-195.75,-128.125,-7.83,-1.27,8.2
1543854626757440090,820,0,/imu_data_acquisition2,32743.0,-0.130920410156,0.146057128906,0.832763671875,0.517761230469,24.3125,-194.5,-136.1875,-7.94,-1.37,6.76
1543854626764549970,821,0,/imu_data_acquisition2,32751.0,-0.1181640625,0.138427734375,0.828002929688,0.530395507812,30.25,-186.875,-143.625,-8.2,-1.54,5.85
1543854626774718999,822,0,/imu_data_acquisition2,32762.0,-0.106079101562,0.131408691406,0.822448730469,0.543212890625,34.625,-175.5625,-151.0,-8.87,-1.82,4.57
1543854626787080049,823,0,/imu_data_acquisition2,32772.0,-0.0946655273438,0.125244140625,0.816040039062,0.556274414062,39.8125,-163.25,-158.3125,-9.3,-1.82,4.3
1543854626794672966,824,0,/imu_data_acquisition2,32782.0,-0.0838012695312,0.120056152344,0.808837890625,0.569458007812,46.375,-150.75,-164.375,-9.95,-1.86,4.58
1543854626804800033,825,0,/imu_data_acquisition2,32792.0,-0.0733642578125,0.115783691406,0.801025390625,0.582702636719,54.25,-140.0,-168.8125,-11.28,-1.37,5.98
1543854626817073106,826,0,/imu_data_acquisition2,32803.0,-0.0630493164062,0.112426757812,0.792724609375,0.595825195312,61.4375,-131.5625,-170.875,-12.22,-1.12,7.88
1543854626826306104,827,0,/imu_data_acquisition2,32812.0,-0.0528564453125,0.109436035156,0.784057617188,0.608703613281,65.0625,-127.375,-170.375,-13.32,-1.15,10.0
1543854626835122108,828,0,/imu_data_acquisition2,32823.0,-0.0422973632812,0.106384277344,0.775268554688,0.621215820312,67.25,-130.75,-167.6875,-15.01,-2.28,11.84
1543854626846631050,829,0,/imu_data_acquisition2,32832.0,-0.0306396484375,0.103149414062,0.766357421875,0.633361816406,73.1875,-141.6875,-163.75,-15.67,-3.3,11.07
1543854626854316949,830,0,/imu_data_acquisition2,32842.0,-0.017578125,0.0999755859375,0.75732421875,0.645080566406,84.3125,-153.25,-159.3125,-16.22,-4.54,9.27
1543854626865142107,831,0,/imu_data_acquisition2,32853.0,-0.00341796875,0.0973510742188,0.748046875,0.656494140625,98.25,-158.6875,-156.9375,-16.67,-5.95,6.89
1543854626876970052,832,0,/imu_data_acquisition2,32863.0,0.0111694335938,0.0958251953125,0.73828125,0.667541503906,111.3125,-153.375,-157.1875,-17.42,-8.86,2.15
1543854626884584903,833,0,/imu_data_acquisition2,32872.0,0.0252685546875,0.0957641601562,0.727905273438,0.678466796875,121.25,-137.75,-161.4375,-17.67,-10.08,0.36
1543854626896318912,834,0,/imu_data_acquisition2,32883.0,0.0380859375,0.0972900390625,0.716918945312,0.689270019531,125.1875,-113.5625,-167.5625,-2.42,-0.01,-0.01
1543854626904877901,835,0,/imu_data_acquisition2,32892.0,0.048828125,0.10009765625,0.705322265625,0.700073242188,120.5625,-85.75,-175.0625,-17.15,-12.12,-2.25
1543854626915031909,836,0,/imu_data_acquisition2,32902.0,0.0569458007812,0.103820800781,0.693359375,0.710815429688,106.25,-56.9375,-181.3125,-16.61,-11.95,-2.33
1543854626926352977,837,0,/imu_data_acquisition2,32913.0,0.06201171875,0.107971191406,0.681335449219,0.721313476562,84.125,-27.3125,-184.3125,-16.17,-10.98,-1.63
1543854626935067892,838,0,/imu_data_acquisition2,32922.0,0.0637817382812,0.112121582031,0.669738769531,0.731323242188,56.1875,0.25,-180.25,-15.63,-6.87,1.92
1543854626944971084,839,0,/imu_data_acquisition2,32932.0,0.0621337890625,0.115600585938,0.6591796875,0.740417480469,20.4375,22.625,-168.375,-15.44,-4.35,4.37
1543854626955364942,840,0,/imu_data_acquisition2,32942.0,0.0573120117188,0.117370605469,0.650329589844,0.748352050781,-22.5625,36.25,-146.9375,-15.5,-2.17,6.71
1543854626964679002,841,0,/imu_data_acquisition2,32952.0,0.0494384765625,0.11669921875,0.643798828125,0.754577636719,-69.5,41.4375,-116.5625,-15.82,0.38,10.5
1543854626974946975,842,0,/imu_data_acquisition2,32962.0,0.0393676757812,0.113403320312,0.639953613281,0.759033203125,-112.6875,38.875,-80.375,-15.92,1.1,11.16
1543854626985629081,843,0,/imu_data_acquisition2,32972.0,0.0281372070312,0.107604980469,0.638793945312,0.761291503906,-144.4375,29.5,-8.0,-18.88,18.23,22.54
1543854626995883941,844,0,/imu_data_acquisition2,32982.0,0.01318359375,0.0931396484375,0.64453125,0.758728027344,-250.8125,-12.3125,57.0625,-27.99,38.87,-0.01
1543854627005268096,845,0,/imu_data_acquisition2,32993.0,0.00482177734375,0.0737915039062,0.663024902344,0.744934082031,-240.75,-91.8125,265.6875,5.99,-3.95,-17.98
1543854627014368057,846,0,/imu_data_acquisition2,33002.0,0.0225219726562,0.0657348632812,0.685546875,0.724670410156,74.375,-190.9375,373.25,35.24,-27.31,-4.26
1543854627027096033,847,0,/imu_data_acquisition2,33013.0,0.042236328125,0.0868530273438,0.694213867188,0.713256835938,337.375,32.0625,177.0625,-19.39,40.08,-4.17
1543854627035970926,848,0,/imu_data_acquisition2,33023.0,0.0414428710938,0.0963134765625,0.69189453125,0.71435546875,72.3125,84.125,-34.5625,-2.28,-8.25,14.36
1543854627047010898,849,0,/imu_data_acquisition2,33033.0,0.025634765625,0.0809326171875,0.691284179688,0.717529296875,-260.5625,-4.375,-41.25,-4.3,-24.54,30.06
1543854627056370973,850,0,/imu_data_acquisition2,33042.0,0.0105590820312,0.0635986328125,0.689086914062,0.721801757812,-268.875,-28.5625,-63.25,-4.93,-12.5,23.12
1543854627065675973,851,0,/imu_data_acquisition2,33053.0,0.0068359375,-6.103515625e-05,-6.103515625e-05,0.724548339844,-78.5625,-22.3125,-44.0,0.2,4.67,10.94
1543854627076056957,852,0,/imu_data_acquisition2,33063.0,0.0052490234375,0.0556030273438,0.6865234375,0.724975585938,-30.8125,-5.5625,-6.5,-3.82,6.47,7.4
1543854627087399005,853,0,/imu_data_acquisition2,33074.0,0.00201416015625,0.0537719726562,0.686157226562,0.725463867188,-42.25,10.5,-9.125,-1.27,3.37,11.01
1543854627096054077,854,0,/imu_data_acquisition2,33083.0,-0.0015869140625,0.0498046875,0.685485839844,0.726379394531,-62.8125,-5.8125,-14.75,-2.08,0.59,12.35
1543854627105814933,855,0,/imu_data_acquisition2,33092.0,-0.00506591796875,0.0451049804688,0.684387207031,0.727722167969,-67.1875,-12.3125,-23.0,-1.53,-0.05,10.35
1543854627117661952,856,0,/imu_data_acquisition2,33102.0,-0.0069580078125,0.0418090820312,0.683410644531,0.728759765625,-42.6875,-14.25,-17.8125,0.46,-5.57,8.81
1543854627125508069,857,0,/imu_data_acquisition2,33113.0,-0.00885009765625,0.0384521484375,0.682495117188,0.729858398438,-42.6875,-14.25,-17.8125,0.2,-6.28,9.61
1543854627137386083,858,0,/imu_data_acquisition2,33124.0,-0.00933837890625,0.0372314453125,0.682189941406,0.730163574219,-13.875,-5.8125,-0.0625,-0.61,-0.3,9.1
1543854627148298025,859,0,/imu_data_acquisition2,33132.0,-0.00921630859375,0.0380249023438,0.682434082031,0.729919433594,7.75,5.5,4.3125,-1.34,0.26,10.84
1543854627157289981,860,0,/imu_data_acquisition2,33145.0,-0.0087890625,0.0388793945312,0.682678222656,0.729614257812,10.375,4.0,4.875,-0.63,0.91,10.82
1543854627165786981,861,0,/imu_data_acquisition2,33152.0,-0.0087890625,0.0388793945312,0.682678222656,0.729614257812,10.0,5.0,4.625,-1.21,0.8,9.85
1543854627174669027,862,0,/imu_data_acquisition2,33162.0,-0.00799560546875,0.0404052734375,0.683227539062,0.729064941406,8.1875,1.6875,4.625,-1.03,0.74,9.88
1543854627187552928,863,0,/imu_data_acquisition2,33172.0,-0.00762939453125,0.0408325195312,0.683471679688,0.728820800781,6.6875,1.3125,4.125,-1.3,0.9,9.97
1543854627194070100,864,0,/imu_data_acquisition2,33182.0,-0.0074462890625,0.0411987304688,0.683654785156,0.728637695312,4.25,1.1875,3.25,-0.55,0.95,9.69
1543854627205091953,865,0,/imu_data_acquisition2,33192.0,-0.00738525390625,0.0413208007812,0.683776855469,0.728454589844,1.6875,1.0,2.6875,-0.82,1.19,10.31
1543854627217358112,866,0,/imu_data_acquisition2,33203.0,-0.00738525390625,0.0413208007812,0.683898925781,0.728393554688,-0.125,0.3125,1.25,-1.01,1.15,10.32
1543854627224427938,867,0,/imu_data_acquisition2,33212.0,-0.00738525390625,0.0411376953125,0.683898925781,0.728393554688,-1.8125,-1.3125,-0.125,-0.73,0.98,10.12
1543854627235553979,868,0,/imu_data_acquisition2,33222.0,-0.00750732421875,-6.103515625e-05,-6.103515625e-05,0.728454589844,-2.9375,-1.4375,-0.625,-0.88,0.49,9.93
1543854627245481014,869,0,/imu_data_acquisition2,33233.0,-0.00762939453125,0.0406494140625,0.683837890625,0.728454589844,-2.875,-1.5,-0.75,-0.58,0.5,9.6
1543854627254662990,870,0,/imu_data_acquisition2,33242.0,-0.00762939453125,0.0404663085938,0.683837890625,0.728515625,-1.75,-1.0,-0.125,-0.73,0.5,9.8
1543854627265615940,871,0,/imu_data_acquisition2,33253.0,-0.00775146484375,0.0404052734375,0.683837890625,0.728515625,-1.125,-0.375,0.3125,-0.81,0.48,9.98
1543854627276675939,872,0,/imu_data_acquisition2,33262.0,-0.00775146484375,0.0404052734375,0.683898925781,0.728454589844,-0.125,0.0625,0.75,-0.58,0.46,9.67
1543854627285119056,873,0,/imu_data_acquisition2,33272.0,-0.00775146484375,0.04052734375,0.683959960938,0.728393554688,0.75,0.9375,1.3125,-0.51,0.48,9.55
1543854627296825885,874,0,/imu_data_acquisition2,33283.0,-0.00775146484375,0.0406494140625,0.68408203125,0.728271484375,1.0,1.5625,1.75,-0.67,0.62,9.9
1543854627309102058,875,0,/imu_data_acquisition2,33294.0,-0.0078125,0.0408935546875,0.684143066406,0.728149414062,0.9375,2.1875,1.6875,-0.91,0.58,9.91
1543854627314610004,876,0,/imu_data_acquisition2,33302.0,-0.0078125,0.0408935546875,0.684143066406,0.728149414062,0.875,2.125,1.75,-0.77,0.78,9.9
1543854627326502084,877,0,/imu_data_acquisition2,33313.0,-0.0078125,-6.103515625e-05,-6.103515625e-05,0.72802734375,0.5,2.0,1.5,-0.85,0.83,10.06
1543854627339643955,878,0,/imu_data_acquisition2,33326.0,-0.00799560546875,0.0413818359375,0.684448242188,0.727844238281,0.1875,1.4375,1.25,-0.8,0.51,9.66
1543854627345252037,879,0,/imu_data_acquisition2,33332.0,-0.008056640625,0.0414428710938,0.684509277344,0.727783203125,-0.0625,1.0625,1.125,-0.75,0.6,9.85
1543854627356940031,880,0,/imu_data_acquisition2,33343.0,-0.008056640625,0.0415649414062,0.6845703125,0.727722167969,-0.25,0.6875,1.25,-0.76,0.79,10.09
1543854627366127967,881,0,/imu_data_acquisition2,33353.0,-0.008056640625,0.0416870117188,0.684631347656,0.727661132812,-0.3125,0.6875,1.25,-0.96,0.63,9.74
1543854627375080108,882,0,/imu_data_acquisition2,33362.0,-0.008056640625,0.0416870117188,0.684631347656,0.727661132812,-0.25,0.1875,1.1875,-0.94,0.5,10.13
1543854627387296915,883,0,/imu_data_acquisition2,33374.0,-0.008056640625,0.0418701171875,0.684814453125,0.727478027344,-0.125,-0.1875,1.25,-0.71,0.59,10.03
1543854627395215034,884,0,/imu_data_acquisition2,33383.0,-0.008056640625,0.0418701171875,0.684814453125,0.727478027344,0.25,-0.1875,1.6875,-0.59,0.57,9.84
1543854627405230998,885,0,/imu_data_acquisition2,33393.0,-0.00799560546875,0.0419311523438,0.684997558594,0.727294921875,0.375,0.25,1.9375,-0.94,0.54,9.94
1543854627416451930,886,0,/imu_data_acquisition2,33403.0,-0.00799560546875,0.0419311523438,0.684997558594,0.727294921875,0.6875,-0.25,2.1875,-0.8,-0.01,-0.01
1543854627425205945,887,0,/imu_data_acquisition2,33412.0,-0.00799560546875,0.0419921875,0.685180664062,0.727172851562,0.8125,-0.3125,2.4375,-0.61,0.73,9.76
1543854627436206102,888,0,/imu_data_acquisition2,33423.0,-0.0078125,0.042236328125,0.685424804688,0.726867675781,0.4375,0.0625,2.25,-1.07,0.84,9.69
1543854627446283102,889,0,/imu_data_acquisition2,33433.0,-0.0078125,0.042236328125,0.685424804688,0.726867675781,0.4375,-0.875,2.0625,-0.77,0.96,10.41
1543854627455744028,890,0,/imu_data_acquisition2,33443.0,-0.00775146484375,0.0421752929688,0.685546875,0.726745605469,0.25,-0.5625,1.75,-0.59,0.38,9.37
1543854627466172933,891,0,/imu_data_acquisition2,33453.0,-0.00775146484375,0.0421752929688,0.685668945312,0.726623535156,0.3125,-0.625,2.125,-0.79,0.67,9.97
1543854627476593971,892,0,/imu_data_acquisition2,33462.0,-0.0076904296875,0.0421752929688,0.685791015625,0.726501464844,0.0,-0.5625,2.125,-0.72,0.58,9.83
1543854627485096931,893,0,/imu_data_acquisition2,33473.0,-0.0076904296875,0.0421752929688,0.685913085938,0.726379394531,0.1875,-0.375,2.25,-0.99,0.6,9.55
1543854627497234106,894,0,/imu_data_acquisition2,33484.0,-0.0076904296875,0.0421752929688,0.686218261719,0.726135253906,0.375,-0.125,2.5625,-1.35,0.83,10.06
1543854627506823062,895,0,/imu_data_acquisition2,33493.0,-0.0076904296875,0.0421752929688,0.686218261719,0.726135253906,0.5625,-0.1875,2.4375,-0.54,0.53,9.86
1543854627515273094,896,0,/imu_data_acquisition2,33503.0,-0.0076904296875,0.0421752929688,0.686401367188,0.725952148438,0.6875,0.1875,2.375,-0.8,0.71,9.77
1543854627526206016,897,0,/imu_data_acquisition2,33513.0,-0.00762939453125,0.0421752929688,0.6865234375,0.725830078125,0.75,0.625,2.25,-0.88,0.89,9.69
1543854627537970066,898,0,/imu_data_acquisition2,33524.0,-0.007568359375,-6.103515625e-05,-6.103515625e-05,0.725708007812,0.625,1.1875,1.9375,-0.94,0.84,9.88
1543854627545629024,899,0,/imu_data_acquisition2,33533.0,-0.00750732421875,0.0427856445312,0.686767578125,0.7255859375,0.25,1.0,1.5,-0.59,0.76,9.48
1543854627556332111,900,0,/imu_data_acquisition2,33543.0,-0.0074462890625,0.04296875,0.686889648438,0.725463867188,0.0625,1.1875,1.375,-1.01,0.77,10.04
1543854627567454099,901,0,/imu_data_acquisition2,33554.0,-0.0074462890625,0.0432739257812,0.686950683594,0.725402832031,0.0,0.9375,1.0625,-0.81,0.71,9.75
1543854627575324058,902,0,/imu_data_acquisition2,33563.0,-0.0074462890625,0.04345703125,0.68701171875,0.725280761719,0.0,1.0625,1.0,-0.91,0.69,9.98
1543854627587421894,903,0,/imu_data_acquisition2,33574.0,-0.0074462890625,0.0436401367188,0.687072753906,0.725219726562,0.0625,0.9375,0.875,-0.73,-0.01,-0.01
1543854627598359107,904,0,/imu_data_acquisition2,33584.0,-0.00750732421875,0.0437622070312,0.687133789062,0.725158691406,0.3125,1.25,0.75,-0.67,0.67,9.82
1543854627605906963,905,0,/imu_data_acquisition2,33593.0,-0.00750732421875,0.0438842773438,0.687194824219,0.72509765625,0.25,1.875,0.9375,-0.99,0.68,9.93
1543854627616695880,906,0,/imu_data_acquisition2,33603.0,-0.00762939453125,-6.103515625e-05,-6.103515625e-05,0.725036621094,0.125,1.875,1.25,-0.84,0.71,10.05
1543854627625653982,907,0,/imu_data_acquisition2,33612.0,-0.0076904296875,0.0443115234375,0.687316894531,0.724975585938,0.125,1.875,1.25,-0.84,0.71,10.05
1543854627636425971,908,0,/imu_data_acquisition2,33624.0,-0.00775146484375,0.04443359375,0.687377929688,0.724914550781,0.125,2.0,1.125,-0.79,0.85,9.84
1543854627648453950,909,0,/imu_data_acquisition2,33635.0,-0.0078125,0.0446166992188,0.687438964844,0.724853515625,-0.125,2.5,1.0,-0.83,0.68,10.04
1543854627658971071,910,0,/imu_data_acquisition2,33645.0,-0.0079345703125,0.0448608398438,0.6875,0.724731445312,-0.125,2.875,1.25,-0.96,0.74,9.9
1543854627666269063,911,0,/imu_data_acquisition2,33653.0,-0.008056640625,0.0451049804688,0.687561035156,0.724670410156,-0.125,2.875,1.25,-0.81,0.72,9.97
1543854627676912069,912,0,/imu_data_acquisition2,33663.0,-0.0081787109375,0.0453491210938,0.687622070312,0.724609375,-0.1875,2.9375,1.0,-0.87,0.7,10.08
1543854627689898967,913,0,/imu_data_acquisition2,33676.0,-0.00848388671875,0.0458984375,0.687744140625,0.724426269531,-0.25,3.125,1.0,-0.73,0.69,-0.01
1543854627696969985,914,0,/imu_data_acquisition2,33685.0,-0.00848388671875,0.0458984375,0.687744140625,0.724426269531,-0.25,3.3125,0.9375,-0.79,0.68,9.86
1543854627708643913,915,0,/imu_data_acquisition2,33695.0,-0.0086669921875,0.046142578125,0.687805175781,0.724365234375,0.0625,3.5,1.125,-1.12,0.7,10.08
1543854627713763952,916,0,/imu_data_acquisition2,33701.0,-0.00885009765625,0.0464477539062,0.687866210938,0.724304199219,0.0625,3.5,1.125,-1.12,0.7,10.08
1543854627724945068,917,0,/imu_data_acquisition2,33712.0,-0.00897216796875,0.0466918945312,0.687927246094,0.724243164062,-0.1875,3.3125,0.875,-0.6,0.67,9.69
1543854627736850976,918,0,/imu_data_acquisition2,33723.0,-0.0091552734375,0.0469360351562,0.68798828125,0.724182128906,-0.0625,3.5625,0.75,-0.91,0.64,9.81
1543854627745836973,919,0,/imu_data_acquisition2,33733.0,-0.0093994140625,0.0472412109375,0.688049316406,0.72412109375,0.0625,3.5625,0.8125,-0.89,0.73,9.74
1543854627756985902,920,0,/imu_data_acquisition2,33744.0,-0.00958251953125,0.0475463867188,0.688049316406,0.723999023438,-0.0625,3.75,0.75,-0.8,0.73,10.0
1543854627766119003,921,0,/imu_data_acquisition2,33752.0,-0.009765625,0.0478515625,0.688110351562,0.723937988281,-0.0625,3.75,0.75,-0.8,0.73,10.0
1543854627774668931,922,0,/imu_data_acquisition2,33762.0,-0.00994873046875,0.048095703125,0.688110351562,0.723937988281,0.0625,3.6875,0.5625,-0.86,0.73,9.79
1543854627786725997,923,0,/imu_data_acquisition2,33774.0,-0.0101318359375,0.0484008789062,0.688110351562,0.723937988281,0.25,4.0625,0.125,-0.7,0.71,9.75
1543854627798615932,924,0,/imu_data_acquisition2,33784.0,-0.0103149414062,0.0487670898438,0.688110351562,0.723876953125,-0.125,5.8125,-0.8125,-0.88,0.7,-0.01
1543854627806395053,925,0,/imu_data_acquisition2,33794.0,-0.0106201171875,0.0491333007812,0.688049316406,0.723937988281,0.125,6.875,-1.4375,-0.68,0.69,9.91
1543854627816003084,926,0,/imu_data_acquisition2,33803.0,-0.0109252929688,0.049560546875,0.687927246094,0.723999023438,0.125,6.875,-1.4375,-0.68,0.69,9.91
1543854627825264930,927,0,/imu_data_acquisition2,33812.0,-0.0114135742188,0.0501098632812,0.687805175781,0.724060058594,0.3125,8.25,-2.0,-1.04,0.79,10.03
1543854627834475040,928,0,/imu_data_acquisition2,33822.0,-0.0118408203125,0.0507202148438,0.687622070312,0.724182128906,0.5,8.1875,-2.75,-0.91,0.82,9.85
1543854627847840070,929,0,/imu_data_acquisition2,33834.0,-0.01220703125,0.0513916015625,0.687438964844,0.724365234375,1.0,8.125,-4.625,-0.77,0.75,9.9
1543854627859512090,930,0,/imu_data_acquisition2,33844.0,-0.0125732421875,0.052001953125,0.687133789062,0.724548339844,1.25,9.0625,-5.125,-1.82,-0.17,8.41
1543854627864829063,931,0,/imu_data_acquisition2,33852.0,-0.0130615234375,0.0526733398438,0.686767578125,0.724853515625,1.25,9.0625,-5.125,-1.82,-0.17,8.41
1543854627876183986,932,0,/imu_data_acquisition2,33863.0,-0.0136108398438,0.053466796875,0.686340332031,0.725158691406,2.0625,11.25,-6.3125,-0.93,1.62,10.41
1543854627889087915,933,0,/imu_data_acquisition2,33875.0,-0.01416015625,0.0543212890625,0.685974121094,0.725463867188,2.5625,12.4375,-5.75,2.75,1.04,11.28
1543854627896296977,934,0,/imu_data_acquisition2,33884.0,-0.0147705078125,0.0552368164062,0.685546875,0.725769042969,1.5,14.9375,-0.0625,-3.91,0.25,10.14
1543854627907874107,935,0,/imu_data_acquisition2,33895.0,-0.0155639648438,0.0562133789062,0.685119628906,0.72607421875,2.125,17.1875,-7.0,1.45,0.63,8.27
1543854627915982961,936,0,/imu_data_acquisition2,33902.0,-6.103515625e-05,-6.103515625e-05,-6.103515625e-05,0.726440429688,2.125,17.1875,-7.0,1.45,0.63,8.27
1543854627924974918,937,0,/imu_data_acquisition2,33912.0,-0.017822265625,0.0590209960938,0.68408203125,0.726806640625,1.8125,24.5,-8.8125,-2.17,0.4,9.7
1543854627938023090,938,0,/imu_data_acquisition2,33925.0,-0.0193481445312,0.0607299804688,0.683288574219,0.727355957031,1.5625,27.125,-11.6875,0.06,1.81,9.79
1543854627948740959,939,0,/imu_data_acquisition2,33934.0,-0.0211181640625,0.0625,0.6826171875,0.727844238281,0.5,29.3125,-10.8125,-1.15,0.44,10.79
1543854627956744909,940,0,/imu_data_acquisition2,33944.0,-0.0233154296875,0.0647583007812,0.681884765625,0.728210449219,-0.125,39.0625,-10.5,-0.73,-0.2,9.26
1543854627966207981,941,0,/imu_data_acquisition2,33953.0,-0.025634765625,0.067138671875,0.68115234375,0.728637695312,-0.125,39.0625,-10.5,-0.73,-0.2,9.26
1543854627975759029,942,0,/imu_data_acquisition2,33962.0,-0.0282592773438,0.06982421875,0.680419921875,0.728942871094,-0.9375,43.9375,-9.875,-0.97,0.17,9.61
1543854627986999988,943,0,/imu_data_acquisition2,33975.0,-0.031494140625,0.07275390625,0.679748535156,0.729125976562,-4.25,57.5625,-7.5625,-1.74,0.56,9.62
1543854627997935056,944,0,/imu_data_acquisition2,33985.0,-0.0350952148438,0.0760498046875,0.679138183594,0.729187011719,-4.25,57.5625,-7.5625,-1.95,0.82,10.39
1543854628007981061,945,0,/imu_data_acquisition2,33995.0,-0.0389404296875,0.0795288085938,0.678588867188,0.729125976562,-4.6875,61.0625,-6.0,-1.79,0.91,9.77
1543854628016561031,946,0,/imu_data_acquisition2,34004.0,-0.0428466796875,0.0829467773438,0.678100585938,0.72900390625,-5.5625,61.5,-5.1875,-1.79,0.91,9.77
1543854628026406049,947,0,/imu_data_acquisition2,34013.0,-0.0468139648438,0.08642578125,0.677612304688,0.728820800781,-6.0,62.25,-5.125,-1.55,0.68,9.46
1543854628036864995,948,0,/imu_data_acquisition2,34024.0,-0.0509643554688,0.0900268554688,0.677001953125,0.728637695312,-6.6875,64.75,-5.6875,-1.71,0.23,9.23
1543854628047374010,949,0,/imu_data_acquisition2,34035.0,-0.055419921875,0.09375,0.676452636719,0.728393554688,-7.6875,68.375,-5.375,-1.83,0.61,9.14
1543854628057729005,950,0,/imu_data_acquisition2,34045.0,-0.0133666992188,-6.103515625e-05,-6.103515625e-05,0.727966308594,-8.8125,74.6875,-4.0,-2.25,0.71,9.37
1543854628064856052,951,0,/imu_data_acquisition2,34052.0,-0.0655517578125,0.102294921875,0.675354003906,0.727416992188,-9.875,81.9375,-2.9375,-2.25,0.71,9.37
1543854628076327085,952,0,/imu_data_acquisition2,34064.0,-0.071044921875,0.10693359375,0.674865722656,0.726684570312,-10.5,85.25,-1.375,-2.43,0.45,9.65
1543854628087214946,953,0,/imu_data_acquisition2,34075.0,-0.07666015625,0.111755371094,0.674438476562,0.725769042969,-9.375,87.6875,-0.25,-2.32,0.35,9.58
1543854628097002029,954,0,/imu_data_acquisition2,34084.0,-6.103515625e-05,-6.103515625e-05,-6.103515625e-05,0.724792480469,-8.5625,90.625,0.9375,-3.11,0.38,-0.01
1543854628107770919,955,0,/imu_data_acquisition2,34095.0,-0.088134765625,0.122131347656,0.673461914062,0.723754882812,-7.5625,93.9375,1.4375,-3.31,0.5,9.56
1543854628116660118,956,0,/imu_data_acquisition2,34102.0,-0.0939331054688,0.127624511719,0.672912597656,0.722534179688,-6.6875,95.625,2.0625,-3.31,0.5,9.56
1543854628124572992,957,0,/imu_data_acquisition2,34112.0,-0.0997924804688,0.133117675781,0.67236328125,0.721252441406,-6.625,96.25,3.125,-3.37,0.21,9.46
1543854628137093067,958,0,/imu_data_acquisition2,34124.0,-0.105590820312,0.138610839844,0.671813964844,0.719909667969,-6.4375,95.375,3.375,-3.73,0.17,9.37
1543854628148792982,959,0,/imu_data_acquisition2,34135.0,-0.111328125,0.14404296875,0.671264648438,0.718505859375,-6.1875,95.125,3.125,-3.81,0.12,9.43
1543854628157612085,960,0,/imu_data_acquisition2,34145.0,-0.117065429688,0.149536132812,0.670593261719,0.717102050781,-5.9375,95.6875,3.1875,-3.77,0.19,9.27
1543854628167054891,961,0,/imu_data_acquisition2,34153.0,-0.122680664062,0.155151367188,0.669799804688,0.715698242188,-4.0,95.375,2.25,-3.77,0.19,9.27
1543854628176445007,962,0,/imu_data_acquisition2,34162.0,-0.128356933594,0.161010742188,0.668823242188,0.71435546875,-1.8125,98.4375,0.8125,-3.71,0.25,9.36
1543854628187149047,963,0,/imu_data_acquisition2,34174.0,-0.133972167969,0.167114257812,0.667663574219,0.712951660156,0.6875,100.875,-0.625,-3.78,0.14,9.19
1543854628198571920,964,0,/imu_data_acquisition2,34185.0,-0.0147094726562,-6.103515625e-05,-6.103515625e-05,0.711608886719,3.0625,104.1875,-1.4375,-4.04,0.02,9.06
1543854628209224939,965,0,/imu_data_acquisition2,34195.0,-0.145446777344,0.180297851562,0.664855957031,0.710144042969,5.5625,108.25,-1.8125,-4.02,0.0,9.27
1543854628216059923,966,0,/imu_data_acquisition2,34203.0,-0.151306152344,0.187561035156,0.663269042969,0.708557128906,8.3125,112.875,-0.875,-4.02,0.0,9.27
1543854628226421117,967,0,/imu_data_acquisition2,34212.0,-0.157348632812,0.195251464844,0.661560058594,0.706726074219,10.8125,119.1875,0.75,-4.2,-0.17,9.26
1543854628234074115,968,0,/imu_data_acquisition2,34222.0,-0.163513183594,0.203674316406,0.659790039062,0.704650878906,14.1875,126.6875,2.75,-4.13,-0.18,9.24
1543854628247315883,969,0,/imu_data_acquisition2,34235.0,-0.169860839844,0.212829589844,0.657836914062,0.702209472656,18.4375,135.6875,5.5,-4.6,0.09,9.04
1543854628259521961,970,0,/imu_data_acquisition2,34245.0,-0.176452636719,0.222717285156,0.655822753906,0.699401855469,21.8125,144.4375,8.4375,-4.84,0.29,8.82
1543854628264815092,971,0,/imu_data_acquisition2,34252.0,-0.183288574219,0.233093261719,0.653747558594,0.696166992188,22.75,151.8125,11.375,-4.84,0.29,8.82
1543854628276091098,972,0,/imu_data_acquisition2,34263.0,-0.1904296875,0.243835449219,-6.103515625e-05,0.692565917969,22.625,158.5,13.75,-5.11,0.55,8.86
1543854628286359071,973,0,/imu_data_acquisition2,34273.0,-0.197814941406,0.254821777344,0.6494140625,0.688598632812,21.125,163.5625,16.125,-5.42,0.81,8.44
1543854628297590970,974,0,/imu_data_acquisition2,34285.0,-0.20556640625,0.265625,0.647338867188,0.684204101562,16.1875,165.8125,18.0625,-6.19,1.58,7.7
1543854628308631896,975,0,/imu_data_acquisition2,34295.0,-0.213745117188,0.27587890625,0.645324707031,0.679504394531,6.75,165.625,19.5625,-6.12,1.84,7.78
1543854628315969944,976,0,/imu_data_acquisition2,34302.0,-0.222595214844,0.285400390625,0.643676757812,0.67431640625,-6.0625,-0.0625,-0.0625,-6.12,1.84,7.78
1543854628324861049,977,0,/imu_data_acquisition2,34312.0,-0.232360839844,0.294006347656,0.642272949219,0.668640136719,-22.5625,165.375,21.8125,-6.26,2.08,7.78
1543854628335936069,978,0,/imu_data_acquisition2,34322.0,-0.243041992188,0.301513671875,0.641235351562,0.662414550781,-41.375,165.375,22.8125,-6.19,1.8,7.43
1543854628351582050,979,0,/imu_data_acquisition2,34335.0,-0.254760742188,0.308166503906,0.640625,0.655517578125,-58.75,167.8125,24.75,-6.57,1.51,-0.01
1543854628358320951,980,0,/imu_data_acquisition2,34346.0,-0.267333984375,0.314514160156,0.640258789062,0.647827148438,-70.9375,173.5625,28.5625,-5.77,2.98,8.32
1543854628365911006,981,0,/imu_data_acquisition2,34353.0,-0.280822753906,0.320739746094,0.64013671875,0.63916015625,-83.3125,182.25,34.3125,-5.77,2.98,8.32
1543854628374572038,982,0,/imu_data_acquisition2,34361.0,-0.014404296875,-6.103515625e-05,-6.103515625e-05,0.629028320312,-106.4375,191.4375,43.125,-5.44,3.62,8.68
1543854628385603904,983,0,/imu_data_acquisition2,34373.0,-0.3125,0.330749511719,0.642395019531,0.616638183594,-141.3125,202.9375,57.3125,-6.26,3.14,8.74
1543854628398473978,984,0,/imu_data_acquisition2,34386.0,-0.330627441406,0.334350585938,0.645629882812,0.601745605469,-172.75,210.625,78.9375,-6.84,5.09,12.1
1543854628408109903,985,0,/imu_data_acquisition2,34394.0,-0.347290039062,0.336669921875,0.651611328125,0.584411621094,-192.4375,188.9375,118.5625,-1.2,13.79,27.11
1543854628415724039,986,0,/imu_data_acquisition2,34403.0,-0.357116699219,0.336608886719,0.6630859375,0.565246582031,-192.625,104.8125,187.75,-6.07,16.24,39.34
1543854628425786018,987,0,/imu_data_acquisition2,34413.0,-0.359802246094,0.335021972656,0.678100585938,0.546325683594,-170.5,22.625,231.4375,3.98,8.44,33.33
1543854628434083938,988,0,/imu_data_acquisition2,34422.0,-0.354675292969,0.333251953125,0.696044921875,0.527893066406,-130.6875,-56.1875,277.0,6.35,4.02,25.61
1543854628447837114,989,0,/imu_data_acquisition2,34435.0,-0.342651367188,0.332397460938,0.715637207031,0.509948730469,-84.8125,-116.0625,314.4375,6.37,0.14,20.56
1543854628458357095,990,0,/imu_data_acquisition2,34446.0,-0.326782226562,0.331298828125,0.7353515625,0.492614746094,-61.0625,-152.6875,323.8125,5.84,-5.64,16.26
1543854628467076063,991,0,/imu_data_acquisition2,34454.0,-0.309814453125,0.328552246094,0.754455566406,0.476318359375,-63.625,-174.1875,310.0,5.43,-2.56,-0.01
1543854628476248025,992,0,/imu_data_acquisition2,34463.0,-0.293151855469,0.322570800781,0.772827148438,0.461242675781,-85.75,-191.0625,281.125,5.25,-10.26,11.85
1543854628486937999,993,0,/imu_data_acquisition2,34474.0,-0.278198242188,0.313415527344,0.789672851562,0.448059082031,-112.75,-195.0,237.3125,4.98,-12.78,9.9
1543854628497180938,994,0,/imu_data_acquisition2,34485.0,-0.265808105469,0.301879882812,0.804077148438,0.437805175781,-129.3125,-186.5,180.875,2.91,-14.36,10.26
1543854628507421970,995,0,/imu_data_acquisition2,34495.0,-0.255737304688,0.2890625,0.815612792969,0.431091308594,-132.125,-174.3125,118.9375,0.88,-13.37,12.94
1543854628518379926,996,0,/imu_data_acquisition2,34503.0,-0.247375488281,0.275512695312,0.82421875,0.428466796875,-125.4375,-167.375,57.0625,-0.74,-11.6,15.66
1543854628525922060,997,0,/imu_data_acquisition2,34513.0,-0.239685058594,0.261474609375,0.830383300781,0.4296875,-114.1875,-168.5,3.25,-4.32,-6.49,19.55
1543854628537040948,998,0,/imu_data_acquisition2,34523.0,-0.231811523438,0.246948242188,0.834655761719,0.434326171875,-102.875,-177.375,-40.625,-7.27,-0.58,19.5
1543854628548787117,999,0,/imu_data_acquisition2,34535.0,-0.223022460938,0.232177734375,0.837768554688,0.441040039062,-91.3125,-190.6875,-65.25,-7.3,2.95,17.29
1543854628557817935,1000,0,/imu_data_acquisition2,34545.0,-0.213073730469,0.217529296875,0.840270996094,0.448608398438,-80.3125,-202.9375,-73.6875,-6.48,2.7,14.51
1543854628567028999,1001,0,/imu_data_acquisition2,34552.0,-0.202270507812,0.203125,0.84228515625,0.456481933594,-71.1875,-209.125,-75.6875,-6.44,2.35,13.19
1543854628574561119,1002,0,/imu_data_acquisition2,34562.0,-0.190979003906,0.189514160156,0.84375,0.464477539062,-59.3125,-208.8125,-77.3125,-6.71,2.55,12.7
1543854628585783958,1003,0,/imu_data_acquisition2,34573.0,-0.17919921875,0.177001953125,0.844604492188,0.472473144531,-44.1875,-206.5,-77.0625,-7.66,2.19,13.2
1543854628599004030,1004,0,/imu_data_acquisition2,34585.0,-0.166687011719,0.165405273438,0.844970703125,0.48046875,-29.625,-207.375,-75.9375,-7.92,1.23,12.9
1543854628607852935,1005,0,/imu_data_acquisition2,34594.0,-0.153381347656,0.154479980469,0.844970703125,0.488525390625,-17.375,-211.625,-76.125,-8.25,-0.05,12.01
1543854628616081953,1006,0,/imu_data_acquisition2,34603.0,-0.139343261719,0.144104003906,0.844360351562,0.496887207031,-6.5,-214.375,-80.5,-8.5,-1.14,10.64
1543854628629031896,1007,0,/imu_data_acquisition2,34614.0,-0.125122070312,0.134338378906,0.842895507812,0.505798339844,3.25,-212.4375,-89.125,-8.91,-2.73,7.66
1543854628634737968,1008,0,/imu_data_acquisition2,34622.0,-0.111267089844,0.125244140625,0.840454101562,0.515319824219,10.1875,-204.4375,-101.5625,-9.39,-3.29,6.67
1543854628647022962,1009,0,/imu_data_acquisition2,34634.0,-0.09814453125,0.116760253906,0.836853027344,0.525695800781,14.625,-192.6875,-116.9375,-9.98,-3.61,5.83
1543854628657968997,1010,0,/imu_data_acquisition2,34643.0,-0.0859375,0.109008789062,0.832092285156,0.536987304688,18.8125,-179.5,-133.625,-11.19,-3.47,4.63
1543854628664944887,1011,0,/imu_data_acquisition2,34652.0,-0.0745849609375,0.101989746094,0.826171875,0.549072265625,23.25,-165.5625,-149.5,-11.91,-3.23,4.5
1543854628676763057,1012,0,/imu_data_acquisition2,34662.0,-6.103515625e-05,-6.103515625e-05,-6.103515625e-05,0.561828613281,28.0,-150.375,-162.9375,-12.56,-2.88,4.76
1543854628690294981,1013,0,/imu_data_acquisition2,34675.0,-0.0546875,0.0908203125,0.811218261719,0.575012207031,32.4375,-135.625,-173.75,-14.74,-2.15,8.25
1543854628700206995,1014,0,/imu_data_acquisition2,34686.0,-0.0457763671875,0.08642578125,0.802612304688,0.588439941406,36.5625,-12.0625,-0.0625,-15.9,-2.01,10.42
1543854628719816923,1016,0,/imu_data_acquisition2,34706.0,-0.0263671875,0.0789184570312,0.783996582031,0.615173339844,54.375,-130.3125,-184.1875,-17.14,-2.12,11.18
1543854628726707935,1017,0,/imu_data_acquisition2,34714.0,-0.0149536132812,-6.103515625e-05,-6.103515625e-05,0.628173828125,67.625,-137.625,-182.25,-17.54,-3.02,7.23
1543854628735847949,1018,0,/imu_data_acquisition2,34723.0,-0.0028076171875,0.073486328125,0.76416015625,0.640808105469,79.6875,-138.25,-179.875,-17.54,-3.88,4.75
1543854628751656055,1019,0,/imu_data_acquisition2,34737.0,0.00921630859375,0.0723266601562,0.753784179688,0.653076171875,90.0625,-128.1875,-178.8125,-17.5,-4.84,2.58
1543854628760572910,1020,0,/imu_data_acquisition2,34747.0,0.0204467773438,0.0726928710938,0.743103027344,0.664916992188,97.75,-12.5625,-0.0625,-17.45,-6.8,0.58
1543854628769045114,1021,0,/imu_data_acquisition2,34755.0,0.0302734375,0.0745849609375,0.732116699219,0.676452636719,101.4375,-84.3125,-180.125,-17.28,-7.71,0.06
1543854628774142026,1022,0,/imu_data_acquisition2,34762.0,0.0385131835938,-6.103515625e-05,-6.103515625e-05,0.687744140625,99.6875,-59.0625,-182.4375,-16.84,-8.51,-0.49
1543854628786298990,1023,0,/imu_data_acquisition2,34773.0,0.044677734375,0.0819091796875,0.709228515625,0.698791503906,90.6875,-34.6875,-185.0,-15.36,-9.32,-0.8
1543854628797866106,1024,0,/imu_data_acquisition2,34785.0,0.0484008789062,0.0864868164062,0.697509765625,0.709716796875,75.0625,-10.75,-187.1875,-14.72,-8.97,0.0
1543854628804033041,1025,0,/imu_data_acquisition2,34792.0,0.0496215820312,0.091064453125,0.685852050781,0.720336914062,53.75,10.8125,-187.0,-14.23,-8.05,1.58
1543854628826118946,1027,0,/imu_data_acquisition2,34812.0,0.0447998046875,0.097900390625,0.664245605469,0.73974609375,-2.0,35.875,-169.1875,-13.89,-2.57,8.23
1543854628840501070,1028,0,/imu_data_acquisition2,34827.0,0.0394287109375,0.0986328125,0.655334472656,0.747863769531,-35.5,35.0625,-148.5625,-14.01,-0.76,9.92
1543854628846914052,1029,0,/imu_data_acquisition2,34834.0,0.0325927734375,0.0968627929688,0.648376464844,0.754455566406,-68.875,26.375,-120.125,-14.0,0.76,10.7
1543854628853674888,1030,0,/imu_data_acquisition2,34841.0,0.0248413085938,0.0926513671875,0.643737792969,0.759216308594,-98.0625,14.3125,-85.1875,-13.75,2.77,9.53
1543854628867217063,1031,0,/imu_data_acquisition2,34852.0,0.0165405273438,0.0863647460938,0.6416015625,0.762023925781,-121.3125,3.375,-47.5625,-13.34,3.6,7.68
1543854628877060890,1032,0,/imu_data_acquisition2,34862.0,0.00750732421875,0.0786743164062,0.642028808594,0.762573242188,-140.125,-1.5625,-8.0,-12.91,16.29,13.26
1543854628885359048,1033,0,/imu_data_acquisition2,34872.0,-0.00506591796875,0.0664672851562,0.652770996094,0.754577636719,-215.625,-6.0625,146.9375,-30.95,35.64,24.51
1543854628897433996,1034,0,/imu_data_acquisition2,34885.0,0.0084228515625,0.060546875,0.676025390625,0.734313964844,55.125,-142.9375,374.6875,34.91,-37.78,-39.16
1543854628904483079,1035,0,/imu_data_acquisition2,34892.0,0.0345458984375,0.069580078125,0.688842773438,0.720764160156,292.0,-119.4375,238.0,5.28,16.29,-0.01
1543854628914504051,1036,0,/imu_data_acquisition2,34902.0,0.031005859375,0.0823364257812,0.687622070312,0.720703125,74.5,137.4375,-18.125,-14.05,5.49,24.12
1543854628926757097,1037,0,/imu_data_acquisition2,34914.0,0.0145874023438,0.0693359375,0.68603515625,0.72412109375,-245.6875,18.5,-52.3125,3.68,-38.87,26.53
1543854628935223102,1038,0,/imu_data_acquisition2,34922.0,0.005859375,0.0562744140625,0.68310546875,0.728088378906,-179.3125,-44.4375,-62.375,-4.4,-9.4,13.9
1543854628946259975,1039,0,/imu_data_acquisition2,34934.0,0.00567626953125,0.0542602539062,0.682067871094,0.729248046875,-17.125,-17.1875,-18.0,4.62,2.86,3.82
1543854628955889940,1040,0,/imu_data_acquisition2,34942.0,0.0047607421875,0.05322265625,0.68212890625,0.729248046875,-16.125,-1.25,0.5625,-4.21,8.07,8.06
1543854628966711997,1041,0,/imu_data_acquisition2,34954.0,0.0013427734375,0.0516967773438,0.681640625,0.729858398438,-42.0,14.25,-11.4375,-0.25,1.82,8.17
1543854628976651906,1042,0,/imu_data_acquisition2,34964.0,-0.00286865234375,0.0480346679688,0.680725097656,0.73095703125,-65.4375,1.625,-19.1875,-4.61,-0.38,14.68
1543854628984570026,1043,0,/imu_data_acquisition2,34972.0,-0.00616455078125,0.0435180664062,0.679443359375,0.732421875,-64.25,-13.375,-24.625,-1.15,-0.67,11.25
1543854628995191097,1044,0,/imu_data_acquisition2,34982.0,-0.0091552734375,0.0389404296875,0.678100585938,0.73388671875,-61.125,-16.4375,-25.3125,1.15,-7.57,8.24
1543854629009213924,1045,0,/imu_data_acquisition2,34997.0,-0.0106201171875,0.036376953125,0.67724609375,0.734741210938,-33.4375,-10.625,-15.5625,-0.83,-6.52,9.93
1543854629014368057,1046,0,/imu_data_acquisition2,35002.0,-0.010986328125,0.0360107421875,0.677124023438,0.73486328125,-5.8125,0.5625,-2.125,-0.38,-0.19,9.8
1543854629026350021,1047,0,/imu_data_acquisition2,35013.0,-0.0108642578125,0.03662109375,0.677368164062,0.734680175781,5.875,4.25,3.9375,-0.84,0.17,9.76
1543854629037282943,1048,0,/imu_data_acquisition2,35025.0,-0.0106201171875,0.03759765625,0.677673339844,0.734313964844,9.5625,6.125,5.9375,-1.09,0.64,10.75
1543854629043905019,1049,0,/imu_data_acquisition2,35031.0,-0.0101318359375,0.0386352539062,0.678100585938,0.73388671875,12.125,5.5,6.75,-0.88,1.19,9.82
1543854629055334091,1050,0,/imu_data_acquisition2,35042.0,-0.0096435546875,0.03955078125,0.678466796875,0.733520507812,11.875,4.1875,6.5,-1.03,0.62,9.79
1543854629067009925,1051,0,/imu_data_acquisition2,35054.0,-0.00921630859375,0.0402221679688,0.678771972656,0.733215332031,8.625,2.375,5.5,-1.17,0.71,10.2
1543854629073688030,1052,0,/imu_data_acquisition2,35061.0,-0.0089111328125,0.040771484375,0.679016113281,0.73291015625,7.0,1.875,4.5625,-0.7,1.11,10.17
1543854629085360050,1053,0,/imu_data_acquisition2,35073.0,-0.00860595703125,0.0411376953125,0.679260253906,0.732727050781,5.0625,1.1875,3.9375,-1.21,-0.01,-0.01
1543854629094810962,1054,0,/imu_data_acquisition2,35082.0,-0.008544921875,0.0413208007812,0.679382324219,0.732543945312,2.0,0.9375,2.5625,-0.78,1.07,10.06
1543854629103770017,1055,0,/imu_data_acquisition2,35092.0,-0.00848388671875,0.041259765625,0.679443359375,0.732482910156,-0.1875,-0.875,0.875,-0.8,1.08,10.14
1543854629115276098,1056,0,/imu_data_acquisition2,35103.0,-0.00848388671875,0.041015625,0.679443359375,0.732543945312,-1.5,-1.9375,-0.3125,-0.96,0.44,10.0
1543854629125658035,1057,0,/imu_data_acquisition2,35113.0,-0.008544921875,0.040771484375,0.679382324219,0.732604980469,-2.875,-1.6875,-1.1875,-0.96,0.3,9.86
1543854629134085893,1058,0,/imu_data_acquisition2,35122.0,-0.00860595703125,0.04052734375,0.679321289062,0.732666015625,-2.5625,-1.6875,-1.0,-0.56,0.51,9.65
1543854629147154092,1059,0,/imu_data_acquisition2,35134.0,-0.0086669921875,0.0403442382812,0.679321289062,0.732666015625,-1.4375,-1.3125,-0.6875,-0.87,0.56,9.89
1543854629154175996,1060,0,/imu_data_acquisition2,35142.0,-0.00860595703125,0.0402221679688,0.679321289062,0.732727050781,-0.6875,-1.0,0.0625,-0.7,0.3,9.68
1543854629164520025,1061,0,/imu_data_acquisition2,35152.0,-0.00860595703125,0.0402221679688,0.679321289062,0.732727050781,0.0,-0.1875,0.5625,-0.55,0.42,9.78
1543854629176712989,1062,0,/imu_data_acquisition2,35164.0,-0.008544921875,0.040283203125,0.679382324219,0.732666015625,0.9375,0.4375,0.9375,-0.63,0.5,9.77
1543854629187974929,1063,0,/imu_data_acquisition2,35175.0,-0.008544921875,0.0404663085938,0.679443359375,0.732543945312,1.375,1.125,1.4375,-0.91,0.58,9.92
1543854629195910930,1064,0,/imu_data_acquisition2,35183.0,-0.00848388671875,0.0406494140625,0.679565429688,0.732482910156,1.3125,1.4375,1.6875,-0.76,0.65,9.58
1543854629205280065,1065,0,/imu_data_acquisition2,35192.0,-0.00848388671875,0.041015625,0.679626464844,0.732360839844,1.0625,1.75,1.5,-1.05,0.81,9.95
1543854629218828916,1066,0,/imu_data_acquisition2,35206.0,-0.008544921875,0.0411376953125,0.6796875,0.732299804688,0.8125,1.5625,1.375,-1.0,0.56,9.99
1543854629224519968,1067,0,/imu_data_acquisition2,35212.0,-0.00860595703125,0.041259765625,0.679809570312,0.732177734375,0.4375,1.4375,1.4375,-0.59,0.5,9.7
1543854629235068082,1068,0,/imu_data_acquisition2,35222.0,-0.0086669921875,0.0413208007812,0.679870605469,0.732116699219,0.3125,1.125,1.1875,-0.83,0.75,-0.01
1543854629244577884,1069,0,/imu_data_acquisition2,35232.0,-0.00872802734375,0.0415649414062,0.679931640625,0.732055664062,0.0625,1.3125,1.1875,-0.99,0.68,9.67
1543854629256113052,1070,0,/imu_data_acquisition2,35243.0,-0.0087890625,0.0418090820312,0.679992675781,0.731994628906,-0.125,1.125,0.75,-1.03,0.54,9.95
1543854629264679908,1071,0,/imu_data_acquisition2,35252.0,-0.0087890625,0.0419311523438,-6.103515625e-05,0.73193359375,-0.5,0.625,0.8125,-0.73,0.7,9.93
1543854629276319026,1072,0,/imu_data_acquisition2,35263.0,-0.0087890625,0.0419921875,0.680114746094,0.731872558594,-0.375,-0.0625,0.8125,-0.66,0.68,9.92
1543854629287509918,1073,0,/imu_data_acquisition2,35275.0,-0.00872802734375,0.0420532226562,0.680114746094,0.731811523438,-0.375,-0.0625,0.8125,-0.92,0.48,9.86
1543854629294028997,1074,0,/imu_data_acquisition2,35282.0,-0.00872802734375,0.0421752929688,0.68017578125,0.731750488281,-0.4375,0.0,0.9375,-1.03,0.58,9.94
1543854629304368972,1075,0,/imu_data_acquisition2,35292.0,-0.00872802734375,0.0421752929688,0.680297851562,0.731689453125,0.0,-0.6875,1.3125,-0.78,0.6,10.07
1543854629316648006,1076,0,/imu_data_acquisition2,35303.0,-0.00872802734375,0.042236328125,0.680358886719,0.731628417969,-0.0625,-0.5625,1.4375,-0.86,0.5,10.01
1543854629324037075,1077,0,/imu_data_acquisition2,35312.0,-0.0086669921875,0.0421752929688,0.680480957031,0.731506347656,0.0,-1.25,1.75,-1.02,0.42,10.08
1543854629335247039,1078,0,/imu_data_acquisition2,35322.0,-0.008544921875,0.0421142578125,0.680603027344,0.731384277344,0.125,-1.625,1.9375,-0.57,0.45,10.2
1543854629347520112,1079,0,/imu_data_acquisition2,35335.0,-0.0084228515625,0.0420532226562,0.680725097656,0.731262207031,0.3125,-1.375,2.1875,-0.77,0.75,10.01
1543854629353650093,1080,0,/imu_data_acquisition2,35341.0,-0.00836181640625,0.0420532226562,0.680847167969,0.731140136719,0.3125,-1.0625,2.0625,-0.84,-0.01,-0.01
1543854629366128921,1081,0,/imu_data_acquisition2,35353.0,-0.00823974609375,0.0420532226562,0.680969238281,0.731018066406,0.375,-0.75,2.0625,-0.78,0.65,9.85
1543854629377209901,1082,0,/imu_data_acquisition2,35363.0,-0.00823974609375,0.042236328125,0.681091308594,0.730895996094,0.375,0.125,1.875,-1.05,0.74,9.98
1543854629386178970,1083,0,/imu_data_acquisition2,35373.0,-0.00823974609375,0.042236328125,0.681213378906,0.730834960938,0.0625,-0.5,1.8125,-0.7,0.34,9.88
1543854629396792888,1084,0,/imu_data_acquisition2,35384.0,-0.00823974609375,0.042236328125,0.681335449219,0.730712890625,0.25,-0.1875,1.875,-0.7,0.5,9.77
1543854629405904054,1085,0,/imu_data_acquisition2,35392.0,-0.00823974609375,0.0422973632812,0.681457519531,0.730590820312,0.375,0.6875,2.25,-0.74,0.52,9.77
1543854629414096117,1086,0,/imu_data_acquisition2,35402.0,-0.00823974609375,0.0423583984375,0.681640625,0.73046875,0.375,0.375,2.25,-0.82,0.69,9.99
1543854629424784898,1087,0,/imu_data_acquisition2,35412.0,-0.0081787109375,0.0424194335938,0.681762695312,0.730285644531,0.4375,0.4375,2.125,-0.83,0.71,9.92
1543854629436572074,1088,0,/imu_data_acquisition2,35423.0,-0.0081787109375,0.0425415039062,0.681884765625,0.730163574219,0.5625,0.4375,2.0625,-0.95,0.63,9.93
1543854629445794105,1089,0,/imu_data_acquisition2,35433.0,-0.008056640625,0.0426025390625,0.682006835938,0.730102539062,0.75,0.5625,2.0,-0.77,0.64,9.87
1543854629457349061,1090,0,/imu_data_acquisition2,35445.0,-0.008056640625,0.0427856445312,0.68212890625,0.729919433594,0.75,1.0,2.0625,-0.83,0.57,9.85
1543854629467047929,1091,0,/imu_data_acquisition2,35453.0,-0.00811767578125,0.0430297851562,0.682250976562,0.729797363281,0.625,1.125,1.9375,-1.05,0.68,9.85
1543854629475045919,1092,0,/imu_data_acquisition2,35462.0,-0.008056640625,0.0432739257812,0.682312011719,0.729736328125,0.625,0.75,1.8125,-0.76,0.85,9.94
1543854629485184907,1093,0,/imu_data_acquisition2,35473.0,-0.008056640625,0.04345703125,0.682434082031,0.729614257812,0.375,1.375,1.5625,-0.87,0.73,9.77
1543854629496165990,1094,0,/imu_data_acquisition2,35482.0,-0.00811767578125,0.043701171875,0.682495117188,0.7294921875,0.125,1.375,1.4375,-0.99,0.63,9.72
1543854629506283998,1095,0,/imu_data_acquisition2,35494.0,-0.0081787109375,0.0438842773438,0.682556152344,0.729431152344,0.125,1.5,1.0625,-0.81,0.67,9.8
1543854629516453027,1096,0,/imu_data_acquisition2,35504.0,-0.00823974609375,0.0441284179688,-6.103515625e-05,0.729370117188,0.125,1.625,1.125,-0.91,0.69,9.94
1543854629526736974,1097,0,/imu_data_acquisition2,35513.0,-0.00830078125,0.0443115234375,0.682739257812,0.729309082031,-0.0625,1.5,1.125,-0.8,0.69,10.07
1543854629534395933,1098,0,/imu_data_acquisition2,35522.0,-0.00836181640625,0.04443359375,0.682800292969,0.729248046875,0.125,1.5,1.125,-0.84,0.71,10.08
1543854629547158956,1099,0,/imu_data_acquisition2,35534.0,-0.0084228515625,0.044677734375,0.682861328125,0.729125976562,0.125,1.9375,0.9375,-0.94,0.63,9.81
1543854629554861068,1100,0,/imu_data_acquisition2,35542.0,-0.0084228515625,0.044677734375,0.682861328125,0.729125976562,-0.0625,2.0625,1.0,-0.91,0.64,10.01
1543854629565624952,1101,0,/imu_data_acquisition2,35553.0,-0.00860595703125,0.0450439453125,0.682983398438,0.72900390625,-0.25,2.0625,1.0625,-0.64,0.59,9.97
1543854629576380014,1102,0,/imu_data_acquisition2,35563.0,-0.00860595703125,0.0450439453125,0.682983398438,0.72900390625,-0.3125,2.8125,0.875,-0.85,0.67,10.05
1543854629585062980,1103,0,/imu_data_acquisition2,35573.0,-0.0087890625,0.0452270507812,0.683044433594,0.728942871094,-0.3125,2.9375,0.75,-0.94,0.73,10.07
1543854629596261978,1104,0,/imu_data_acquisition2,35583.0,-0.009033203125,0.0457153320312,0.683044433594,0.728881835938,-0.375,3.0,0.5625,-0.69,0.72,9.92
1543854629607172012,1105,0,/imu_data_acquisition2,35593.0,-0.009033203125,0.0457153320312,0.683044433594,0.728881835938,-0.25,3.4375,0.25,-0.83,0.62,9.93
1543854629618102073,1106,0,/imu_data_acquisition2,35604.0,-0.00921630859375,0.0459594726562,0.683044433594,0.728881835938,-0.25,3.6875,0.1875,-0.96,0.71,10.1
1543854629624604940,1107,0,/imu_data_acquisition2,35612.0,-0.0093994140625,0.0462036132812,0.683044433594,0.728820800781,-0.125,3.8125,-0.0625,-1.03,0.71,9.91
1543854629634809017,1108,0,/imu_data_acquisition2,35622.0,-0.00958251953125,0.0465698242188,0.683044433594,0.728820800781,-0.1875,3.625,-0.3125,-0.78,0.7,9.87
1543854629646675109,1109,0,/imu_data_acquisition2,35633.0,-0.009765625,0.046875,0.683044433594,0.728820800781,0.25,3.9375,-0.4375,-1.0,0.65,9.89
1543854629656557083,1110,0,/imu_data_acquisition2,35644.0,-0.0101928710938,0.0474853515625,0.683044433594,0.728759765625,0.25,4.0625,-0.5,-0.92,0.59,9.68
1543854629667536973,1111,0,/imu_data_acquisition2,35654.0,-0.0101928710938,0.0474853515625,0.683044433594,0.728759765625,0.3125,4.375,-0.3125,-0.77,0.61,9.87
1543854629676246881,1112,0,/imu_data_acquisition2,35662.0,-0.0104370117188,0.0477905273438,0.683044433594,0.728759765625,0.5,4.3125,-0.0625,-1.06,0.56,9.79
1543854629686106920,1113,0,/imu_data_acquisition2,35673.0,-0.0106811523438,0.048095703125,0.683044433594,0.728698730469,0.5,4.0625,0.0,-0.85,0.63,9.9
1543854629697741985,1114,0,/imu_data_acquisition2,35684.0,-0.0109252929688,0.0484008789062,0.683044433594,0.728698730469,0.375,4.375,-0.1875,-0.87,0.69,9.61
1543854629707331895,1115,0,/imu_data_acquisition2,35694.0,-0.0113525390625,0.0490112304688,0.683044433594,0.728698730469,0.5625,4.1875,-0.1875,-0.91,0.71,9.79
1543854629716490030,1116,0,/imu_data_acquisition2,35704.0,-0.0113525390625,0.0490112304688,0.683044433594,0.728698730469,0.5,4.375,-0.75,-0.91,0.78,9.78
1543854629723938941,1117,0,/imu_data_acquisition2,35712.0,-0.0115966796875,0.04931640625,0.682983398438,0.728698730469,0.5,4.375,-0.75,-0.85,0.8,10.02
1543854629735690116,1118,0,/imu_data_acquisition2,35722.0,-0.0118408203125,0.0497436523438,0.682861328125,0.728759765625,0.5,5.4375,-1.5,-0.98,0.79,10.04
1543854629747415065,1119,0,/imu_data_acquisition2,35735.0,-0.0126342773438,0.0509643554688,0.682495117188,0.72900390625,0.9375,9.0,-3.4375,-0.85,0.68,9.7
1543854629756928920,1120,0,/imu_data_acquisition2,35743.0,-0.0126342773438,0.0509643554688,0.682495117188,0.72900390625,1.1875,10.875,-0.0625,-1.08,0.66,9.98
1543854629768778085,1121,0,/imu_data_acquisition2,35755.0,-0.0137939453125,0.0526123046875,0.681884765625,0.729431152344,1.3125,12.3125,-4.75,-0.88,0.66,10.05
1543854629775762081,1122,0,/imu_data_acquisition2,35763.0,-0.0137939453125,0.0526123046875,0.681884765625,0.729431152344,1.3125,12.3125,-4.75,-1.13,0.78,9.99
1543854629785815954,1123,0,/imu_data_acquisition2,35773.0,-0.0144653320312,0.0535278320312,0.681518554688,0.729675292969,1.6875,14.75,-6.6875,-1.39,0.71,9.86
1543854629796931028,1124,0,/imu_data_acquisition2,35784.0,-0.0151977539062,0.0545654296875,0.681091308594,0.730041503906,2.125,15.75,-7.8125,-1.11,0.73,9.95
1543854629807555913,1125,0,/imu_data_acquisition2,35794.0,-0.0160522460938,0.0556640625,0.680541992188,0.730407714844,2.625,17.5625,-8.9375,-0.32,1.0,10.24
1543854629815653085,1126,0,/imu_data_acquisition2,35803.0,-0.0169067382812,0.056884765625,0.679992675781,0.730834960938,2.5,19.1875,-9.3125,-2.17,0.53,10.45
1543854629826669931,1127,0,/imu_data_acquisition2,35812.0,-0.0178833007812,0.0581665039062,0.679382324219,0.731262207031,2.5,19.1875,-9.3125,-2.17,0.53,10.45
1543854629837472915,1128,0,/imu_data_acquisition2,35824.0,-0.01904296875,0.0596923828125,0.6787109375,0.731750488281,2.8125,22.0,-9.8125,1.4,2.0,11.47
1543854629846628904,1129,0,/imu_data_acquisition2,35834.0,-0.0201416015625,0.0610961914062,0.678161621094,0.732055664062,1.6875,30.375,-9.6875,-5.67,-1.9,13.5
