%time,field.header.seq,field.header.stamp,field.header.frame_id,field.time_stamp,field.quat_x,field.quat_y,field.quat_z,field.quat_w,field.gyro_x,field.gyro_y,field.gyro_z,field.accel_x,field.accel_y,field.accel_z
1543854976168874025,835,0,/imu_data_acquisition2,29780.0,0.0497436523438,0.0997314453125,0.705139160156,0.700256347656,104.0625,-65.125,-192.625,-13.58,-13.08,-2.19
1543854976177920103,836,0,/imu_data_acquisition2,29789.0,0.0556640625,0.103942871094,0.691711425781,0.712463378906,92.5,-36.6875,-209.3125,-13.69,-12.94,-2.18
1543854976190933942,837,0,/imu_data_acquisition2,29802.0,0.0587768554688,-6.103515625e-05,-6.103515625e-05,0.725036621094,76.625,-8.125,-221.75,-14.18,-8.83,2.85
1543854976201220989,838,0,/imu_data_acquisition2,29812.0,0.0592651367188,0.114318847656,0.663146972656,0.737365722656,57.4375,16.125,-225.5625,-14.34,-6.61,5.27
1543854976212398052,839,0,/imu_data_acquisition2,29823.0,0.0574951171875,0.119323730469,0.649230957031,0.748962402344,34.5,32.0625,-218.625,-14.24,-4.02,7.32
1543854976218303918,840,0,/imu_data_acquisition2,29829.0,0.053955078125,0.123107910156,-6.103515625e-05,0.759460449219,7.9375,37.5,-200.6875,-14.24,-4.02,7.32
1543854976229722023,841,0,/imu_data_acquisition2,29840.0,0.0486450195312,0.124877929688,0.625854492188,0.768371582031,-24.375,35.75,-172.3125,-14.63,1.15,11.78
1543854976238549947,842,0,/imu_data_acquisition2,29850.0,0.0419311523438,0.123779296875,0.617858886719,0.775329589844,-61.1875,25.125,-133.6875,-14.48,3.06,12.74
1543854976253458023,843,0,/imu_data_acquisition2,29863.0,0.0342407226562,0.119445800781,0.613342285156,0.779968261719,-98.25,7.375,-0.0625,-19.23,28.48,-0.01
1543854976263535022,844,0,/imu_data_acquisition2,29873.0,0.021484375,0.104309082031,0.617126464844,0.779663085938,-232.6875,-44.9375,25.25,-26.53,40.08,10.83
1543854976270802974,845,0,/imu_data_acquisition2,29881.0,0.0156860351562,0.0839233398438,0.634094238281,0.768493652344,-220.875,-127.875,236.5625,-26.53,40.08,10.83
1543854976284888029,846,0,/imu_data_acquisition2,29893.0,0.0326538085938,0.076416015625,0.658508300781,0.747985839844,78.125,-171.125,394.3125,22.8,-23.7,16.25
1543854976294043064,847,0,/imu_data_acquisition2,29903.0,0.0482788085938,0.0902099609375,0.669982910156,0.735290527344,51.125,54.75,-32.75,-18.64,36.94,-12.76
1543854976303139925,848,0,/imu_data_acquisition2,29913.0,0.0481567382812,0.0966796875,0.667785644531,0.736511230469,51.125,54.75,-32.75,5.05,-24.2,20.46
1543854976314444065,849,0,/imu_data_acquisition2,29924.0,0.0303955078125,0.0810546875,0.666748046875,0.740234375,-279.0625,-0.8125,-49.8125,-11.12,-22.48,32.73
1543854976320545911,850,0,/imu_data_acquisition2,29932.0,0.0167236328125,0.0653686523438,0.663818359375,0.744873046875,-242.0,-34.875,-69.6875,-11.12,-22.48,32.73
1543854976334247112,851,0,/imu_data_acquisition2,29944.0,0.0140991210938,0.0604248046875,0.661560058594,0.747314453125,-41.5,7.25,-9.6875,-4.61,3.05,13.24
1543854976341671943,852,0,/imu_data_acquisition2,29950.0,0.0110473632812,0.0585327148438,0.661193847656,0.747863769531,-41.5,7.25,-9.6875,-4.61,3.05,13.24
1543854976353212118,853,0,/imu_data_acquisition2,29963.0,0.0081787109375,0.056640625,0.660766601562,0.748413085938,-40.0625,5.25,-9.9375,-2.92,3.63,12.4
1543854976371078014,855,0,/imu_data_acquisition2,29982.0,0.00177001953125,0.0498657226562,0.658996582031,0.75048828125,-57.125,-8.875,-22.0,-1.43,-1.64,12.14
1543854976379319906,856,0,/imu_data_acquisition2,29990.0,-0.00054931640625,0.046630859375,0.657958984375,0.751586914062,-45.0,-11.5,-19.1875,0.38,-3.82,8.1
1543854976393439054,857,0,/imu_data_acquisition2,30004.0,-0.00164794921875,0.0450439453125,0.657470703125,0.752136230469,-21.875,-5.6875,-9.375,0.1,-0.83,10.08
1543854976402403116,858,0,/imu_data_acquisition2,30013.0,-0.00164794921875,0.0450439453125,0.657592773438,0.752075195312,0.1875,0.25,1.75,0.1,-0.83,10.08
1543854976412348031,859,0,/imu_data_acquisition2,30023.0,-0.0013427734375,0.0459594726562,0.657958984375,0.751647949219,9.9375,6.0,6.9375,-1.97,1.33,11.01
1543854976418987035,860,0,/imu_data_acquisition2,30030.0,-0.0009765625,0.047119140625,0.658447265625,0.751098632812,11.75,7.6875,8.625,-1.97,1.33,11.01
1543854976430432081,861,0,/imu_data_acquisition2,30040.0,-0.00054931640625,0.0480346679688,0.658874511719,0.750732421875,10.5,5.3125,7.1875,-0.49,1.62,10.39
1543854976440064907,862,0,/imu_data_acquisition2,30051.0,-0.00030517578125,0.048583984375,0.6591796875,0.750427246094,6.6875,3.0,4.6875,-0.8,0.85,9.97
1543854976465786933,864,0,/imu_data_acquisition2,30077.0,6.103515625e-05,0.0491333007812,0.659606933594,0.75,0.875,1.5,2.4375,-1.14,1.34,10.53
1543854976469393968,865,0,/imu_data_acquisition2,30080.0,6.103515625e-05,0.0492553710938,0.659729003906,0.749877929688,0.875,1.5,2.4375,-1.14,1.34,10.53
1543854976494146108,867,0,/imu_data_acquisition2,30105.0,-0.00018310546875,0.0489501953125,0.659851074219,0.749816894531,-2.9375,-1.5,-0.125,-1.1,0.89,9.43
1543854976504034042,868,0,/imu_data_acquisition2,30113.0,-0.00030517578125,0.0486450195312,0.659851074219,0.749816894531,-2.9375,-1.5,-0.125,-1.1,0.89,9.43
1543854976521771907,870,0,/imu_data_acquisition2,30132.0,-0.000732421875,0.0481567382812,0.659851074219,0.749877929688,-4.0,-0.75,-0.6875,-0.4,0.53,9.52
1543854976529167890,871,0,/imu_data_acquisition2,30140.0,-0.0009765625,0.0479736328125,0.659851074219,0.749816894531,-3.5625,0.8125,-0.5625,-1.04,0.91,9.87
1543854976542305946,872,0,/imu_data_acquisition2,30153.0,-0.00128173828125,0.0479125976562,0.659851074219,0.749816894531,-3.25,1.625,-0.25,-1.02,0.82,10.05
1543854976554518938,873,0,/imu_data_acquisition2,30162.0,-0.00152587890625,0.0478515625,0.659912109375,0.749816894531,-2.8125,1.5625,-0.4375,-0.6,0.73,9.54
1543854976560336112,874,0,/imu_data_acquisition2,30171.0,-0.00177001953125,0.0478515625,0.659912109375,0.749816894531,-2.375,1.75,-0.125,-0.71,0.61,9.95
1543854976571506977,875,0,/imu_data_acquisition2,30182.0,-0.0020751953125,0.0478515625,0.659912109375,0.749816894531,-2.375,2.375,0.0625,-0.96,0.54,10.11
1543854976582875967,876,0,/imu_data_acquisition2,30192.0,-0.00238037109375,0.0479125976562,0.659912109375,0.749816894531,-2.25,2.3125,0.1875,-0.66,0.59,9.64
1543854976590595006,877,0,/imu_data_acquisition2,30202.0,-0.002685546875,0.0480346679688,0.659912109375,0.749816894531,-2.3125,2.5625,0.125,-1.13,0.78,9.92
1543854976604415893,878,0,/imu_data_acquisition2,30214.0,-0.0029296875,0.0480346679688,0.659912109375,0.749755859375,-2.125,1.5,-0.125,-0.55,0.37,9.97
1543854976613920927,879,0,/imu_data_acquisition2,30223.0,-0.00311279296875,0.0479736328125,0.659912109375,0.749755859375,-2.0,1.1875,-0.3125,-0.55,0.37,9.97
1543854976620552062,880,0,/imu_data_acquisition2,30232.0,-0.0032958984375,0.0479736328125,0.659973144531,0.749755859375,-1.6875,1.4375,-0.0625,-0.91,0.6,9.8
1543854976632272958,881,0,/imu_data_acquisition2,30243.0,-0.00347900390625,0.0479736328125,0.659973144531,0.749755859375,-1.5625,0.9375,0.1875,-0.78,0.76,9.89
1543854976642061948,882,0,/imu_data_acquisition2,30250.0,-0.00360107421875,0.0479736328125,0.659973144531,0.749755859375,-1.5625,0.625,0.1875,-0.97,0.63,10.08
1543854976654247045,883,0,/imu_data_acquisition2,30264.0,-0.00372314453125,0.0478515625,0.659973144531,0.749755859375,-1.5625,0.4375,0.25,-0.87,0.57,10.06
1543854976664710044,884,0,/imu_data_acquisition2,30276.0,-0.0037841796875,0.0477905273438,0.659973144531,0.749755859375,-1.25,0.125,0.375,-1.01,0.58,9.76
1543854976671215057,885,0,/imu_data_acquisition2,30279.0,-0.00384521484375,0.0477294921875,0.660034179688,0.749755859375,-1.0,-0.625,0.625,-1.01,0.58,9.76
1543854976695513010,887,0,/imu_data_acquisition2,30305.0,-0.0037841796875,0.0475463867188,0.66015625,0.749633789062,-0.9375,-1.1875,0.75,-0.39,0.5,9.71
1543854976704746007,888,0,/imu_data_acquisition2,30314.0,-0.0037841796875,0.0474243164062,0.66015625,0.749572753906,-0.9375,-1.1875,0.75,-0.39,0.5,9.71
1543854976721918106,890,0,/imu_data_acquisition2,30332.0,-0.00360107421875,0.0469360351562,0.660217285156,0.749572753906,-0.875,-2.5625,0.6875,-0.67,0.46,10.38
1543854976731080055,891,0,/imu_data_acquisition2,30339.0,-0.00347900390625,0.0468139648438,0.660278320312,0.749572753906,-0.5625,-2.25,0.75,-0.83,0.66,9.9
1543854976742474079,892,0,/imu_data_acquisition2,30353.0,-0.00347900390625,0.0466918945312,0.660339355469,0.74951171875,-0.625,-1.4375,1.0625,-0.99,0.61,9.51
1543854976758749961,894,0,/imu_data_acquisition2,30369.0,-0.00335693359375,0.046630859375,0.660461425781,0.749389648438,-0.25,0.25,1.0,-0.78,0.62,9.67
1543854976770400047,895,0,/imu_data_acquisition2,30381.0,-0.00347900390625,0.0468139648438,0.660583496094,0.749328613281,-0.375,0.8125,1.25,-1.1,0.69,9.81
1543854976783180952,896,0,/imu_data_acquisition2,30393.0,-0.0035400390625,0.046875,0.66064453125,0.749206542969,-0.25,1.1875,1.25,-0.7,0.57,9.84
1543854976790424108,897,0,/imu_data_acquisition2,30400.0,-0.00360107421875,0.0470581054688,0.660705566406,0.749145507812,-0.1875,2.125,1.25,-0.74,0.72,9.92
1543854976813508987,899,0,/imu_data_acquisition2,30424.0,-0.00384521484375,0.0474243164062,0.660827636719,0.7490234375,-0.375,2.3125,0.9375,-0.92,0.56,-0.01
1543854976819401979,900,0,/imu_data_acquisition2,30430.0,-0.0040283203125,0.047607421875,0.660888671875,0.748962402344,-0.5,2.375,0.75,-0.88,0.57,9.63
1543854976831005096,901,0,/imu_data_acquisition2,30442.0,-0.00421142578125,0.0479125976562,0.660949707031,0.748901367188,-0.5625,2.875,0.75,-1.12,0.64,10.02
1543854976841986894,902,0,/imu_data_acquisition2,30450.0,-0.00433349609375,0.048095703125,0.661010742188,0.748840332031,-0.375,2.5,0.8125,-0.72,0.56,9.89
1543854976851541996,903,0,/imu_data_acquisition2,30462.0,-0.0045166015625,0.0482788085938,0.661010742188,0.748779296875,-0.375,2.4375,0.6875,-0.94,0.68,9.72
1543854976864814043,904,0,/imu_data_acquisition2,30476.0,-0.00469970703125,0.048583984375,0.661071777344,0.748718261719,-0.5,2.8125,0.625,-1.11,0.77,9.95
1543854976871830940,905,0,/imu_data_acquisition2,30480.0,-0.00482177734375,0.048828125,0.661071777344,0.748718261719,-0.5,2.9375,0.5625,-0.96,0.74,9.91
1543854976880143880,906,0,/imu_data_acquisition2,30491.0,-0.0050048828125,0.0491333007812,0.661071777344,0.748718261719,-0.625,2.9375,0.1875,-0.89,0.8,9.82
1543854976892765998,907,0,/imu_data_acquisition2,30503.0,-0.00531005859375,-6.103515625e-05,-6.103515625e-05,0.748718261719,-0.8125,4.125,-0.625,-4.68,-4.0,11.69
1543854976902235031,908,0,/imu_data_acquisition2,30509.0,-0.00592041015625,0.0498657226562,0.660888671875,0.748840332031,-1.0,9.4375,-2.5625,-0.99,-0.18,9.77
1543854976920095920,909,0,/imu_data_acquisition2,30528.0,-0.00567626953125,0.0496215820312,0.661010742188,0.748718261719,-0.5,-3.75,2.625,-0.37,0.69,10.92
1543854976923163890,910,0,/imu_data_acquisition2,30534.0,-0.00604248046875,0.0499877929688,0.660949707031,0.748718261719,-0.5625,5.8125,-1.4375,-0.37,0.69,10.92
1543854976932564020,911,0,/imu_data_acquisition2,30542.0,-0.00616455078125,0.0501708984375,0.660888671875,0.748779296875,-0.5,2.5,-1.1875,-0.52,0.87,9.32
1543854976940881967,912,0,/imu_data_acquisition2,30552.0,-0.00653076171875,0.050537109375,0.660888671875,0.748779296875,0.3125,5.9375,-0.5625,-1.51,0.69,9.98
1543854976952342033,913,0,/imu_data_acquisition2,30563.0,-0.00677490234375,0.0508422851562,0.660827636719,0.748779296875,-0.25,5.0,-0.8125,-0.34,0.77,9.39
1543854976960752964,914,0,/imu_data_acquisition2,30569.0,-0.00714111328125,0.05126953125,0.660705566406,0.748840332031,0.0625,6.3125,-1.6875,-1.17,0.47,9.59
1543854976970349073,915,0,/imu_data_acquisition2,30581.0,-0.007568359375,0.0516967773438,0.660583496094,0.748962402344,0.0625,6.625,-1.875,-0.67,0.71,9.63
1543854976982512950,916,0,/imu_data_acquisition2,30590.0,-0.0079345703125,0.0521240234375,0.660400390625,0.7490234375,0.0,7.3125,-2.1875,-1.07,0.67,10.27
1543854976991242885,917,0,/imu_data_acquisition2,30601.0,-0.0084228515625,0.0526123046875,0.660278320312,0.749145507812,0.4375,7.6875,-2.0625,-1.17,0.74,9.74
1543854977004771947,918,0,/imu_data_acquisition2,30614.0,-0.00885009765625,0.0531005859375,0.66015625,0.749206542969,0.375,7.625,-2.125,-1.09,0.63,9.6
1543854977012767076,919,0,/imu_data_acquisition2,30622.0,-0.00921630859375,0.0535888671875,0.659973144531,0.749328613281,0.625,7.0625,-2.3125,-1.08,0.55,9.99
1543854977019998073,920,0,/imu_data_acquisition2,30631.0,-0.009521484375,0.0540771484375,0.659851074219,0.749389648438,0.8125,6.75,-2.125,-0.85,0.53,9.8
1543854977031023025,921,0,/imu_data_acquisition2,30642.0,-0.0098876953125,0.0545654296875,0.659729003906,0.749450683594,1.0625,7.125,-2.0,-1.13,0.63,10.11
1543854977043250083,922,0,/imu_data_acquisition2,30650.0,-0.01025390625,0.05517578125,0.659545898438,0.749572753906,1.1875,7.75,-2.375,-1.02,-0.01,-0.01
1543854977050364971,923,0,/imu_data_acquisition2,30661.0,-0.0106201171875,0.0557861328125,0.659362792969,0.749694824219,1.25,8.4375,-2.9375,-1.14,-0.01,-0.01
1543854977062323093,924,0,/imu_data_acquisition2,30673.0,-0.0110473632812,0.0565185546875,0.659118652344,0.749877929688,1.375,9.4375,-3.5625,-0.88,0.64,10.01
1543854977071614027,925,0,/imu_data_acquisition2,30680.0,-0.0115966796875,0.0572509765625,0.658813476562,0.750061035156,1.5,10.4375,-4.4375,-1.39,0.59,9.87
1543854977079169034,926,0,/imu_data_acquisition2,30689.0,-0.01220703125,0.0581665039062,0.658447265625,0.750244140625,1.5625,11.5625,-4.8125,-1.35,0.58,10.07
1543854977090081930,927,0,/imu_data_acquisition2,30700.0,-0.0128173828125,0.05908203125,0.658142089844,0.75048828125,1.875,11.8125,-5.0625,-1.31,0.81,10.01
1543854977100253105,928,0,/imu_data_acquisition2,30710.0,-0.013427734375,0.06005859375,0.65771484375,0.750732421875,2.125,12.6875,-5.375,-1.41,0.8,9.05
1543854977108350992,929,0,/imu_data_acquisition2,30719.0,-0.0140991210938,0.0610961914062,0.657348632812,0.7509765625,2.4375,14.4375,-5.8125,-1.6,0.22,10.37
1543854977119801998,930,0,/imu_data_acquisition2,30730.0,-0.0147705078125,0.0621337890625,0.656860351562,0.751281738281,2.4375,15.0,-6.6875,-1.87,1.09,10.1
1543854977130769014,931,0,/imu_data_acquisition2,30739.0,-0.015625,0.0634155273438,0.656433105469,0.751586914062,2.3125,17.5,-6.625,-1.25,0.8,9.06
1543854977138609886,932,0,/imu_data_acquisition2,30749.0,-0.0166015625,0.064697265625,0.655944824219,0.751831054688,2.1875,19.1875,-6.625,-1.49,1.46,9.89
1543854977150743961,933,0,/imu_data_acquisition2,30761.0,-0.0175170898438,0.0660400390625,0.655578613281,0.752014160156,2.5,18.5625,-5.625,-3.22,-0.66,10.71
1543854977159579038,934,0,/imu_data_acquisition2,30769.0,-0.0187377929688,0.0676879882812,0.655029296875,0.752380371094,2.125,23.9375,-8.0,-0.59,-2.25,10.89
1543854977169599056,935,0,/imu_data_acquisition2,30780.0,-0.0199584960938,0.0691528320312,0.654357910156,0.752746582031,1.5625,22.6875,-9.5,-1.52,-0.52,7.7
1543854977180526018,936,0,/imu_data_acquisition2,30791.0,-0.0216064453125,0.0712280273438,0.653625488281,0.753112792969,1.875,30.9375,-10.125,-0.93,1.46,11.52
1543854977188592910,937,0,/imu_data_acquisition2,30799.0,-0.0235595703125,0.0736083984375,0.653137207031,0.753295898438,1.4375,36.625,-6.75,-1.25,0.24,10.31
1543854977199920892,938,0,/imu_data_acquisition2,30810.0,-0.0258178710938,0.076171875,0.652648925781,0.753356933594,0.1875,40.1875,-6.0,-0.7,-0.37,8.93
1543854977212857007,939,0,/imu_data_acquisition2,30823.0,-0.028564453125,0.0791015625,0.652099609375,0.75341796875,-1.0625,47.25,-6.75,-1.43,-0.19,9.97
1543854977220048904,940,0,/imu_data_acquisition2,30831.0,-0.0316772460938,0.0826416015625,0.651672363281,0.753356933594,-0.5,55.625,-5.3125,-1.11,0.36,9.13
1543854977231142044,941,0,/imu_data_acquisition2,30842.0,-0.0350341796875,0.08642578125,0.651245117188,0.753112792969,-1.125,60.0625,-3.75,-1.27,0.67,9.2
1543854977241872072,942,0,/imu_data_acquisition2,30852.0,-0.0389404296875,0.0905151367188,0.65087890625,0.752746582031,-2.5625,66.6875,-2.375,-2.11,0.5,9.67
1543854977250041007,943,0,/imu_data_acquisition2,30861.0,-0.0431518554688,0.094970703125,0.650573730469,0.752258300781,-3.3125,73.0,-1.875,-1.43,0.94,9.58
1543854977261610031,944,0,/imu_data_acquisition2,30872.0,-0.0476684570312,0.0994262695312,0.650146484375,0.751770019531,-5.1875,75.5625,-2.0625,-1.94,0.84,9.47
1543854977272183895,945,0,/imu_data_acquisition2,30882.0,-0.0526123046875,0.104187011719,0.649719238281,0.751159667969,-7.1875,81.0625,-2.375,-2.16,0.51,-0.01
1543854977280142068,946,0,/imu_data_acquisition2,30891.0,-0.057861328125,0.109252929688,0.649230957031,0.75048828125,-7.6875,86.25,-2.75,-2.17,0.36,9.38
1543854977290771007,947,0,/imu_data_acquisition2,30902.0,-0.0634155273438,0.114624023438,0.648620605469,0.749755859375,-8.1875,92.125,-0.0625,-2.38,0.7,9.34
1543854977302710056,948,0,/imu_data_acquisition2,30913.0,-0.0693969726562,0.120361328125,0.647888183594,0.748962402344,-8.125,98.6875,-4.1875,-2.45,0.81,8.8
1543854977308702945,949,0,/imu_data_acquisition2,30920.0,-0.07568359375,0.126525878906,0.647033691406,0.748107910156,-7.625,104.6875,-4.625,-2.47,0.69,9.11
1543854977319633960,950,0,/imu_data_acquisition2,30930.0,-0.0821533203125,0.133178710938,0.645935058594,0.747192382812,-6.0,111.0625,-6.125,-3.52,0.12,9.45
1543854977328541994,951,0,/imu_data_acquisition2,30939.0,-0.0888061523438,0.140014648438,0.644714355469,0.746276855469,-5.4375,113.8125,-0.0625,-3.29,0.08,9.43
1543854977339766025,952,0,/imu_data_acquisition2,30950.0,-0.095458984375,0.146911621094,0.643310546875,0.745300292969,-4.6875,114.4375,-9.0625,-3.67,0.22,9.37
1543854977351562976,953,0,/imu_data_acquisition2,30960.0,-0.10205078125,0.15380859375,0.641723632812,0.744384765625,-3.9375,114.75,-10.0625,-3.84,0.04,8.87
1543854977358848094,954,0,/imu_data_acquisition2,30970.0,-0.108764648438,0.160766601562,0.640075683594,0.743408203125,-3.9375,116.0,-11.25,-4.46,0.12,9.19
1543854977375502109,955,0,/imu_data_acquisition2,30981.0,-0.00634765625,-6.103515625e-05,-6.103515625e-05,0.742309570312,-5.25,119.9375,-11.0,-3.97,0.14,9.1
1543854977380424022,956,0,/imu_data_acquisition2,30991.0,-0.122924804688,0.175170898438,0.636474609375,0.740966796875,-6.5625,123.375,-10.375,-4.16,-0.03,9.1
1543854977388690948,957,0,/imu_data_acquisition2,30999.0,-0.130310058594,0.182678222656,0.634582519531,0.739562988281,-6.875,127.375,-10.0,-4.32,0.09,9.22
1543854977400696039,958,0,/imu_data_acquisition2,31011.0,-0.137939453125,0.190551757812,0.632629394531,0.737854003906,-6.0,132.5625,-9.4375,-4.16,-0.04,9.17
1543854977410857915,959,0,/imu_data_acquisition2,31021.0,-0.145690917969,0.198913574219,0.630432128906,0.736022949219,-3.0,138.625,-9.0625,-3.8,-0.06,9.21
1543854977418870925,960,0,/imu_data_acquisition2,31030.0,-0.153442382812,0.207885742188,0.627990722656,0.734069824219,1.8125,145.375,-9.3125,-4.1,0.0,-0.01
1543854977430025100,961,0,/imu_data_acquisition2,31040.0,-0.161254882812,0.217590332031,0.625305175781,0.731872558594,7.1875,152.1875,-8.8125,-4.31,0.1,9.28
1543854977441016912,962,0,/imu_data_acquisition2,31051.0,-0.169189453125,0.227966308594,0.622436523438,0.729370117188,10.4375,161.0,-6.5,-4.71,0.01,8.89
1543854977448821067,963,0,/imu_data_acquisition2,31060.0,-0.177429199219,0.238891601562,0.619506835938,0.726440429688,11.5625,168.5625,-4.3125,-5.2,0.44,8.76
1543854977459887981,964,0,/imu_data_acquisition2,31070.0,-0.185913085938,0.250061035156,0.616394042969,0.72314453125,10.3125,174.5,-2.8125,-5.5,0.54,8.53
1543854977472513914,965,0,/imu_data_acquisition2,31082.0,-0.0074462890625,-6.103515625e-05,-6.103515625e-05,0.719421386719,6.625,180.875,-1.375,-5.52,0.71,8.54
1543854977479079008,966,0,/imu_data_acquisition2,31090.0,-0.204528808594,0.272766113281,0.610107421875,0.715209960938,1.1875,186.0625,-0.375,-6.15,0.93,8.38
1543854977490557909,967,0,/imu_data_acquisition2,31101.0,-0.214782714844,0.283813476562,0.60693359375,0.710632324219,-7.9375,190.1875,0.125,-6.35,1.27,8.12
1543854977499787092,968,0,/imu_data_acquisition2,31110.0,-0.225646972656,0.294250488281,0.603820800781,0.705627441406,-18.6875,190.5,0.3125,-6.44,1.85,8.29
1543854977510349035,969,0,/imu_data_acquisition2,31120.0,-0.237182617188,0.303771972656,0.601013183594,0.7001953125,-32.8125,188.5,-0.5,-6.32,2.54,8.59
1543854977519634008,970,0,/imu_data_acquisition2,31130.0,-0.249755859375,0.311950683594,0.598449707031,0.694396972656,-53.4375,185.4375,-1.9375,-6.41,2.06,8.3
1543854977529645919,971,0,/imu_data_acquisition2,31140.0,-0.249755859375,0.311950683594,0.598449707031,0.694396972656,-77.125,181.4375,-2.25,-6.44,2.17,8.36
1543854977539650917,972,0,/imu_data_acquisition2,31150.0,-0.263488769531,0.318603515625,0.596435546875,0.68798828125,-99.3125,181.25,0.1875,-6.4,2.4,8.42
1543854977548605918,973,0,/imu_data_acquisition2,31160.0,-0.2783203125,0.324035644531,0.594970703125,0.680786132812,-122.0,180.0625,6.1875,-5.97,2.4,7.14
1543854977560058116,974,0,/imu_data_acquisition2,31170.0,-0.294189453125,0.328369140625,0.594360351562,0.672607421875,-149.0625,181.0,18.375,-5.79,2.04,6.68
1543854977570935010,975,0,/imu_data_acquisition2,31181.0,-0.329406738281,0.333923339844,0.596923828125,0.65087890625,-178.625,186.1875,36.9375,-5.96,1.54,-0.01
1543854977581031084,976,0,/imu_data_acquisition2,31190.0,-0.329406738281,0.333923339844,0.596923828125,0.65087890625,-205.0625,194.5625,63.1875,-6.51,12.43,18.59
1543854977590305089,977,0,/imu_data_acquisition2,31200.0,-0.3486328125,0.3359375,0.6005859375,0.636291503906,-221.8125,176.875,114.125,1.23,29.17,38.94
1543854977600600004,978,0,/imu_data_acquisition2,31211.0,-0.375915527344,0.336059570312,0.623046875,0.598022460938,-232.875,76.3125,217.4375,-7.81,26.79,39.78
1543854977608716964,979,0,/imu_data_acquisition2,31220.0,-0.375915527344,0.336059570312,0.623046875,0.598022460938,-215.1875,-16.875,300.8125,4.82,7.1,26.54
1543854977619952917,980,0,/imu_data_acquisition2,31230.0,-0.377136230469,0.333251953125,0.64453125,0.575500488281,-181.6875,-105.9375,363.1875,5.43,0.37,19.68
1543854977629741907,981,0,/imu_data_acquisition2,31240.0,-0.369750976562,0.32958984375,0.670288085938,0.552612304688,-124.375,-164.0625,406.875,5.0,-5.44,16.8
1543854977638607025,982,0,/imu_data_acquisition2,31250.0,-0.354675292969,0.327331542969,0.697326660156,0.529846191406,-76.75,-191.5625,413.0,4.37,-9.22,15.4
1543854977650692939,983,0,/imu_data_acquisition2,31261.0,-0.314758300781,0.324096679688,0.746704101562,0.488220214844,-66.4375,-205.125,382.375,3.52,-13.21,12.91
1543854977659665107,984,0,/imu_data_acquisition2,31270.0,-0.295715332031,0.318176269531,0.767944335938,0.470703125,-89.5,-214.875,328.875,3.65,-0.65,-0.01
1543854977669565916,985,0,/imu_data_acquisition2,31281.0,-0.279357910156,0.30810546875,0.786560058594,0.456481933594,-120.4375,-216.75,259.5,3.74,-2.42,-0.01
1543854977680923938,986,0,/imu_data_acquisition2,31291.0,-0.0137329101562,-6.103515625e-05,-6.103515625e-05,0.456481933594,-136.25,-184.125,90.6875,1.72,-16.83,11.13
1543854977689699888,987,0,/imu_data_acquisition2,31300.0,-0.269958496094,0.294006347656,0.797790527344,0.451904296875,-136.25,-184.125,90.6875,-0.37,-14.42,15.01
1543854977700962066,988,0,/imu_data_acquisition2,31311.0,-0.260437011719,0.27978515625,0.808654785156,0.447204589844,-122.25,-169.1875,8.3125,-3.67,-10.05,19.22
1543854977709103107,989,0,/imu_data_acquisition2,31320.0,-0.253234863281,0.265197753906,0.8154296875,0.447875976562,-99.5625,-166.6875,-58.4375,-9.64,5.04,19.63
1543854977720567941,990,0,/imu_data_acquisition2,31331.0,-0.246826171875,0.250732421875,0.818908691406,0.453430175781,-48.25,-190.1875,-103.3125,-2.01,-0.01,-0.01
1543854977731276988,991,0,/imu_data_acquisition2,31341.0,-0.237609863281,0.237915039062,0.81982421875,0.463500976562,-44.25,-205.125,-102.4375,-8.43,5.92,17.57
1543854977739690065,992,0,/imu_data_acquisition2,31350.0,-0.227172851562,0.224731445312,0.820617675781,0.473754882812,-44.25,-205.125,-102.4375,-7.05,2.79,15.92
1543854977750787019,993,0,/imu_data_acquisition2,31361.0,-0.215759277344,0.211608886719,0.821044921875,0.484252929688,-14.375,-211.625,-104.25,-7.24,3.15,-0.01
1543854977760296106,994,0,/imu_data_acquisition2,31371.0,-0.203491210938,0.200012207031,0.820739746094,0.494934082031,9.0,-206.875,-100.625,-7.69,4.08,11.87
1543854977776979923,995,0,/imu_data_acquisition2,31381.0,-0.1904296875,0.190185546875,0.81982421875,0.505432128906,21.875,-204.9375,-93.3125,-8.39,4.35,12.19
1543854977783833980,996,0,/imu_data_acquisition2,31393.0,-0.176818847656,0.181457519531,0.818603515625,0.515441894531,27.0625,-206.9375,-85.4375,-9.26,2.71,11.42
1543854977790338993,997,0,/imu_data_acquisition2,31401.0,-0.147888183594,0.164855957031,0.816101074219,0.533752441406,32.6875,-208.4375,-79.875,-9.34,1.06,-0.01
1543854977802097082,998,0,/imu_data_acquisition2,31412.0,-6.103515625e-05,-6.103515625e-05,-6.103515625e-05,0.533752441406,39.625,-204.8125,-79.375,-9.35,-0.47,8.2
1543854977811362981,999,0,/imu_data_acquisition2,31422.0,-0.133056640625,0.157348632812,0.814392089844,0.54248046875,45.4375,-0.0625,-0.0625,-9.86,-2.9,6.05
1543854977820755958,1000,0,/imu_data_acquisition2,31432.0,-0.11865234375,0.150512695312,0.811950683594,0.551391601562,49.9375,-184.125,-96.25,-10.33,-3.57,5.23
1543854977831686019,1001,0,/imu_data_acquisition2,31442.0,-0.104858398438,0.144409179688,0.808532714844,0.560729980469,53.4375,-171.5625,-109.3125,-10.7,-3.79,4.44
1543854977839416027,1002,0,/imu_data_acquisition2,31450.0,-0.0137939453125,-6.103515625e-05,-6.103515625e-05,0.570678710938,53.4375,-171.5625,-109.3125,-11.11,-3.81,3.9
1543854977851053953,1003,0,/imu_data_acquisition2,31462.0,-0.0799560546875,0.134094238281,0.798645019531,0.581237792969,56.5625,-0.0625,-0.0625,-11.65,-3.3,3.27
1543854977862097024,1004,0,/imu_data_acquisition2,31473.0,-0.06884765625,0.1298828125,0.792297363281,0.592224121094,56.125,-132.0625,-142.75,-12.06,-2.83,4.07
1543854977873689889,1005,0,/imu_data_acquisition2,31482.0,-0.0587768554688,0.126159667969,0.78515625,0.603454589844,54.5625,-122.5,-148.6875,-2.52,-0.01,-0.01
1543854977880426883,1006,0,/imu_data_acquisition2,31491.0,-0.0494384765625,0.122802734375,0.777526855469,0.614807128906,55.875,-118.9375,-151.75,-13.82,-2.48,8.02
1543854977890985012,1007,0,/imu_data_acquisition2,31500.0,-0.040283203125,0.11962890625,0.769409179688,0.626159667969,55.875,-118.9375,-151.75,-14.41,-2.84,8.94
1543854977901272058,1008,0,/imu_data_acquisition2,31512.0,-0.0308227539062,0.116760253906,0.761047363281,0.637390136719,73.25,-122.9375,-152.625,-14.98,-3.33,9.18
1543854977909904956,1009,0,/imu_data_acquisition2,31521.0,-0.0204467773438,0.114440917969,0.752258300781,0.648498535156,87.3125,-126.125,-152.5,-15.67,-4.63,7.37
1543854977921444892,1010,0,/imu_data_acquisition2,31532.0,-0.0091552734375,0.11279296875,0.7431640625,0.659484863281,101.125,-124.25,-153.25,-15.7,-5.48,5.62
1543854977929934978,1011,0,/imu_data_acquisition2,31540.0,0.00286865234375,0.112121582031,0.733642578125,0.670227050781,101.125,-124.25,-153.25,-15.69,-6.36,3.87
1543854977939459085,1012,0,/imu_data_acquisition2,31550.0,0.014892578125,0.112609863281,0.7236328125,0.680786132812,112.9375,-115.1875,-154.9375,-15.44,-7.92,1.04
1543854977950917005,1013,0,/imu_data_acquisition2,31562.0,0.0264892578125,0.114318847656,0.713195800781,0.691101074219,120.875,-81.9375,-159.5625,-15.2,-8.49,0.07
1543854977960683107,1014,0,/imu_data_acquisition2,31571.0,0.0369262695312,0.117126464844,0.702392578125,0.701110839844,112.75,-61.75,-160.75,-14.86,-8.9,-0.43
1543854977970416069,1015,0,/imu_data_acquisition2,31582.0,0.045654296875,0.120666503906,0.691467285156,0.710815429688,95.5,-40.5625,-160.125,-14.25,-9.11,-0.83
1543854977980988979,1016,0,/imu_data_acquisition2,31591.0,0.0521240234375,0.124389648438,0.680603027344,0.720092773438,95.5,-40.5625,-160.125,-13.05,-8.6,-0.85
1543854977990506887,1017,0,/imu_data_acquisition2,31600.0,0.0559692382812,0.128051757812,0.670227050781,0.728881835938,71.8125,-19.125,-155.8125,-12.58,-7.5,-0.06
1543854978000885009,1018,0,/imu_data_acquisition2,31612.0,0.056884765625,0.131225585938,0.660705566406,0.736877441406,5.5,20.75,-131.625,-12.45,-5.98,1.32
1543854978011148929,1019,0,/imu_data_acquisition2,31622.0,0.0546264648438,0.133483886719,0.652526855469,0.743896484375,-37.3125,33.25,-111.625,-12.78,-3.03,5.12
1543854978021179914,1020,0,/imu_data_acquisition2,31631.0,0.0491943359375,0.133972167969,0.646057128906,0.749816894531,-80.25,39.6875,-87.375,-13.17,-2.18,6.62
1543854978030159950,1021,0,/imu_data_acquisition2,31641.0,0.0408935546875,0.132507324219,0.641540527344,0.754455566406,-80.25,39.6875,-87.375,-13.72,-1.58,8.04
1543854978040385007,1022,0,/imu_data_acquisition2,31650.0,0.0305786132812,0.129150390625,0.639038085938,0.757629394531,-115.0,42.4375,-60.9375,-13.72,-1.58,8.04
1543854978050529003,1023,0,/imu_data_acquisition2,31661.0,0.0192260742188,0.124389648438,0.638488769531,0.75927734375,-179.5625,19.5,13.6875,-18.04,20.01,24.48
1543854978060695886,1024,0,/imu_data_acquisition2,31672.0,0.00677490234375,0.115905761719,0.641235351562,0.758483886719,-376.1875,-65.5625,231.8125,-27.76,38.71,39.78
1543854978071805000,1025,0,/imu_data_acquisition2,31682.0,-0.011474609375,0.0911254882812,0.659240722656,0.746276855469,59.125,-206.625,387.375,15.55,-18.74,-20.41
1543854978079370021,1026,0,/imu_data_acquisition2,31690.0,0.0067138671875,0.0817260742188,0.682922363281,0.725830078125,59.125,-206.625,387.375,31.76,-23.52,-6.98
1543854978090023040,1027,0,/imu_data_acquisition2,31701.0,0.0309448242188,0.0918579101562,-6.103515625e-05,0.711730957031,279.125,-93.6875,246.5,-4.67,40.08,-21.01
1543854978103574991,1028,0,/imu_data_acquisition2,31713.0,0.0333862304688,0.107788085938,0.69287109375,0.712158203125,-251.0,26.125,-50.0625,-25.72,37.58,-9.28
1543854978110652923,1029,0,/imu_data_acquisition2,31722.0,0.0162963867188,0.0947875976562,0.692077636719,0.715393066406,-308.1875,-23.875,-62.5625,-9.43,-35.86,38.08
1543854978121568918,1030,0,/imu_data_acquisition2,31733.0,-0.00140380859375,0.0753784179688,0.690490722656,0.719421386719,-63.6875,-18.5,-39.375,0.54,-10.0,10.97
1543854978127985000,1031,0,/imu_data_acquisition2,31739.0,-0.00445556640625,0.0704956054688,0.6884765625,0.721801757812,-63.6875,-18.5,-39.375,0.54,-10.0,10.97
1543854978139786005,1032,0,/imu_data_acquisition2,31751.0,-0.004150390625,0.0702514648438,0.688720703125,0.721618652344,-0.1875,-4.875,3.625,6.7,4.27,0.78
1543854978151642084,1033,0,/imu_data_acquisition2,31762.0,-0.007568359375,0.0689697265625,0.6884765625,0.721923828125,-68.625,6.625,-16.375,-3.11,-0.46,14.31
1543854978161617994,1034,0,/imu_data_acquisition2,31772.0,-0.0122680664062,0.0653686523438,0.687866210938,0.722778320312,-68.625,6.625,-16.375,-1.41,-0.42,10.63
1543854978171142101,1035,0,/imu_data_acquisition2,31782.0,-6.103515625e-05,-6.103515625e-05,-6.103515625e-05,0.723999023438,-66.4375,-7.75,-22.125,-0.69,-0.29,10.14
1543854978181067943,1036,0,/imu_data_acquisition2,31790.0,-0.0191650390625,0.0564575195312,0.685791015625,0.725341796875,-63.0,-13.3125,-23.6875,-0.69,-0.29,10.14
1543854978188246965,1037,0,/imu_data_acquisition2,31799.0,-0.021484375,0.0526123046875,0.684753417969,0.7265625,-50.3125,-15.0625,-20.75,-0.31,-6.13,10.02
1543854978201423883,1038,0,/imu_data_acquisition2,31812.0,-0.0223999023438,0.051025390625,0.684326171875,0.72705078125,-20.3125,-6.625,-8.8125,0.13,-1.67,9.23
1543854978213757991,1039,0,/imu_data_acquisition2,31822.0,-0.0223999023438,0.05126953125,0.684387207031,0.726928710938,1.875,2.3125,1.75,-1.24,0.52,10.64
1543854978220494031,1040,0,/imu_data_acquisition2,31832.0,-0.0221557617188,0.052001953125,-6.103515625e-05,0.726684570312,7.9375,4.125,4.4375,-0.62,0.45,10.24
1543854978230874061,1041,0,/imu_data_acquisition2,31841.0,-0.0216064453125,0.0527954101562,0.684875488281,0.726440429688,10.6875,2.625,4.5,-0.62,0.45,10.24
1543854978239600896,1042,0,/imu_data_acquisition2,31850.0,-0.0210571289062,0.0537109375,0.685119628906,0.726135253906,12.3125,3.625,5.0,-0.42,0.72,9.52
1543854978250202894,1043,0,/imu_data_acquisition2,31861.0,-0.0204467773438,0.0545043945312,0.685363769531,0.725830078125,11.1875,2.25,5.4375,-0.69,0.93,9.73
1543854978261543989,1044,0,/imu_data_acquisition2,31872.0,-0.0198364257812,0.0550537109375,0.685668945312,0.7255859375,9.1875,0.125,5.0625,-0.68,0.89,9.73
1543854978272541046,1045,0,/imu_data_acquisition2,31883.0,-0.0194702148438,0.0555419921875,0.685913085938,0.725341796875,6.875,1.0,4.375,-1.1,1.32,10.22
1543854978278081893,1046,0,/imu_data_acquisition2,31889.0,-0.0192260742188,0.0558471679688,0.686096191406,0.72509765625,4.125,0.75,3.625,-1.1,1.32,10.22
1543854978289659976,1047,0,/imu_data_acquisition2,31900.0,-6.103515625e-05,-6.103515625e-05,-6.103515625e-05,0.724975585938,1.5625,-0.625,2.3125,-0.84,1.42,10.21
1543854978303936958,1048,0,/imu_data_acquisition2,31913.0,-0.01904296875,0.0557250976562,0.686218261719,0.724975585938,-0.875,-1.5,0.25,-1.13,0.61,10.1
1543854978310633897,1049,0,/imu_data_acquisition2,31922.0,-0.0191650390625,0.0554809570312,0.686218261719,0.725036621094,-2.5625,-1.5625,-0.8125,-0.7,0.71,9.45
1543854978321777105,1050,0,/imu_data_acquisition2,31932.0,-6.103515625e-05,-6.103515625e-05,-6.103515625e-05,0.72509765625,-2.9375,-2.0,-1.0625,-0.86,0.62,9.79
1543854978329133033,1051,0,/imu_data_acquisition2,31940.0,-0.019287109375,0.054931640625,0.686096191406,0.725158691406,-2.625,-1.5,-1.0,-0.86,0.62,9.79
1543854978339297056,1052,0,/imu_data_acquisition2,31950.0,-0.0193481445312,0.0547485351562,0.686096191406,0.725219726562,-2.4375,-1.3125,-0.875,-0.61,0.81,9.63
1543854978351986885,1053,0,/imu_data_acquisition2,31962.0,-0.0194702148438,0.0546264648438,0.68603515625,0.725219726562,-1.875,-0.3125,-0.625,-0.72,0.34,9.66
1543854978361968994,1054,0,/imu_data_acquisition2,31972.0,-0.0194702148438,0.0546264648438,0.68603515625,0.725219726562,-0.5625,0.0,0.0625,-0.97,0.52,-0.01
1543854978371465921,1055,0,/imu_data_acquisition2,31982.0,-0.0195922851562,0.0546875,0.686096191406,0.725219726562,0.125,1.4375,0.6875,-0.8,0.42,9.76
1543854978380520105,1056,0,/imu_data_acquisition2,31990.0,-0.0196533203125,0.0548706054688,0.686157226562,0.725158691406,0.6875,1.75,0.9375,-0.8,0.42,9.76
1543854978390147924,1057,0,/imu_data_acquisition2,32000.0,-0.0196533203125,0.0549926757812,0.686218261719,0.72509765625,0.8125,1.625,1.0625,-0.75,0.73,9.79
1543854978403307914,1058,0,/imu_data_acquisition2,32013.0,-0.0197143554688,0.05517578125,0.686279296875,0.724975585938,0.4375,1.5,0.9375,-0.54,0.54,9.69
1543854978413538932,1059,0,/imu_data_acquisition2,32022.0,-0.019775390625,0.0552368164062,0.686340332031,0.724914550781,0.4375,1.5,0.9375,-0.95,0.65,9.79
1543854978422188997,1060,0,/imu_data_acquisition2,32033.0,-0.0198974609375,0.0553588867188,0.686340332031,0.724914550781,-0.0625,1.6875,0.5,-0.81,0.92,10.09
1543854978432027101,1061,0,/imu_data_acquisition2,32041.0,-0.0197143554688,0.0554809570312,0.686340332031,0.724853515625,0.0,1.4375,0.625,-0.81,0.92,10.09
1543854978438575983,1062,0,/imu_data_acquisition2,32050.0,-0.01953125,0.0556030273438,0.686401367188,0.724853515625,-0.375,1.375,0.5,-0.91,0.82,10.04
1543854978450206995,1063,0,/imu_data_acquisition2,32060.0,-0.0194702148438,0.0556030273438,0.686401367188,0.724853515625,-0.8125,1.125,0.1875,-0.99,0.63,9.96
1543854978463526010,1064,0,/imu_data_acquisition2,32073.0,-0.0194091796875,0.0556030273438,0.686401367188,0.724853515625,-0.75,0.0,0.125,-0.5,0.73,9.98
1543854978474797964,1065,0,/imu_data_acquisition2,32083.0,-0.0191650390625,0.0554809570312,0.686401367188,0.724853515625,-0.75,0.0,0.125,-0.91,0.48,10.2
1543854978487274885,1066,0,/imu_data_acquisition2,32094.0,-0.0191040039062,0.055419921875,0.686401367188,0.724853515625,-0.875,0.25,0.25,-0.86,0.53,9.99
1543854978493383884,1067,0,/imu_data_acquisition2,32104.0,-0.01904296875,0.0552978515625,-6.103515625e-05,0.724853515625,-0.5,-0.8125,0.6875,-0.71,0.63,10.07
1543854978503529071,1068,0,/imu_data_acquisition2,32114.0,-0.0188598632812,0.05517578125,0.686462402344,0.724792480469,-0.25,-0.75,0.9375,-1.13,0.56,10.07
1543854978512556076,1069,0,/imu_data_acquisition2,32123.0,-0.018798828125,0.05517578125,0.6865234375,0.724731445312,-0.25,-0.75,0.9375,-0.59,0.61,9.77
1543854978521825075,1070,0,/imu_data_acquisition2,32133.0,-0.0186157226562,0.0549926757812,0.686645507812,0.724670410156,-0.0625,-1.125,1.125,-0.84,0.52,9.87
1543854978531924009,1071,0,/imu_data_acquisition2,32142.0,-0.0184326171875,0.054931640625,0.686706542969,0.724609375,0.3125,-1.0,1.1875,-0.84,0.52,9.87
1543854978538635969,1072,0,/imu_data_acquisition2,32149.0,-0.0184326171875,0.054931640625,0.686828613281,0.724548339844,0.5,-0.4375,1.4375,-1.41,1.0,10.28
1543854978551358938,1073,0,/imu_data_acquisition2,32162.0,-0.0183715820312,0.054931640625,0.686889648438,0.724426269531,0.8125,-0.0625,-0.0625,-0.28,0.52,9.76
1543854978563122987,1074,0,/imu_data_acquisition2,32173.0,-0.0182495117188,0.054931640625,-6.103515625e-05,0.724365234375,0.6875,-0.9375,1.375,-0.92,0.65,10.31
1543854978573014974,1075,0,/imu_data_acquisition2,32183.0,-0.0181884765625,0.0549926757812,0.687072753906,0.724243164062,0.875,-0.0625,1.875,-0.81,0.56,10.1
1543854978581224918,1076,0,/imu_data_acquisition2,32192.0,-0.0181274414062,0.0550537109375,0.687194824219,0.72412109375,0.875,0.125,2.125,-0.81,0.56,10.1
1543854978591387033,1077,0,/imu_data_acquisition2,32201.0,-0.0180053710938,0.0551147460938,0.687377929688,0.723999023438,1.1875,0.375,2.375,-0.62,0.47,9.53
1543854978599836111,1078,0,/imu_data_acquisition2,32211.0,-0.0179443359375,0.05517578125,0.6875,0.723815917969,1.375,0.5625,2.6875,-0.74,0.7,10.39
1543854978612149000,1079,0,/imu_data_acquisition2,32223.0,-0.0178833007812,0.0553588867188,0.687683105469,0.723693847656,1.4375,1.1875,2.5,-1.08,0.71,9.67
1543854978622833013,1080,0,/imu_data_acquisition2,32233.0,-0.0178833007812,0.0555419921875,0.687805175781,0.723510742188,1.4375,1.5625,2.5,-1.08,0.71,9.67
1543854978629127025,1081,0,/imu_data_acquisition2,32240.0,-0.0177612304688,0.0557250976562,0.68798828125,0.723388671875,1.1875,1.4375,2.375,-0.83,0.74,9.96
1543854978640746116,1082,0,/imu_data_acquisition2,32251.0,-0.017578125,0.0558471679688,0.688110351562,0.723266601562,0.875,1.6875,2.0625,-0.68,0.78,9.92
1543854978651156902,1083,0,/imu_data_acquisition2,32260.0,-0.0174560546875,0.0560302734375,0.688232421875,0.72314453125,0.75,1.6875,1.9375,-0.89,0.83,9.85
1543854978664072990,1084,0,/imu_data_acquisition2,32273.0,-0.017333984375,0.0560913085938,0.688354492188,0.723022460938,0.3125,1.8125,1.6875,-0.75,0.76,9.99
1543854978673953056,1085,0,/imu_data_acquisition2,32284.0,-0.0172729492188,0.0562744140625,0.688415527344,0.722900390625,0.375,1.5,1.5,-0.97,0.78,9.96
1543854978681298017,1086,0,/imu_data_acquisition2,32290.0,-0.0172729492188,0.056396484375,0.688537597656,0.722839355469,0.375,1.5,1.5,-0.97,0.78,9.96
1543854978689615011,1087,0,/imu_data_acquisition2,32300.0,-0.0172119140625,0.0565185546875,0.688598632812,0.722717285156,0.1875,1.5,1.25,-0.74,0.68,9.94
1543854978701105117,1088,0,/imu_data_acquisition2,32311.0,-0.0172119140625,0.056640625,0.688659667969,0.72265625,0.3125,1.75,1.375,-0.98,0.66,10.05
1543854978712217092,1089,0,/imu_data_acquisition2,32322.0,-0.0171508789062,0.0567016601562,0.688781738281,0.722534179688,0.1875,1.4375,1.25,-0.72,0.74,9.96
1543854978722178936,1090,0,/imu_data_acquisition2,32333.0,-0.0170288085938,0.0567016601562,0.688842773438,0.722473144531,0.25,1.3125,1.25,-0.69,0.71,10.03
1543854978733216047,1091,0,/imu_data_acquisition2,32344.0,-0.0169677734375,0.0567626953125,0.68896484375,0.722412109375,0.0625,1.5625,1.25,-0.92,0.74,10.06
1543854978740633010,1092,0,/imu_data_acquisition2,32349.0,-0.0169677734375,0.056884765625,0.689025878906,0.722290039062,0.0,1.6875,1.25,-0.92,0.74,10.06
1543854978749566078,1093,0,/imu_data_acquisition2,32360.0,-0.0169067382812,0.0570068359375,0.689086914062,0.722229003906,-0.125,1.6875,1.1875,-0.95,0.72,10.05
1543854978763350963,1094,0,/imu_data_acquisition2,32374.0,-0.0169067382812,0.0570678710938,0.689147949219,0.72216796875,-0.0625,1.875,1.0625,-0.74,0.71,9.82
1543854978770808935,1095,0,/imu_data_acquisition2,32381.0,-0.0169067382812,0.0571899414062,0.689208984375,0.722106933594,-0.1875,1.6875,1.0625,-0.97,0.71,9.94
1543854978779701948,1096,0,/imu_data_acquisition2,32391.0,-0.0169067382812,0.0573120117188,0.689331054688,0.721984863281,-0.25,1.625,1.25,-1.11,0.74,10.02
1543854978794035911,1097,0,/imu_data_acquisition2,32404.0,-6.103515625e-05,-6.103515625e-05,-6.103515625e-05,0.721923828125,-0.25,0.875,1.125,-0.76,0.69,9.8
1543854978801809072,1098,0,/imu_data_acquisition2,32411.0,-0.016845703125,0.0574340820312,0.689453125,0.721862792969,-0.25,1.0625,0.875,-0.89,0.68,9.94
1543854978812304973,1099,0,/imu_data_acquisition2,32423.0,-0.016845703125,0.0574951171875,0.689514160156,0.721801757812,-0.25,1.0,0.875,-1.01,0.7,9.82
1543854978824312925,1100,0,/imu_data_acquisition2,32432.0,-0.0167236328125,0.0574951171875,0.689575195312,0.721740722656,0.0625,0.375,1.0,-0.7,0.71,9.79
1543854978829309940,1101,0,/imu_data_acquisition2,32440.0,-0.0166625976562,0.0575561523438,0.689636230469,0.7216796875,0.0,0.625,1.0625,-0.99,0.68,9.75
1543854978840646028,1102,0,/imu_data_acquisition2,32452.0,-0.0165405273438,0.0575561523438,0.689697265625,0.721618652344,0.0,0.25,1.25,-0.87,0.7,9.81
1543854978853786945,1103,0,/imu_data_acquisition2,32462.0,-0.0164184570312,0.0574951171875,0.689819335938,0.721496582031,0.0,0.5,1.25,-0.73,0.68,9.81
1543854978861635923,1104,0,/imu_data_acquisition2,32472.0,-0.016357421875,0.0574951171875,0.689880371094,0.721435546875,-0.125,0.5,1.125,-1.01,0.74,9.85
1543854978871170997,1105,0,/imu_data_acquisition2,32482.0,-0.0162963867188,0.0575561523438,0.68994140625,0.721374511719,-0.0625,1.0625,1.25,-0.71,0.7,9.86
1543854978881234884,1106,0,/imu_data_acquisition2,32490.0,-0.0160522460938,0.0575561523438,0.690063476562,0.721252441406,0.0625,1.0625,1.4375,-0.54,0.77,9.86
1543854978889666080,1107,0,/imu_data_acquisition2,32501.0,-0.0159912109375,0.0576171875,0.690124511719,0.72119140625,-0.0625,1.75,1.25,-0.91,0.77,10.14
1543854978901067972,1108,0,/imu_data_acquisition2,32511.0,-0.0159912109375,0.0577392578125,0.690246582031,0.721130371094,-0.3125,2.4375,1.0625,-0.86,0.7,9.99
1543854978913321971,1109,0,/imu_data_acquisition2,32522.0,-0.0159912109375,0.0579223632812,0.690246582031,0.721069335938,-0.1875,3.125,0.6875,-0.82,0.77,9.75
1543854978919446945,1110,0,/imu_data_acquisition2,32531.0,-0.01611328125,0.0581665039062,0.690246582031,0.721008300781,-0.25,3.75,0.3125,-1.02,0.81,9.95
1543854978930929899,1111,0,/imu_data_acquisition2,32541.0,-0.01611328125,0.058349609375,0.690246582031,0.721008300781,-0.25,3.75,-0.3125,-0.6,0.81,10.04
1543854978940290927,1112,0,/imu_data_acquisition2,32550.0,-0.0161743164062,0.0587158203125,0.690185546875,0.721069335938,-0.1875,4.0,-1.4375,-1.34,1.17,9.95
1543854978949227094,1113,0,/imu_data_acquisition2,32560.0,-0.0164184570312,0.05908203125,0.690063476562,0.721130371094,-0.125,4.6875,-1.625,-0.99,0.56,9.76
1543854978961661100,1114,0,/imu_data_acquisition2,32573.0,-0.0167236328125,0.0594482421875,0.689880371094,0.721252441406,0.75,6.0625,-2.6875,-1.5,0.92,10.16
1543854978970478057,1115,0,/imu_data_acquisition2,32581.0,-0.0169677734375,0.059814453125,0.689697265625,0.721435546875,0.875,5.0625,-0.0625,-1.7,0.89,10.52
1543854978979489088,1116,0,/imu_data_acquisition2,32591.0,-0.0173950195312,0.060302734375,0.689453125,0.721618652344,0.875,7.25,-3.5625,-0.74,0.71,9.42
1543854978992292881,1117,0,/imu_data_acquisition2,32602.0,-0.0177612304688,0.0608520507812,0.689208984375,0.721801757812,1.1875,7.875,-3.6875,-1.97,1.0,9.5
1543854979000579118,1118,0,/imu_data_acquisition2,32610.0,-0.0181884765625,0.0614624023438,0.68896484375,0.721984863281,1.8125,8.125,-3.75,0.06,1.07,9.96
1543854979009474992,1119,0,/imu_data_acquisition2,32620.0,-0.0186767578125,0.0621337890625,0.688659667969,0.72216796875,1.3125,9.5625,-4.3125,-2.48,1.47,9.92
1543854979021536111,1120,0,/imu_data_acquisition2,32632.0,-0.019287109375,0.0628662109375,0.688415527344,0.722351074219,1.125,11.4375,-4.0625,0.03,-1.4,9.52
1543854979030543088,1121,0,/imu_data_acquisition2,32640.0,-0.0200805664062,0.0638427734375,0.68798828125,0.72265625,1.375,14.3125,-6.25,-1.99,0.0,8.84
1543854979039546966,1122,0,/imu_data_acquisition2,32650.0,-0.0209350585938,0.06494140625,0.687561035156,0.722900390625,2.0,16.375,-6.25,-0.43,0.96,9.38
1543854979050786018,1123,0,/imu_data_acquisition2,32661.0,-0.0218505859375,0.0660400390625,0.687194824219,0.72314453125,1.1875,17.125,-5.5,-0.7,0.89,10.18
1543854979060281038,1124,0,/imu_data_acquisition2,32670.0,-0.0231323242188,0.0673217773438,0.686767578125,0.723388671875,0.5625,20.75,-5.8125,-1.31,0.14,-0.01
1543854979069638967,1125,0,/imu_data_acquisition2,32680.0,-0.0244140625,0.0687255859375,0.686340332031,0.723571777344,1.0625,22.5625,-5.9375,-0.84,0.0,9.74
1543854979080792903,1126,0,/imu_data_acquisition2,32691.0,-0.0258178710938,0.0702514648438,0.685913085938,0.723815917969,0.8125,24.4375,-6.125,-0.7,0.41,9.53
1543854979089586019,1127,0,/imu_data_acquisition2,32699.0,-0.0274658203125,0.0719604492188,0.685485839844,0.723999023438,0.0,28.3125,-5.8125,-1.11,0.7,9.71
1543854979099718093,1128,0,/imu_data_acquisition2,32710.0,-0.0294189453125,0.0739135742188,0.685119628906,0.72412109375,0.125,32.4375,-5.3125,-1.05,0.69,10.14
1543854979112296104,1129,0,/imu_data_acquisition2,32722.0,-0.0314331054688,0.0760498046875,0.684631347656,0.724182128906,-0.375,34.1875,-5.75,-1.41,0.91,9.92
1543854979120035886,1130,0,/imu_data_acquisition2,32729.0,-0.03369140625,0.0781860351562,0.684204101562,0.724304199219,-1.5,37.1875,-5.9375,-1.13,0.92,9.68
1543854979129802942,1131,0,/imu_data_acquisition2,32740.0,-0.0363159179688,0.08056640625,0.683654785156,0.724426269531,-2.5625,41.8125,-6.6875,-1.31,0.68,9.49
1543854979140672922,1132,0,/imu_data_acquisition2,32751.0,-0.039306640625,0.0831909179688,0.68310546875,0.724487304688,-4.0,47.0625,-7.25,-1.15,0.42,9.68
1543854979149559020,1133,0,/imu_data_acquisition2,32759.0,-0.0425415039062,0.0860595703125,0.682556152344,0.724487304688,-4.0625,50.375,-6.5,-1.39,0.7,9.59
1543854979160502910,1134,0,/imu_data_acquisition2,32771.0,-0.0458984375,0.0890502929688,0.682067871094,0.724365234375,-4.4375,53.25,-5.0,-1.69,0.77,9.23
1543854979171969890,1135,0,/imu_data_acquisition2,32782.0,-0.0494995117188,0.0921020507812,0.681701660156,0.72412109375,-5.0625,55.75,-0.0625,-1.55,0.55,9.65
1543854979179332971,1136,0,/imu_data_acquisition2,32789.0,-0.0532836914062,0.0953979492188,0.681274414062,0.723815917969,-6.0,-0.0625,-0.0625,-1.65,0.44,9.74
1543854979190776109,1137,0,/imu_data_acquisition2,32802.0,-0.057373046875,0.0989379882812,0.680908203125,0.723388671875,-6.375,63.625,-1.9375,-1.9,0.35,9.63
1543854979201123952,1138,0,/imu_data_acquisition2,32811.0,-0.0615844726562,0.102600097656,0.680541992188,0.722839355469,-6.625,66.375,-1.625,-2.11,0.4,9.43
1543854979208698034,1139,0,/imu_data_acquisition2,32819.0,-0.0660400390625,0.106384277344,0.68017578125,0.722290039062,-7.1875,69.25,-1.375,-2.15,0.23,9.62
1543854979220676898,1140,0,/imu_data_acquisition2,32832.0,-0.0707397460938,0.110412597656,0.6796875,0.7216796875,-7.625,-0.0625,-0.0625,-2.56,0.44,9.37
1543854979231347084,1141,0,/imu_data_acquisition2,32842.0,-0.0755004882812,0.114440917969,0.67919921875,0.721069335938,-8.125,74.25,-2.0625,-2.41,0.31,9.62
1543854979239217996,1142,0,/imu_data_acquisition2,32850.0,-0.0802612304688,0.11865234375,0.6787109375,0.720336914062,-6.6875,75.3125,-0.875,-2.48,0.49,9.48
1543854979250566005,1143,0,/imu_data_acquisition2,32861.0,-0.0850219726562,0.123046875,0.678161621094,0.719543457031,-5.75,77.8125,-0.6875,-2.68,0.52,9.63
1543854979265330076,1144,0,/imu_data_acquisition2,32875.0,-0.0900268554688,0.127624511719,0.677551269531,0.718688964844,-4.9375,80.875,-0.875,-2.41,0.46,9.05
1543854979271907091,1145,0,/imu_data_acquisition2,32882.0,-0.0951538085938,0.132568359375,0.676818847656,0.717834472656,-4.25,85.0625,-1.75,-2.93,0.54,9.27
1543854979280975103,1146,0,/imu_data_acquisition2,32891.0,-0.100463867188,0.1376953125,0.675903320312,0.716979980469,-3.625,89.0,-3.5625,-2.91,0.66,9.41
1543854979290951013,1147,0,/imu_data_acquisition2,32900.0,-0.106079101562,0.143127441406,0.6748046875,0.716125488281,-2.875,93.375,-5.25,-3.02,0.5,9.37
1543854979299210071,1148,0,/imu_data_acquisition2,32910.0,-0.111877441406,0.14892578125,0.673522949219,0.71533203125,-2.25,98.25,-6.875,-3.54,0.28,9.4
1543854979311736106,1149,0,/imu_data_acquisition2,32923.0,-0.117919921875,0.154907226562,0.672058105469,0.714477539062,-1.9375,102.5,-8.5,-3.66,0.11,9.24
1543854979321110963,1150,0,/imu_data_acquisition2,32930.0,-0.124267578125,0.161193847656,0.67041015625,0.713500976562,-1.8125,107.6875,-8.875,-3.96,0.21,9.3
1543854979329632043,1151,0,/imu_data_acquisition2,32941.0,-0.130859375,0.167724609375,-6.103515625e-05,0.712341308594,-2.4375,112.125,-7.3125,-3.74,-0.12,9.35
1543854979341135025,1152,0,/imu_data_acquisition2,32951.0,-0.137573242188,0.174499511719,0.667114257812,0.710998535156,-1.8125,115.125,-6.5625,-3.89,-0.25,9.32
1543854979349852085,1153,0,/imu_data_acquisition2,32959.0,-0.144348144531,0.181579589844,0.665405273438,0.709533691406,0.0,119.625,-5.4375,-4.08,-0.16,9.07
1543854979361700057,1154,0,/imu_data_acquisition2,32973.0,-0.151245117188,0.189086914062,0.66357421875,0.707824707031,2.375,124.3125,-4.0625,-4.04,-0.02,9.24
1543854979371792078,1155,0,/imu_data_acquisition2,32981.0,-0.158203125,0.197021484375,0.661682128906,0.705932617188,4.75,128.1875,-2.25,-4.14,-0.2,9.15
1543854979379581928,1156,0,/imu_data_acquisition2,32989.0,-0.165100097656,0.205444335938,0.65966796875,0.703796386719,8.9375,133.1875,-0.375,-4.24,-0.18,9.04
1543854979389924049,1157,0,/imu_data_acquisition2,33001.0,-0.171997070312,0.214477539062,0.657531738281,0.701477050781,13.8125,139.4375,1.4375,-4.22,-0.03,9.18
1543854979402863979,1158,0,/imu_data_acquisition2,33011.0,-0.178894042969,0.224182128906,0.6552734375,0.698852539062,18.75,145.5625,3.625,-4.77,0.16,8.73
1543854979409168004,1159,0,/imu_data_acquisition2,33020.0,-0.185913085938,0.234497070312,0.65283203125,0.695922851562,21.9375,152.3125,5.5625,-4.93,0.4,8.79
1543854979420332908,1160,0,/imu_data_acquisition2,33031.0,-0.193115234375,0.245056152344,0.650207519531,0.692687988281,22.5,157.5625,6.75,-5.09,0.34,8.61
1543854979434128046,1161,0,/imu_data_acquisition2,33041.0,-0.200622558594,0.255859375,0.647521972656,0.689208984375,21.6875,162.625,7.875,-5.57,0.63,8.32
1543854979439119100,1162,0,/imu_data_acquisition2,33050.0,-0.208435058594,0.266845703125,0.644653320312,0.685363769531,20.25,167.75,8.125,-5.87,0.85,8.12
1543854979450664043,1163,0,/imu_data_acquisition2,33061.0,-0.216491699219,0.27783203125,0.641662597656,0.681335449219,17.5625,170.9375,7.8125,-5.96,0.97,8.12
1543854979463965892,1164,0,/imu_data_acquisition2,33071.0,-0.224975585938,0.288452148438,0.638549804688,0.677062988281,11.3125,171.9375,7.125,-6.04,1.13,7.7
1543854979468962907,1165,0,/imu_data_acquisition2,33080.0,-0.234008789062,0.298583984375,0.635498046875,0.672424316406,2.3125,173.75,6.3125,-6.28,1.51,7.81
1543854979480247020,1166,0,/imu_data_acquisition2,33090.0,-0.243835449219,0.308227539062,0.632446289062,0.66748046875,-8.9375,176.25,4.875,-6.56,1.79,7.89
1543854979490334987,1167,0,/imu_data_acquisition2,33100.0,-0.254516601562,0.317016601562,0.629516601562,0.662170410156,-22.6875,177.5625,3.375,-6.39,1.74,7.55
1543854979499274015,1168,0,/imu_data_acquisition2,33110.0,-0.266174316406,0.325073242188,0.626770019531,0.65625,-39.125,180.25,2.5,-6.5,1.77,7.21
1543854979511046886,1169,0,/imu_data_acquisition2,33121.0,-0.278869628906,0.332458496094,0.624267578125,0.649597167969,-54.4375,185.1875,4.5,-1.09,-0.01,-0.01
1543854979520582914,1170,0,/imu_data_acquisition2,33130.0,-0.292541503906,0.33935546875,0.622131347656,0.642028808594,-71.1875,191.125,8.4375,-6.04,2.58,7.82
1543854979528801918,1171,0,/imu_data_acquisition2,33139.0,-0.3076171875,0.345520019531,0.620666503906,0.633056640625,-94.625,199.125,16.125,-6.27,2.83,7.95
1543854979540874958,1172,0,/imu_data_acquisition2,33151.0,-0.32421875,0.350769042969,0.620361328125,0.622131347656,-12.125,-0.0625,-0.0625,-6.09,2.64,8.14
1543854979550403118,1173,0,/imu_data_acquisition2,33160.0,-0.342102050781,0.355102539062,0.621459960938,0.608825683594,-155.75,214.4375,48.4375,-6.68,2.6,9.27
1543854979559458017,1174,0,/imu_data_acquisition2,33170.0,-0.359802246094,0.358825683594,0.624572753906,0.593078613281,-177.0,210.875,79.1875,-2.88,16.75,35.27
1543854979570601940,1175,0,/imu_data_acquisition2,33181.0,-0.371948242188,0.360229492188,0.632873535156,0.575622558594,-184.375,138.75,141.1875,-4.99,17.23,39.78
1543854979579474925,1176,0,/imu_data_acquisition2,33189.0,-0.0154418945312,-6.103515625e-05,-6.103515625e-05,0.558349609375,-168.75,21.1875,209.625,0.43,11.82,38.43
1543854979590313911,1177,0,/imu_data_acquisition2,33201.0,-0.370239257812,0.356079101562,0.664916992188,0.542236328125,-136.375,-62.6875,247.75,7.46,6.16,28.43
1543854979601068019,1178,0,/imu_data_acquisition2,33211.0,-0.358276367188,0.354309082031,0.684814453125,0.526489257812,-90.1875,-126.125,294.125,7.35,-1.32,17.33
1543854979609213113,1179,0,/imu_data_acquisition2,33219.0,-0.341979980469,0.352966308594,0.705017089844,0.511291503906,-58.5625,-162.1875,312.0,5.64,-3.75,16.65
1543854979619858026,1180,0,/imu_data_acquisition2,33231.0,-0.324523925781,0.350036621094,0.725036621094,0.496459960938,-61.9375,-182.5,305.8125,4.66,-5.74,15.86
1543854979630994081,1181,0,/imu_data_acquisition2,33241.0,-0.307373046875,0.34375,0.74462890625,0.482543945312,-88.25,-202.3125,281.875,3.33,-10.48,12.35
1543854979639446020,1182,0,/imu_data_acquisition2,33250.0,-0.291564941406,0.333740234375,0.763305664062,0.470092773438,-119.25,-214.1875,244.1875,2.47,-12.54,11.03
1543854979650460004,1183,0,/imu_data_acquisition2,33261.0,-0.277770996094,0.320922851562,0.779907226562,0.4599609375,-139.5,-213.125,194.4375,1.62,-13.3,10.58
1543854979661181926,1184,0,/imu_data_acquisition2,33272.0,-0.266174316406,0.306579589844,0.793701171875,0.453002929688,-144.375,-203.9375,136.5625,-1.57,-11.42,13.43
1543854979690577030,1187,0,/imu_data_acquisition2,33301.0,-0.248229980469,0.275695800781,0.8125,0.44970703125,-120.6875,-186.4375,-10.0,-8.81,4.67,16.68
1543854979701034069,1188,0,/imu_data_acquisition2,33312.0,-0.231628417969,0.24462890625,0.823913574219,0.455688476562,-109.8125,-191.875,-24.0,-8.34,3.47,16.32
1543854979711447954,1189,0,/imu_data_acquisition2,33322.0,-0.222290039062,0.229187011719,0.828674316406,0.459777832031,-103.0,-199.0625,-29.75,-7.66,1.34,15.84
1543854979720393896,1190,0,/imu_data_acquisition2,33330.0,-0.212219238281,0.2138671875,0.832702636719,0.464599609375,-93.5625,-205.8125,-38.5625,-7.12,0.3,14.52
1543854979729912042,1191,0,/imu_data_acquisition2,33341.0,-0.201538085938,0.199279785156,0.835693359375,0.470397949219,-78.125,-207.625,-50.0,-7.44,1.39,12.58
1543854979741276979,1192,0,/imu_data_acquisition2,33350.0,-0.201538085938,0.199279785156,0.835693359375,0.470397949219,-58.375,-206.5,-60.0,-7.84,1.55,12.44
1543854979750193119,1193,0,/imu_data_acquisition2,33360.0,-0.190246582031,0.185913085938,0.837646484375,0.47705078125,-41.1875,-205.8125,-68.125,-8.34,1.16,12.28
1543854979759964942,1194,0,/imu_data_acquisition2,33371.0,-0.166015625,0.161926269531,0.838989257812,0.4921875,-28.5,-206.9375,-75.625,-9.07,0.39,10.2
1543854979771667957,1195,0,/imu_data_acquisition2,33380.0,-0.153076171875,0.150817871094,0.838562011719,0.500610351562,-17.5,-208.4375,-83.3125,-9.09,-0.06,8.58
1543854979779362916,1196,0,/imu_data_acquisition2,33390.0,-0.139892578125,0.140319824219,0.837341308594,0.509582519531,-7.9375,-206.75,-91.5625,-9.07,-0.6,6.82
1543854979789760112,1197,0,/imu_data_acquisition2,33400.0,-0.139892578125,0.140319824219,0.837341308594,0.509582519531,0.375,-199.4375,-101.125,-9.28,-1.56,4.38
1543854979801121950,1198,0,/imu_data_acquisition2,33410.0,-0.126953125,0.130493164062,0.835144042969,0.518981933594,7.75,-186.75,-112.5,-9.47,-1.8,3.58
1543854979808830976,1199,0,/imu_data_acquisition2,33420.0,-0.114685058594,0.121643066406,0.83203125,0.528991699219,15.9375,-171.3125,-124.375,-9.7,-1.82,2.8
1543854979820235013,1200,0,/imu_data_acquisition2,33431.0,-0.103149414062,0.113891601562,0.827819824219,0.53955078125,23.8125,-155.0625,-136.125,-9.91,-1.72,2.54
1543854979831799983,1201,0,/imu_data_acquisition2,33441.0,-0.092529296875,0.107238769531,0.822631835938,0.550659179688,30.5625,-138.625,-146.375,-10.8,-1.21,4.36
1543854979839010000,1202,0,/imu_data_acquisition2,33450.0,-0.0828247070312,0.101806640625,0.816467285156,0.562255859375,35.625,-123.6875,-154.125,-11.47,-0.92,6.32
1543854979850323915,1203,0,/imu_data_acquisition2,33461.0,-0.0739135742188,0.0972900390625,0.809631347656,0.574096679688,39.3125,-114.125,-159.3125,-12.27,-0.77,8.36
1543854979860044002,1204,0,/imu_data_acquisition2,33470.0,-0.0654907226562,0.0934448242188,0.802124023438,0.586120605469,43.25,-113.0625,-161.8125,-13.82,-1.13,11.26
1543854979869285106,1205,0,/imu_data_acquisition2,33480.0,-0.0569458007812,0.08984375,0.794311523438,0.59814453125,50.375,-119.875,-161.9375,-14.27,-1.54,11.0
1543854979880861043,1206,0,/imu_data_acquisition2,33491.0,-0.0475463867188,0.0863647460938,0.786193847656,0.610046386719,62.8125,-131.875,-160.625,-14.57,-1.99,9.47
1543854979890111923,1207,0,/imu_data_acquisition2,33500.0,-0.0367431640625,0.0830688476562,0.77783203125,0.621826171875,90.3125,-141.5,-158.0,-15.08,-3.39,4.99
1543854979899919986,1208,0,/imu_data_acquisition2,33510.0,-0.0238037109375,0.0811157226562,0.769226074219,0.633361816406,90.3125,-141.5,-158.0,-15.4,-4.45,3.11
1543854979911077022,1209,0,/imu_data_acquisition2,33520.0,-0.0108642578125,0.0790405273438,-6.103515625e-05,0.644653320312,100.6875,-131.0,-158.9375,-15.79,-5.7,1.73
1543854979920798063,1210,0,/imu_data_acquisition2,33531.0,0.001953125,0.0782470703125,0.750915527344,0.655700683594,115.9375,-88.6875,-167.875,-16.18,-7.13,0.97
1543854979931346893,1211,0,/imu_data_acquisition2,33542.0,-6.103515625e-05,-6.103515625e-05,-6.103515625e-05,0.666809082031,120.5625,-63.875,-175.625,-16.6,-9.8,-0.47
1543854979938543081,1212,0,/imu_data_acquisition2,33550.0,0.0225219726562,0.0848388671875,0.729797363281,0.677978515625,120.5625,-63.875,-175.625,-16.41,-10.92,-1.18
1543854979950823068,1213,0,/imu_data_acquisition2,33561.0,0.0303344726562,0.09033203125,0.718200683594,0.689331054688,119.0625,-38.0,-184.875,-15.98,-11.69,-1.62
1543854979961596012,1214,0,/imu_data_acquisition2,33572.0,0.0359497070312,0.0967407226562,0.705810546875,0.700805664062,92.25,14.6875,-203.25,-15.49,-11.55,-0.44
1543854979969634056,1215,0,/imu_data_acquisition2,33580.0,0.0388793945312,0.103759765625,0.692932128906,0.71240234375,68.375,35.4375,-207.0,-15.44,-10.42,1.55
1543854979981482982,1216,0,/imu_data_acquisition2,33592.0,0.0390625,0.110534667969,0.679931640625,0.723876953125,39.0,48.0625,-202.1875,-15.23,-8.66,3.7
1543854979991684913,1217,0,/imu_data_acquisition2,33602.0,0.0322265625,0.120422363281,0.655578613281,0.744750976562,3.8125,52.3125,-187.75,-14.8,-3.54,8.0
1543854980000329017,1218,0,/imu_data_acquisition2,33611.0,0.025634765625,0.121765136719,0.645812988281,0.753234863281,-36.875,47.6875,-0.0625,-14.61,-0.89,9.57
1543854980011754035,1219,0,/imu_data_acquisition2,33622.0,0.025634765625,-6.103515625e-05,-6.103515625e-05,0.753234863281,-121.9375,15.625,-93.125,-14.63,11.1,14.69
1543854980022414922,1220,0,/imu_data_acquisition2,33632.0,0.00030517578125,0.0960693359375,0.654296875,0.750122070312,-311.625,-48.6875,163.4375,-38.14,38.69,36.69
1543854980029970884,1221,0,/imu_data_acquisition2,33641.0,0.00030517578125,0.0960693359375,0.654296875,0.750122070312,118.1875,-187.3125,278.375,-1.2,-7.9,-16.96
1543854980040947914,1222,0,/imu_data_acquisition2,33651.0,0.0204467773438,0.0906982421875,0.670715332031,0.735900878906,312.3125,-10.3125,134.625,28.66,-21.34,-7.02
1543854980050998926,1223,0,/imu_data_acquisition2,33661.0,0.0414428710938,0.107421875,0.676391601562,0.727478027344,48.0,57.1875,-29.6875,-1.27,-0.01,-0.01
1543854980059988021,1224,0,/imu_data_acquisition2,33671.0,0.0408325195312,0.113830566406,0.67431640625,0.728515625,-273.75,16.0,-36.5,-4.66,-9.02,14.13
