%time,field.header.seq,field.header.stamp,field.header.frame_id,field.time_stamp,field.quat_x,field.quat_y,field.quat_z,field.quat_w,field.gyro_x,field.gyro_y,field.gyro_z,field.accel_x,field.accel_y,field.accel_z
1542214796977446079,155,0,/imu_data_acquisition2,49224.0,0.132019042969,0.121215820312,0.712158203125,0.678771972656,4.9375,3.3125,0.125,-0.07,3.08,9.53
1542214796987797021,156,0,/imu_data_acquisition2,49234.0,0.131958007812,0.121704101562,0.712158203125,0.6787109375,4.75,3.1875,0.0,-0.03,3.48,9.58
1542214796993385076,157,0,/imu_data_acquisition2,49241.0,0.131591796875,0.122192382812,0.712158203125,0.678649902344,4.0625,3.625,0.4375,-0.36,3.44,9.71
1542214797002629995,158,0,/imu_data_acquisition2,49250.0,0.131408691406,0.122741699219,0.712097167969,0.678649902344,4.3125,3.25,0.4375,-0.05,3.41,9.47
1542214797012850046,159,0,/imu_data_acquisition2,49260.0,0.131225585938,0.123046875,0.712097167969,0.678588867188,3.875,2.625,0.5625,0.05,3.11,9.75
1542214797022614955,160,0,/imu_data_acquisition2,49270.0,0.130920410156,0.123413085938,0.712097167969,0.678588867188,3.875,2.9375,0.375,-0.17,3.31,9.51
1542214797034348964,161,0,/imu_data_acquisition2,49282.0,0.130920410156,0.123840332031,0.712097167969,0.678527832031,4.4375,2.5,0.3125,0.09,3.44,9.36
1542214797044790029,162,0,/imu_data_acquisition2,49292.0,0.130920410156,0.124267578125,0.712097167969,0.678466796875,4.375,2.375,0.3125,0.01,3.41,9.17
1542214797052761077,163,0,/imu_data_acquisition2,49300.0,0.130859375,0.124755859375,0.712097167969,0.678405761719,5.0,3.375,-0.0625,-0.02,3.36,9.55
1542214797062791109,164,0,/imu_data_acquisition2,49310.0,0.130737304688,0.125244140625,0.712036132812,0.678405761719,5.375,3.375,-0.1875,-0.2,3.27,9.72
1542214797072559118,165,0,/imu_data_acquisition2,49320.0,0.130798339844,0.125793457031,0.712036132812,0.678283691406,6.5,2.875,-0.3125,0.23,3.38,9.32
1542214797083420991,166,0,/imu_data_acquisition2,49331.0,0.130676269531,0.126281738281,0.712036132812,0.67822265625,6.0625,3.5625,-0.375,-0.25,3.09,9.37
1542214797093199014,167,0,/imu_data_acquisition2,49341.0,0.130615234375,0.126892089844,0.711975097656,0.67822265625,7.375,3.125,-0.625,-0.1,3.3,9.4
1542214797103523015,168,0,/imu_data_acquisition2,49350.0,0.130676269531,0.12744140625,0.7119140625,0.678161621094,7.3125,2.6875,-0.0625,-0.03,3.46,9.37
1542214797114111900,169,0,/imu_data_acquisition2,49361.0,0.130493164062,0.127990722656,0.7119140625,0.678100585938,7.5,3.4375,-0.375,-0.2,2.99,9.62
1542214797125502109,170,0,/imu_data_acquisition2,49371.0,0.130676269531,0.128601074219,0.711791992188,0.678039550781,9.375,3.3125,-0.75,0.37,3.26,9.38
1542214797136533975,171,0,/imu_data_acquisition2,49384.0,0.130615234375,0.129272460938,0.711730957031,0.677978515625,8.75,3.9375,-0.6875,-0.38,3.23,9.23
1542214797147664070,172,0,/imu_data_acquisition2,49395.0,0.130737304688,0.130187988281,0.711608886719,0.677917480469,9.3125,5.25,-1.75,0.08,3.86,9.45
1542214797153019905,173,0,/imu_data_acquisition2,49401.0,0.130859375,0.131042480469,0.71142578125,0.677917480469,8.25,6.0625,-1.75,0.08,3.86,9.45
1542214797165460109,174,0,/imu_data_acquisition2,49413.0,0.130737304688,0.131958007812,0.711303710938,0.677856445312,6.75,7.5625,-2.5,-0.27,3.88,9.11
1542214797174432039,175,0,/imu_data_acquisition2,49421.0,0.130493164062,0.132873535156,0.711181640625,0.677856445312,6.125,9.625,-2.9375,-0.24,3.74,9.23
1542214797187630891,176,0,/imu_data_acquisition2,49434.0,0.130126953125,0.133911132812,0.711059570312,0.677856445312,6.0,11.0,-2.9375,0.19,3.51,9.37
1542214797195099115,177,0,/imu_data_acquisition2,49442.0,0.129638671875,0.135009765625,0.710998535156,0.677856445312,5.125,12.625,-2.875,-0.13,3.29,9.67
1542214797204315900,178,0,/imu_data_acquisition2,49452.0,0.129150390625,0.13623046875,0.710876464844,0.677856445312,6.375,14.0,-3.625,0.04,3.02,9.34
1542214797214987039,179,0,/imu_data_acquisition2,49462.0,0.128479003906,0.137817382812,0.710632324219,0.677917480469,8.375,17.8125,-6.0,-1.01,2.51,8.65
1542214797225234985,180,0,/imu_data_acquisition2,49471.0,0.127258300781,0.139770507812,0.710327148438,0.677978515625,7.3125,25.1875,-8.0625,0.92,2.52,9.49
1542214797237699985,181,0,/imu_data_acquisition2,49485.0,0.125854492188,0.142150878906,0.710021972656,0.678100585938,9.1875,30.4375,-9.5,0.62,3.59,11.53
1542214797248831033,182,0,/imu_data_acquisition2,49495.0,0.124450683594,0.144836425781,0.709533691406,0.678283691406,11.6875,32.5,-11.1875,-0.05,3.76,10.25
1542214797253815889,183,0,/imu_data_acquisition2,49501.0,0.122619628906,0.148010253906,0.709045410156,0.678466796875,12.0,39.5625,-13.625,-0.29,2.57,8.98
1542214797264271020,184,0,/imu_data_acquisition2,49511.0,0.120178222656,0.151916503906,0.70849609375,0.678588867188,14.3125,51.0,-15.0625,0.18,3.49,8.27
1542214797274210929,185,0,/imu_data_acquisition2,49522.0,0.117004394531,0.15673828125,0.7080078125,0.678588867188,16.125,64.375,-16.375,0.2,2.17,8.18
1542214797288638114,186,0,/imu_data_acquisition2,49535.0,0.113159179688,0.16259765625,0.707580566406,0.678283691406,19.3125,79.25,-16.25,1.01,3.86,7.4
1542214797293035030,187,0,/imu_data_acquisition2,49541.0,0.108459472656,0.169067382812,0.707336425781,0.677734375,17.0625,92.3125,-14.9375,-0.55,4.41,10.71
1542214797304645061,188,0,/imu_data_acquisition2,49552.0,0.103332519531,0.175842285156,0.70703125,0.677124023438,17.625,97.9375,-16.5,0.11,5.02,10.31
1542214797314872980,189,0,/imu_data_acquisition2,49562.0,0.0977783203125,0.182434082031,0.706604003906,0.676696777344,11.5625,99.5,-19.5625,-0.55,4.37,10.37
1542214797323082923,190,0,/imu_data_acquisition2,49571.0,0.0914916992188,0.189086914062,0.70556640625,0.676818847656,7.375,104.625,-30.375,-0.09,1.32,10.83
1542214797338372945,191,0,/imu_data_acquisition2,49585.0,0.0842895507812,0.196166992188,0.703979492188,0.677368164062,4.625,113.875,-40.75,-0.48,3.02,10.97
1542214797348908901,192,0,/imu_data_acquisition2,49595.0,0.0772094726562,0.205139160156,0.701538085938,0.678100585938,23.25,126.875,-51.5,0.42,4.21,10.53
1542214797354927062,193,0,/imu_data_acquisition2,49602.0,0.0697021484375,0.216735839844,0.697875976562,0.679077148438,43.5,149.375,-66.125,0.21,6.16,10.32
1542214797363682985,194,0,/imu_data_acquisition2,49611.0,0.0599365234375,0.230529785156,0.693969726562,0.679443359375,45.1875,187.9375,-70.9375,0.32,1.02,12.01
1542214797374644994,195,0,/imu_data_acquisition2,49622.0,0.0482177734375,0.247619628906,0.689514160156,0.678894042969,58.6875,232.0625,-75.875,1.54,-0.01,-0.01
1542214797388617038,196,0,/imu_data_acquisition2,49634.0,0.0343627929688,0.267639160156,0.684020996094,0.677734375,68.375,274.25,-86.0,0.12,1.26,11.07
1542214797395725965,197,0,/imu_data_acquisition2,49641.0,0.0205688476562,0.291687011719,0.675231933594,0.677185058594,112.3125,303.0,-119.75,-1.18,2.62,15.12
1542214797404807090,198,0,/imu_data_acquisition2,49652.0,0.0064697265625,0.322448730469,0.660888671875,0.677673339844,183.25,354.3125,-175.25,0.76,7.91,-0.01
1542214797414808988,199,0,/imu_data_acquisition2,49662.0,-0.00836181640625,0.355895996094,0.642517089844,0.678527832031,212.4375,379.5625,-213.625,-3.72,7.71,24.01
1542214797423441886,200,0,/imu_data_acquisition2,49671.0,-0.020263671875,0.389221191406,0.620971679688,0.680114746094,249.0625,354.0625,-232.1875,1.31,8.45,12.68
1542214797435391902,201,0,/imu_data_acquisition2,49683.0,-0.0315551757812,0.416137695312,0.599487304688,0.682983398438,206.9375,292.1875,-239.4375,-4.77,9.48,16.28
1542214797449593067,202,0,/imu_data_acquisition2,49696.0,-0.0410766601562,0.433898925781,0.580627441406,0.687683105469,143.6875,195.125,-227.0,1.0,15.07,17.11
1542214797457644939,203,0,/imu_data_acquisition2,49702.0,-0.0494384765625,0.440979003906,0.565795898438,0.694946289062,60.3125,84.6875,-209.625,-10.26,18.82,39.99
1542214797463129997,204,0,/imu_data_acquisition2,49711.0,-0.0588989257812,0.435302734375,0.560180664062,0.702331542969,-82.5625,-18.25,-148.5,8.92,1.56,19.19
1542214797474216938,205,0,/imu_data_acquisition2,49722.0,-0.007080078125,-6.103515625e-05,-6.103515625e-05,0.709716796875,-147.6875,-59.3125,-128.1875,11.03,-0.76,11.1
1542214797489001035,206,0,/imu_data_acquisition2,49735.0,-0.0796508789062,0.412231445312,0.554260253906,0.718688964844,-135.5625,-74.375,-152.4375,5.76,3.31,8.8
1542214797493180036,207,0,/imu_data_acquisition2,49741.0,-0.0885009765625,0.399780273438,0.548706054688,0.728820800781,-120.25,-92.4375,-168.875,6.22,3.66,6.07
1542214797504650115,208,0,/imu_data_acquisition2,49752.0,-0.0967407226562,0.387817382812,0.542297363281,0.739013671875,-108.125,-91.125,-173.1875,6.05,6.13,5.57
1542214797514925956,209,0,/imu_data_acquisition2,49762.0,-0.104370117188,0.375427246094,0.536193847656,0.748779296875,-106.9375,-97.0,-165.625,5.37,7.47,5.93
1542214797523207902,210,0,/imu_data_acquisition2,49771.0,-0.111267089844,0.361999511719,0.531494140625,0.757690429688,-114.25,-109.125,-145.0625,5.35,8.95,5.45
1542214797536987066,211,0,/imu_data_acquisition2,49784.0,-0.117065429688,0.347595214844,0.528747558594,0.765441894531,-121.125,-122.8125,-117.6875,5.11,9.6,5.19
1542214797544894933,212,0,/imu_data_acquisition2,49792.0,-0.121704101562,0.332336425781,0.527954101562,0.77197265625,-125.0,-135.125,-87.8125,5.28,-0.01,-0.01
1542214797553637981,213,0,/imu_data_acquisition2,49801.0,-0.124938964844,0.316650390625,0.529113769531,0.777282714844,-124.4375,-145.5,-57.9375,4.44,-0.01,-0.01
1542214797564878940,214,0,/imu_data_acquisition2,49812.0,-0.126159667969,0.300903320312,0.531799316406,0.781494140625,-113.5625,-156.625,-29.8125,3.86,8.68,6.63
1542214797574336051,215,0,/imu_data_acquisition2,49821.0,-0.12451171875,0.285461425781,0.535461425781,0.785034179688,-90.0625,-171.8125,-5.625,3.15,8.14,8.31
1542214797587569952,216,0,/imu_data_acquisition2,49834.0,-0.119079589844,0.270202636719,0.539733886719,0.788330078125,-55.625,-193.8125,15.0625,1.78,7.54,10.04
1542214797594472885,217,0,/imu_data_acquisition2,49841.0,-0.109558105469,0.255004882812,0.544616699219,0.791442871094,-19.4375,-218.9375,35.0,1.46,7.51,-0.01
1542214797604414939,218,0,/imu_data_acquisition2,49852.0,-0.0965576171875,0.239990234375,0.550109863281,0.794006347656,11.8125,-239.75,54.0625,1.44,7.36,8.73
1542214797614948987,219,0,/imu_data_acquisition2,49862.0,-0.0810546875,0.225219726562,0.55615234375,0.7958984375,34.125,-251.9375,71.8125,1.28,7.33,7.98
1542214797622903108,220,0,/imu_data_acquisition2,49871.0,-0.0640869140625,0.210815429688,0.562805175781,0.796691894531,48.0,-256.1875,88.875,0.78,6.77,7.68
1542214797635729074,221,0,/imu_data_acquisition2,49883.0,-0.046142578125,0.196716308594,0.570068359375,0.796325683594,56.875,-256.8125,105.25,0.53,6.35,8.48
1542214797647680997,222,0,/imu_data_acquisition2,49895.0,-0.0274047851562,0.182983398438,0.577941894531,0.794799804688,65.25,-257.1875,120.4375,0.28,5.98,9.73
1542214797653094053,223,0,/imu_data_acquisition2,49901.0,-0.0076904296875,0.169494628906,0.586120605469,0.792297363281,74.5625,-258.6875,132.375,-0.47,5.73,12.28
1542214797665380001,224,0,/imu_data_acquisition2,49913.0,0.0127563476562,0.15625,0.594482421875,0.788696289062,82.5,-260.0625,143.3125,0.13,5.26,12.51
1542214797674906969,225,0,/imu_data_acquisition2,49922.0,0.033447265625,0.143127441406,0.603088378906,0.784057617188,86.125,-258.0625,153.3125,0.0,5.5,13.41
1542214797683351039,226,0,/imu_data_acquisition2,49931.0,0.0542602539062,0.13037109375,0.611694335938,0.778381347656,89.5625,-254.375,160.375,-0.47,6.21,15.17
1542214797697359085,227,0,/imu_data_acquisition2,49943.0,0.0747680664062,0.117858886719,0.620361328125,0.771789550781,89.125,-248.4375,167.375,-0.81,7.42,16.61
1542214797704308032,228,0,/imu_data_acquisition2,49951.0,0.0941772460938,0.10498046875,0.629333496094,0.764221191406,77.125,-241.0,176.75,-1.27,8.81,18.38
1542214797713572025,229,0,/imu_data_acquisition2,49961.0,0.11181640625,0.09130859375,0.638977050781,0.755554199219,55.0625,-233.5,188.625,-2.96,11.11,22.73
1542214797724910020,230,0,/imu_data_acquisition2,49972.0,0.127258300781,0.076416015625,0.649353027344,0.745849609375,27.25,-226.1875,202.4375,-4.22,11.21,24.31
1542214797734658956,231,0,/imu_data_acquisition2,49981.0,0.140686035156,0.060546875,0.660278320312,0.735229492188,2.25,-217.5625,214.1875,-5.77,10.43,25.19
1542214797743961095,232,0,/imu_data_acquisition2,49992.0,0.152648925781,0.0447387695312,0.671081542969,0.72412109375,-8.0625,-204.9375,216.4375,-7.82,9.56,25.41
1542214797754631042,233,0,/imu_data_acquisition2,50002.0,0.164123535156,0.030029296875,0.681335449219,0.712707519531,-3.625,-193.3125,210.75,-12.43,8.3,25.73
1542214797764993906,234,0,/imu_data_acquisition2,50012.0,0.176452636719,0.0162353515625,0.690673828125,0.701171875,12.1875,-0.0625,-0.0625,-13.74,4.41,25.16
1542214797774354934,235,0,/imu_data_acquisition2,50022.0,0.192504882812,0.00537109375,0.699096679688,0.688598632812,68.8125,-201.75,199.0625,-16.81,1.05,27.19
1542214797784493923,236,0,/imu_data_acquisition2,50031.0,0.214172363281,-0.0018310546875,0.706481933594,0.674499511719,148.375,-220.0,194.25,-16.91,5.28,16.72
1542214797794786930,237,0,/imu_data_acquisition2,50042.0,0.236572265625,-0.00714111328125,0.713684082031,0.659301757812,173.4375,-212.0625,197.875,-16.26,6.28,10.13
1542214797804845094,238,0,/imu_data_acquisition2,50052.0,0.254577636719,-0.0137939453125,0.720458984375,0.644897460938,125.375,-186.4375,191.75,-24.03,3.42,12.53
1542214797813577890,239,0,/imu_data_acquisition2,50061.0,0.268676757812,-0.00714111328125,-6.103515625e-05,0.633361816406,66.6875,-176.1875,159.9375,-30.98,-15.16,1.68
1542214797827501058,240,0,/imu_data_acquisition2,50072.0,0.283630371094,-0.0274047851562,0.727478027344,0.624145507812,101.8125,-158.5625,106.25,-31.52,-15.4,-4.2
1542214797834741115,241,0,/imu_data_acquisition2,50082.0,0.299926757812,-0.025634765625,0.726928710938,0.6171875,159.375,-131.5625,44.4375,-30.06,-12.96,-7.17
1542214797843072891,242,0,/imu_data_acquisition2,50091.0,0.314208984375,-0.0181884765625,0.724548339844,0.613159179688,182.0,-77.875,-13.125,-27.39,-8.63,-6.91
1542214797854770898,243,0,/imu_data_acquisition2,50102.0,0.323059082031,-0.009033203125,0.721557617188,0.612365722656,144.9375,-20.5625,-51.125,-16.84,0.18,-3.03
1542214797865082025,244,0,/imu_data_acquisition2,50112.0,0.323974609375,-0.00152587890625,0.718383789062,0.615600585938,58.25,34.4375,-79.5,-12.55,3.45,0.53
1542214797872951030,245,0,/imu_data_acquisition2,50121.0,0.31640625,0.00238037109375,0.716064453125,0.622192382812,-47.6875,84.0,-87.5,-9.76,4.79,4.58
1542214797885090112,246,0,/imu_data_acquisition2,50132.0,0.301391601562,0.00238037109375,0.715148925781,0.630676269531,-142.0625,123.5,-79.0,9.29,1.64,14.1
1542214797895340919,247,0,/imu_data_acquisition2,50142.0,0.284545898438,0.00115966796875,0.713500976562,0.640258789062,-170.4375,127.8125,-89.75,22.17,2.66,22.31
1542214797903657913,248,0,/imu_data_acquisition2,50151.0,0.268310546875,0.0028076171875,0.711364746094,0.649536132812,-140.0625,142.125,-100.375,15.45,12.61,16.71
1542214797914895057,249,0,/imu_data_acquisition2,50162.0,0.253540039062,0.0067138671875,0.70947265625,0.657531738281,-106.4375,148.1875,-94.625,-5.83,-1.49,-7.21
1542214797924913883,250,0,/imu_data_acquisition2,50172.0,0.241027832031,0.0155639648438,0.709350585938,0.662170410156,-37.25,173.0,-67.6875,-6.52,5.3,-6.89
1542214797933651924,251,0,/imu_data_acquisition2,50181.0,0.230041503906,0.0306396484375,0.71044921875,0.664367675781,34.4375,213.375,-55.0,0.84,-0.01,-0.01
1542214797949491977,252,0,/imu_data_acquisition2,50196.0,0.21728515625,0.0444946289062,0.712646484375,0.66552734375,11.75,221.875,-34.625,-5.73,-4.45,26.99
1542214797954889059,253,0,/imu_data_acquisition2,50202.0,0.20361328125,0.0552978515625,0.713928222656,0.667724609375,-22.9375,202.5,-43.125,-3.61,-4.58,18.72
1542214797964749097,254,0,/imu_data_acquisition2,50212.0,0.1904296875,0.0643310546875,0.713500976562,0.671203613281,-35.625,179.875,-63.0625,-0.46,1.5,18.75
1542214797974497079,255,0,/imu_data_acquisition2,50221.0,0.178771972656,0.0733032226562,0.712158203125,0.674926757812,-24.0,163.875,-71.5625,3.33,12.38,21.67
1542214797984616994,256,0,/imu_data_acquisition2,50232.0,0.166748046875,0.0838012695312,0.712829589844,0.676086425781,-10.5,185.3125,-0.0625,-12.21,6.69,18.96
1542214797996107101,257,0,/imu_data_acquisition2,50242.0,0.15478515625,0.0861206054688,-6.103515625e-05,0.675354003906,-78.1875,126.375,14.0625,2.72,-4.2,13.85
1542214798003895998,258,0,/imu_data_acquisition2,50251.0,0.147216796875,0.0889892578125,0.717346191406,0.675109863281,-37.0,89.5625,1.0625,2.72,-3.56,13.64
1542214798014228105,259,0,/imu_data_acquisition2,50261.0,0.142395019531,0.09423828125,0.71728515625,0.675537109375,5.3125,82.9375,-18.375,-1.11,5.76,12.21
1542214798024095058,260,0,/imu_data_acquisition2,50271.0,0.139343261719,0.0986938476562,0.717102050781,0.675720214844,12.875,60.625,-13.75,-0.01,3.32,9.93
1542214798035856962,261,0,/imu_data_acquisition2,50281.0,0.137390136719,0.101684570312,0.717041015625,0.675720214844,10.125,40.6875,-7.9375,0.71,2.11,9.69
1542214798045542955,262,0,/imu_data_acquisition2,50291.0,0.136291503906,0.104919433594,0.716735839844,0.67578125,18.8125,34.25,-9.625,-0.1,3.14,10.36
1542214798054074048,263,0,/imu_data_acquisition2,50302.0,-6.103515625e-05,-6.103515625e-05,-6.103515625e-05,0.67578125,16.125,25.375,-6.0,0.36,2.26,9.84
1542214798065912008,264,0,/imu_data_acquisition2,50311.0,0.135620117188,0.107421875,0.716552734375,0.67578125,19.8125,20.125,-6.8125,-0.22,4.31,9.73
1542214798075630903,265,0,/imu_data_acquisition2,50321.0,0.135375976562,0.112182617188,0.7158203125,0.67578125,19.5625,18.5,-7.125,0.03,4.11,10.67
1542214798083870887,266,0,/imu_data_acquisition2,50331.0,0.13525390625,0.114013671875,0.715515136719,0.675842285156,14.625,15.375,-6.1875,-0.26,3.85,10.84
1542214798095946073,267,0,/imu_data_acquisition2,50341.0,0.134948730469,0.115600585938,0.715209960938,0.675964355469,11.4375,15.0625,-5.875,1.08,3.02,9.38
1542214798105334997,268,0,/imu_data_acquisition2,50351.0,0.134521484375,0.116821289062,0.715026855469,0.676025390625,6.75,12.5625,-4.6875,0.1,2.64,10.31
1542214798113934040,269,0,/imu_data_acquisition2,50361.0,0.134399414062,0.118041992188,0.714782714844,0.676086425781,9.75,10.0625,-0.0625,0.09,3.1,9.57
1542214798125725984,270,0,/imu_data_acquisition2,50371.0,0.134399414062,0.118041992188,0.714782714844,0.676086425781,0.4375,9.125,-1.75,0.12,3.52,9.92
1542214798136650085,271,0,/imu_data_acquisition2,50382.0,0.133483886719,0.119018554688,0.714660644531,0.676208496094,0.6875,6.1875,-2.9375,0.39,3.75,9.33
1542214798143666982,272,0,/imu_data_acquisition2,50391.0,0.132873535156,0.119323730469,0.714538574219,0.676391601562,-2.1875,7.375,-4.25,0.31,3.8,9.33
1542214798156092882,273,0,/imu_data_acquisition2,50403.0,0.132263183594,0.119506835938,0.71435546875,0.676696777344,-3.6875,5.75,-5.1875,1.01,3.73,8.94
1542214798164128065,274,0,/imu_data_acquisition2,50411.0,0.132263183594,0.119506835938,0.71435546875,0.676696777344,-6.75,9.625,-5.6875,-0.9,3.19,10.31
1542214798173283100,275,0,/imu_data_acquisition2,50421.0,0.131225585938,0.119689941406,0.714172363281,0.677062988281,-7.375,8.625,-5.25,0.03,3.02,9.95
1542214798185776948,276,0,/imu_data_acquisition2,50432.0,0.129516601562,0.119873046875,0.713928222656,0.677673339844,-5.625,5.6875,-4.75,1.18,3.19,9.37
1542214798196618080,277,0,/imu_data_acquisition2,50442.0,0.128601074219,0.119873046875,0.713806152344,0.677917480469,-6.8125,7.1875,-4.5625,-1.39,3.23,10.02
1542214798203495025,278,0,/imu_data_acquisition2,50451.0,0.127563476562,0.119934082031,0.713684082031,0.67822265625,-8.625,9.125,-5.0,0.59,3.66,9.15
1542214798215761899,279,0,/imu_data_acquisition2,50462.0,0.127563476562,0.119934082031,0.713684082031,0.67822265625,-11.75,9.25,-3.9375,-0.92,3.05,10.49
1542214798230680942,280,0,/imu_data_acquisition2,50471.0,0.126281738281,0.119812011719,0.713684082031,0.678527832031,-9.9375,11.375,-4.375,0.48,3.31,9.46
1542214798233366012,281,0,/imu_data_acquisition2,50481.0,0.123718261719,0.119934082031,0.713623046875,0.679016113281,-9.6875,10.125,-3.875,0.03,3.36,9.0
1542214798245533943,282,0,/imu_data_acquisition2,50492.0,0.122375488281,0.1201171875,0.713623046875,0.679260253906,-10.25,12.375,-4.3125,-0.19,3.2,9.39
1542214798257128000,283,0,/imu_data_acquisition2,50502.0,0.121215820312,0.120300292969,0.713562011719,0.679443359375,-7.5625,10.75,-4.1875,-0.34,3.25,10.22
1542214798263165950,284,0,/imu_data_acquisition2,50511.0,0.121215820312,0.120300292969,0.713562011719,0.679443359375,-5.0,7.3125,-3.5625,-0.12,3.44,9.72
1542214798274122953,285,0,/imu_data_acquisition2,50521.0,0.120361328125,0.120483398438,0.713439941406,0.6796875,-4.5625,7.5625,-3.375,-0.36,2.93,9.67
1542214798289266109,286,0,/imu_data_acquisition2,50532.0,0.118957519531,0.120849609375,0.713317871094,0.679992675781,-3.75,6.375,-2.9375,-0.37,2.91,9.67
1542214798293557882,287,0,/imu_data_acquisition2,50541.0,0.118957519531,0.120849609375,0.713317871094,0.679992675781,-2.625,4.8125,-2.375,-0.29,3.14,9.79
1542214798304786920,288,0,/imu_data_acquisition2,50552.0,0.118469238281,0.120971679688,0.713256835938,0.680114746094,-2.1875,3.5625,-1.9375,-0.5,3.33,9.8
1542214798320414066,289,0,/imu_data_acquisition2,50561.0,0.1181640625,-6.103515625e-05,-6.103515625e-05,0.680236816406,-2.1875,3.5625,-1.9375,-0.77,2.84,9.62
1542214798323312997,290,0,/imu_data_acquisition2,50571.0,0.117858886719,0.12109375,0.713134765625,0.680297851562,-1.5,1.4375,-2.1875,-0.57,3.16,-0.01
1542214798334763050,291,0,/imu_data_acquisition2,50582.0,0.11767578125,0.12109375,0.713073730469,0.680480957031,-1.0625,-0.6875,-0.875,0.16,2.83,9.17
1542214798351103067,292,0,/imu_data_acquisition2,50592.0,0.11767578125,0.121032714844,0.713012695312,0.680541992188,0.3125,-0.875,0.0,-0.59,3.23,9.37
1542214798353765010,293,0,/imu_data_acquisition2,50602.0,0.11767578125,0.120971679688,0.713012695312,0.680541992188,2.0,-0.3125,-0.375,-0.18,3.02,9.78
1542214798364667892,294,0,/imu_data_acquisition2,50612.0,0.117797851562,0.12109375,0.713012695312,0.680541992188,2.9375,-0.5625,-0.125,0.04,3.06,9.4
1542214798382033109,295,0,/imu_data_acquisition2,50622.0,0.118286132812,0.12158203125,0.712890625,0.680419921875,4.6875,-0.375,-0.25,-0.68,3.28,9.42
1542214798384370088,296,0,/imu_data_acquisition2,50632.0,0.11865234375,0.121948242188,0.712829589844,0.680419921875,6.5,-0.125,-0.625,-0.02,2.98,9.45
1542214798397475004,297,0,/imu_data_acquisition2,50644.0,0.11865234375,0.122253417969,0.712768554688,0.680419921875,6.5625,-0.25,-0.0625,-0.23,2.79,9.43
1542214798411377906,298,0,/imu_data_acquisition2,50655.0,0.11865234375,0.122802734375,0.712646484375,0.680419921875,9.5625,0.625,-0.5,-0.37,2.88,9.56
1542214798413877010,299,0,/imu_data_acquisition2,50662.0,0.119079589844,0.123474121094,0.712585449219,0.680297851562,9.8125,1.5,-0.3125,-0.41,2.89,9.81
1542214798426354885,300,0,/imu_data_acquisition2,50673.0,0.11962890625,0.124206542969,0.712524414062,0.68017578125,10.625,1.625,-0.25,-0.09,3.38,9.59
1542214798440551042,301,0,/imu_data_acquisition2,50684.0,0.1201171875,0.124938964844,0.71240234375,0.680053710938,10.625,1.6875,-0.3125,-0.28,3.08,9.42
1542214798446415901,302,0,/imu_data_acquisition2,50692.0,0.1201171875,0.124938964844,0.71240234375,0.680053710938,11.125,1.5625,-0.1875,0.1,3.7,9.42
1542214798458746910,303,0,/imu_data_acquisition2,50705.0,0.121215820312,0.12646484375,0.712219238281,0.679748535156,11.25,2.0,-0.25,-0.34,3.22,9.43
1542214798466058969,304,0,/imu_data_acquisition2,50714.0,0.121643066406,0.127319335938,0.712097167969,0.6796875,10.8125,3.1875,-0.75,-0.23,3.68,9.58
1542214798475661993,305,0,/imu_data_acquisition2,50722.0,0.121643066406,0.127319335938,0.712097167969,0.6796875,11.375,3.25,-1.0625,-0.13,3.34,9.51
1542214798486421108,306,0,/imu_data_acquisition2,50732.0,0.122436523438,0.129028320312,0.711853027344,0.679443359375,10.0,3.9375,-0.5625,0.14,3.38,9.46
1542214798495810985,307,0,/imu_data_acquisition2,50743.0,0.122680664062,0.129943847656,0.711791992188,0.679260253906,10.125,5.125,-0.5625,0.09,3.36,9.16
1542214798507556915,308,0,/imu_data_acquisition2,50755.0,0.122741699219,0.130920410156,0.711791992188,0.679077148438,8.8125,7.8125,-0.4375,0.15,3.0,9.55
1542214798518558025,309,0,/imu_data_acquisition2,50763.0,0.12255859375,0.132080078125,0.711669921875,0.679016113281,8.8125,10.5,-2.0625,-0.62,3.62,8.19
1542214798523904085,310,0,/imu_data_acquisition2,50772.0,0.12255859375,0.132080078125,0.711669921875,0.679016113281,10.0625,13.875,-5.5,-0.04,3.96,9.01
1542214798536995887,311,0,/imu_data_acquisition2,50785.0,0.121276855469,0.135192871094,0.711120605469,0.67919921875,6.25,21.0625,-7.4375,0.88,3.64,8.86
1542214798547228097,312,0,/imu_data_acquisition2,50795.0,0.1201171875,0.137390136719,0.710632324219,0.679504394531,9.0625,25.875,-11.125,0.59,4.44,9.64
1542214798564698934,313,0,/imu_data_acquisition2,50802.0,0.1201171875,0.137390136719,0.710632324219,0.679504394531,11.6875,29.5,-15.75,1.67,3.15,8.34
1542214798567282915,314,0,/imu_data_acquisition2,50814.0,0.116577148438,0.14306640625,0.709045410156,0.680603027344,8.5625,41.6875,-20.25,0.73,3.23,7.36
1542214798576493978,315,0,/imu_data_acquisition2,50824.0,0.113037109375,0.147521972656,0.707946777344,0.681396484375,10.125,62.75,-27.3125,1.66,2.37,7.17
1542214798586623907,316,0,/imu_data_acquisition2,50834.0,0.113037109375,0.147521972656,0.707946777344,0.681396484375,10.625,89.8125,-31.25,1.79,4.0,7.84
1542214798597088098,317,0,/imu_data_acquisition2,50843.0,0.10791015625,0.153625488281,0.706848144531,0.682006835938,10.9375,119.75,-34.1875,1.3,3.28,9.57
1542214798605675935,318,0,/imu_data_acquisition2,50853.0,0.100952148438,0.161499023438,0.705749511719,0.682373046875,12.25,142.25,-38.625,-2.25,5.62,12.3
1542214798616137027,319,0,/imu_data_acquisition2,50862.0,0.0926513671875,0.170715332031,0.704528808594,0.682556152344,12.25,142.25,-38.625,-1.5,2.18,13.13
1542214798624138116,320,0,/imu_data_acquisition2,50871.0,0.0821533203125,0.180114746094,0.703369140625,0.682678222656,-4.125,161.3125,-41.875,0.1,1.15,12.42
1542214798635246992,321,0,/imu_data_acquisition2,50883.0,0.0706787109375,0.18798828125,0.7021484375,0.68310546875,-4.1875,159.6875,-60.0,-0.61,2.33,11.89
1542214798646213054,322,0,/imu_data_acquisition2,50893.0,0.0599975585938,0.197265625,0.699645996094,0.68408203125,17.25,175.625,-65.5625,3.85,4.98,11.25
1542214798655565023,323,0,/imu_data_acquisition2,50902.0,0.0494995117188,0.208740234375,0.696350097656,0.684875488281,48.25,214.9375,-72.4375,2.12,3.33,11.66
1542214798664661884,324,0,/imu_data_acquisition2,50912.0,0.0383911132812,0.224304199219,0.692077636719,0.684997558594,48.25,214.9375,-72.4375,3.66,2.88,14.11
1542214798675421953,325,0,/imu_data_acquisition2,50922.0,0.0245971679688,0.243713378906,0.686645507812,0.684509277344,62.5625,269.1875,-85.5,3.66,2.88,14.11
1542214798685141086,326,0,/imu_data_acquisition2,50932.0,0.009033203125,0.268615722656,0.678039550781,0.684143066406,170.0625,381.9375,-183.4375,-1.26,-0.01,-0.01
1542214798698405027,327,0,/imu_data_acquisition2,50946.0,-0.0230712890625,0.334411621094,0.644470214844,0.687255859375,205.8125,396.125,-222.1875,-6.65,10.55,30.24
1542214798705842971,328,0,/imu_data_acquisition2,50953.0,-0.0230712890625,0.334411621094,0.644470214844,0.687255859375,215.3125,312.875,-235.5625,0.89,11.28,24.49
1542214798713614940,329,0,/imu_data_acquisition2,50961.0,-0.0341796875,0.363586425781,0.623657226562,0.691162109375,215.3125,312.875,-235.5625,0.89,11.28,24.49
1542214798724631071,330,0,/imu_data_acquisition2,50972.0,-0.0445556640625,0.382873535156,0.604248046875,0.697326660156,143.875,216.25,-240.875,-8.1,6.15,35.53
1542214798736188888,331,0,/imu_data_acquisition2,50983.0,-0.0527954101562,0.388671875,0.589050292969,0.70654296875,-42.0,-6.875,-211.9375,11.7,-0.73,7.99
1542214798745230913,332,0,/imu_data_acquisition2,50992.0,-0.0618896484375,0.385131835938,0.577697753906,0.716979980469,-117.6875,-45.875,-14.875,5.12,1.21,7.91
1542214798755784034,333,0,/imu_data_acquisition2,51003.0,-0.073486328125,0.375427246094,0.569152832031,0.727844238281,-121.4375,-51.125,-229.5,5.84,5.57,7.23
1542214798766108989,334,0,/imu_data_acquisition2,51011.0,-0.00762939453125,-6.103515625e-05,-6.103515625e-05,0.739562988281,-121.4375,-51.125,-229.5,5.84,5.57,7.23
1542214798773917913,335,0,/imu_data_acquisition2,51021.0,-0.0969848632812,0.353210449219,0.548034667969,0.751953125,-115.9375,-70.8125,-239.0625,5.25,6.09,6.86
1542214798785868883,336,0,/imu_data_acquisition2,51033.0,-0.107360839844,0.340881347656,0.537536621094,0.763793945312,-106.0,-90.3125,-207.875,5.16,10.65,3.39
1542214798796972990,337,0,/imu_data_acquisition2,51043.0,-0.116027832031,0.328247070312,0.52783203125,0.774658203125,-111.0,-98.0,-174.0,5.48,11.06,2.51
1542214798806185960,338,0,/imu_data_acquisition2,51053.0,-0.123779296875,0.315124511719,0.520385742188,0.783935546875,-113.5625,-104.3125,-134.6875,5.79,10.05,2.4
1542214798815926074,339,0,/imu_data_acquisition2,51063.0,-0.0052490234375,-6.103515625e-05,-6.103515625e-05,0.791320800781,-113.5625,-104.3125,-134.6875,5.36,9.11,3.75
1542214798822858095,340,0,/imu_data_acquisition2,51070.0,-0.135375976562,0.288452148438,0.51318359375,0.796936035156,-112.5,-109.8125,-94.9375,5.36,9.11,3.75
1542214798835805892,341,0,/imu_data_acquisition2,51083.0,-0.138244628906,0.275817871094,-6.103515625e-05,0.801208496094,-61.875,-129.5,-30.4375,3.28,8.41,10.39
1542214798847166061,342,0,/imu_data_acquisition2,51094.0,-0.0125122070312,-6.103515625e-05,-6.103515625e-05,0.804748535156,-18.75,-153.0625,-2.5625,2.55,8.75,11.31
1542214798856789112,343,0,/imu_data_acquisition2,51103.0,-6.103515625e-05,-6.103515625e-05,-6.103515625e-05,0.807983398438,-18.75,-153.0625,-2.5625,2.55,9.04,10.36
1542214798865236043,344,0,/imu_data_acquisition2,51112.0,-0.122009277344,0.241455078125,0.518798828125,0.810974121094,23.5625,-183.9375,25.8125,2.31,9.09,9.23
1542214798876068115,345,0,/imu_data_acquisition2,51122.0,-0.10791015625,0.230041503906,0.523498535156,0.813293457031,55.0625,-209.625,54.5625,2.31,9.09,9.23
1542214798885119915,346,0,/imu_data_acquisition2,51133.0,-0.091552734375,0.218444824219,0.52978515625,0.814392089844,70.25,-224.5,83.125,1.08,6.59,8.11
1542214798898228883,347,0,/imu_data_acquisition2,51146.0,-0.0563354492188,0.194580078125,0.546691894531,0.8125,71.5625,-233.125,130.875,0.74,5.4,8.93
1542214798906939029,348,0,/imu_data_acquisition2,51153.0,-0.0563354492188,0.194580078125,0.546691894531,0.8125,71.5625,-233.125,130.875,0.28,4.12,11.22
1542214798913670063,349,0,/imu_data_acquisition2,51161.0,-0.0379638671875,0.182556152344,0.556396484375,0.809692382812,74.75,-234.625,145.875,0.28,4.12,11.22
1542214798925067901,350,0,/imu_data_acquisition2,51172.0,-0.0186767578125,0.170593261719,0.56640625,0.806030273438,82.75,-238.125,156.5625,0.25,3.8,12.04
1542214798936146020,351,0,/imu_data_acquisition2,51183.0,0.00140380859375,0.158630371094,0.576416015625,0.801574707031,90.5625,-0.0625,-0.0625,0.06,4.73,15.47
1542214798945447921,352,0,/imu_data_acquisition2,51193.0,0.0220947265625,0.146667480469,0.586181640625,0.796447753906,96.375,-244.875,166.9375,-0.18,5.62,16.92
1542214798956096887,353,0,/imu_data_acquisition2,51204.0,0.0430297851562,0.134582519531,0.595764160156,0.790649414062,98.1875,-246.375,170.1875,-0.32,6.76,17.99
1542214798964410066,354,0,/imu_data_acquisition2,51212.0,0.0637817382812,0.122131347656,0.605285644531,0.783996582031,94.375,-248.0625,175.4375,-0.32,6.76,17.99
1542214798974124908,355,0,/imu_data_acquisition2,51222.0,0.0838012695312,0.108764648438,0.615051269531,0.776428222656,82.0625,-249.1875,183.9375,-1.01,9.32,20.24
1542214798986090898,356,0,/imu_data_acquisition2,51233.0,0.102355957031,0.0942993164062,0.625366210938,0.767822265625,60.25,-247.0625,195.875,-2.91,10.82,23.53
1542214798997260093,357,0,/imu_data_acquisition2,51243.0,0.118835449219,0.0783081054688,0.636474609375,0.758056640625,30.875,-242.375,210.6875,-4.39,10.4,25.13
1542214799006021976,358,0,/imu_data_acquisition2,51253.0,0.1328125,0.0609130859375,0.648315429688,0.747253417969,-1.4375,-234.9375,225.625,-8.72,9.45,28.76
1542214799014676094,359,0,/imu_data_acquisition2,51261.0,0.14453125,0.04248046875,0.660461425781,0.735595703125,-28.0,-225.5625,234.6875,-8.72,9.45,28.76
1542214799024096012,360,0,/imu_data_acquisition2,51271.0,0.155334472656,0.0249633789062,0.671752929688,0.723876953125,-28.5,-212.3125,225.4375,-11.81,7.98,30.74
1542214799035466909,361,0,/imu_data_acquisition2,51283.0,0.166076660156,0.00738525390625,0.6826171875,0.711608886719,-28.5,-212.3125,225.4375,-15.61,2.42,19.75
1542214799047571897,362,0,/imu_data_acquisition2,51294.0,0.180297851562,-0.00860595703125,0.692260742188,0.69873046875,90.0625,-243.5,200.5,-14.87,4.12,12.17
1542214799058684110,363,0,/imu_data_acquisition2,51304.0,0.199645996094,-0.020751953125,0.700134277344,0.685180664062,90.0625,-243.5,200.5,-14.36,3.17,5.19
1542214799064868927,364,0,/imu_data_acquisition2,51312.0,0.217102050781,-0.0271606445312,0.707275390625,0.672241210938,120.6875,-183.1875,176.25,-14.36,3.17,5.19
1542214799075439929,365,0,/imu_data_acquisition2,51322.0,0.231689453125,-0.0340576171875,0.712707519531,0.661193847656,88.8125,-166.1875,148.6875,-26.7,-10.45,7.93
1542214799092397928,366,0,/imu_data_acquisition2,51333.0,0.248657226562,-0.0364990234375,0.715270996094,0.652038574219,138.0625,-15.25,-0.0625,-30.97,-15.43,5.58
1542214799097563028,367,0,/imu_data_acquisition2,51345.0,0.270080566406,-0.0325317382812,0.71484375,0.644165039062,249.875,-120.4375,-2.375,-27.02,-7.23,-9.04
1542214799114104986,368,0,/imu_data_acquisition2,51356.0,0.290893554688,-0.02392578125,0.712463378906,0.638122558594,218.5625,-50.25,-32.6875,-21.03,-3.38,-8.87
1542214799115782022,369,0,/imu_data_acquisition2,51361.0,0.305725097656,-0.0126953125,0.709777832031,0.634460449219,218.5625,-50.25,-32.6875,-21.03,-3.38,-8.87
1542214799127096891,370,0,/imu_data_acquisition2,51374.0,0.31201171875,-0.002197265625,0.706909179688,0.634765625,133.8125,15.5625,-62.5,-11.09,4.74,-1.01
1542214799139969110,371,0,/imu_data_acquisition2,51386.0,0.308044433594,0.00506591796875,0.704772949219,0.639099121094,-104.625,116.8125,-77.1875,-7.38,7.0,10.66
1542214799147087097,372,0,/imu_data_acquisition2,51394.0,0.295349121094,0.00714111328125,0.70361328125,0.646301269531,-104.625,116.8125,-77.1875,-6.31,0.8,15.77
1542214799156394004,373,0,/imu_data_acquisition2,51404.0,0.277954101562,0.0048828125,0.702880859375,0.65478515625,-181.5625,124.25,-69.6875,6.14,7.29,19.7
1542214799164587974,374,0,/imu_data_acquisition2,51411.0,0.261352539062,0.00299072265625,0.701110839844,0.663391113281,-172.0625,117.375,-80.1875,6.14,7.29,19.7
1542214799173594951,375,0,/imu_data_acquisition2,51421.0,0.245666503906,0.0013427734375,0.699523925781,0.671020507812,-160.9375,112.1875,-71.25,16.03,9.94,14.03
1542214799186297893,376,0,/imu_data_acquisition2,51433.0,0.229919433594,0.002197265625,0.698913574219,0.67724609375,-136.0,134.8125,-59.4375,6.39,-2.61,4.48
1542214799197269916,377,0,/imu_data_acquisition2,51444.0,0.216918945312,0.00927734375,-6.103515625e-05,0.68212890625,-58.75,162.875,-64.875,0.61,3.31,7.22
1542214799206280946,378,0,/imu_data_acquisition2,51454.0,0.203979492188,0.0194702148438,-6.103515625e-05,0.685424804688,-29.25,189.9375,-51.0625,2.45,1.02,19.03
1542214799215259075,379,0,/imu_data_acquisition2,51462.0,0.190673828125,0.0304565429688,0.699645996094,0.687927246094,-22.9375,200.9375,-43.1875,2.45,1.02,19.03
1542214799223072052,380,0,/imu_data_acquisition2,51470.0,0.177917480469,0.0424194335938,0.699645996094,0.690673828125,-11.0625,202.25,-54.0625,-2.13,1.36,20.07
1542214799235807895,381,0,/imu_data_acquisition2,51483.0,0.164978027344,0.0529174804688,0.699035644531,0.693786621094,-25.1875,190.3125,-59.5,-4.21,-0.06,18.13
1542214799246951103,382,0,/imu_data_acquisition2,51494.0,0.153381347656,0.0631103515625,0.697937011719,0.696655273438,-15.75,175.5,-59.5,1.59,8.75,19.82
1542214799257750988,383,0,/imu_data_acquisition2,51504.0,0.143005371094,0.07421875,0.696899414062,0.698852539062,2.75,174.0625,-55.25,0.06,17.09,31.39
1542214799265929937,384,0,/imu_data_acquisition2,51512.0,0.132507324219,0.0850219726562,0.697326660156,0.699279785156,1.5,175.75,-27.0,0.06,17.09,31.39
1542214799277194023,385,0,/imu_data_acquisition2,51521.0,0.124816894531,0.0888061523438,0.698669433594,0.698852539062,-33.3125,97.9375,1.0,3.95,1.32,8.43
1542214799285545110,386,0,/imu_data_acquisition2,51533.0,0.119262695312,0.0917358398438,0.699645996094,0.698486328125,-22.0,72.0,0.875,2.7,-1.11,11.85
1542214799296791076,387,0,/imu_data_acquisition2,51544.0,0.115417480469,0.0968017578125,0.699340820312,0.69873046875,10.375,72.9375,-15.625,0.99,3.41,9.02
1542214799307287931,388,0,/imu_data_acquisition2,51554.0,0.114135742188,0.100341796875,0.698791503906,0.698974609375,18.3125,38.9375,-13.25,0.99,3.41,9.02
1542214799313756942,389,0,/imu_data_acquisition2,51561.0,0.113037109375,0.103332519531,0.698486328125,0.699035644531,16.1875,33.1875,-8.4375,0.82,2.66,10.84
1542214799324451923,390,0,/imu_data_acquisition2,51572.0,0.112365722656,0.105773925781,0.6982421875,0.699035644531,15.125,25.5625,-6.125,-0.28,2.42,10.94
1542214799335513114,391,0,/imu_data_acquisition2,51582.0,0.112060546875,0.107727050781,0.697998046875,0.699035644531,13.625,18.1875,-4.3125,1.41,3.26,8.72
1542214799346654891,392,0,/imu_data_acquisition2,51594.0,0.112060546875,0.109802246094,0.697692871094,0.699035644531,17.75,16.875,-5.5625,0.18,3.52,9.29
1542214799357516050,393,0,/imu_data_acquisition2,51605.0,0.112182617188,0.111938476562,0.697204589844,0.699157714844,19.125,15.5,-7.4375,0.5,3.66,10.06
1542214799366961956,394,0,/imu_data_acquisition2,51611.0,0.1123046875,0.11376953125,0.696716308594,0.699279785156,16.75,13.3125,-7.625,0.5,3.66,10.06
1542214799373451948,395,0,/imu_data_acquisition2,51621.0,0.112121582031,0.115417480469,0.6962890625,0.699462890625,12.125,14.1875,-7.625,-0.31,2.97,10.4
1542214799386702060,396,0,/imu_data_acquisition2,51632.0,0.112182617188,0.116943359375,0.695739746094,0.699768066406,13.25,10.875,-9.0,1.56,4.12,-0.01
1542214799396879911,397,0,/imu_data_acquisition2,51644.0,0.111877441406,0.118225097656,0.6953125,0.700012207031,8.0625,12.375,-7.75,0.29,2.76,9.71
1542214799406488895,398,0,/imu_data_acquisition2,51654.0,0.111572265625,0.118835449219,0.695068359375,0.7001953125,2.625,7.5,-4.4375,0.29,2.76,9.71
1542214799412869930,399,0,/imu_data_acquisition2,51660.0,0.111267089844,0.11962890625,0.694885253906,0.700317382812,4.1875,8.4375,-4.4375,-0.06,3.23,9.79
1542214799425353050,400,0,/imu_data_acquisition2,51672.0,0.111022949219,0.120178222656,0.694702148438,0.700439453125,2.4375,5.8125,-2.9375,0.24,2.82,10.11
1542214799435086965,401,0,/imu_data_acquisition2,51682.0,0.110717773438,0.120544433594,0.694580078125,0.700561523438,0.9375,5.375,-0.0625,-1.07,-0.01,-0.01
1542214799448357105,402,0,/imu_data_acquisition2,51694.0,0.110168457031,0.12109375,0.694458007812,0.70068359375,0.125,-0.0625,-0.0625,0.58,3.9,9.83
1542214799457592010,403,0,/imu_data_acquisition2,51705.0,0.109802246094,0.121643066406,0.694213867188,0.700866699219,1.25,6.4375,-5.0,0.06,3.25,9.79
1542214799465583086,404,0,/imu_data_acquisition2,51712.0,0.109558105469,0.1220703125,0.693908691406,0.701110839844,1.75,5.875,-5.0625,0.0,3.3,9.92
1542214799472779035,405,0,/imu_data_acquisition2,51720.0,0.109375,0.122497558594,0.693725585938,0.701293945312,1.6875,4.625,-3.75,0.11,2.89,9.65
1542214799485358953,406,0,/imu_data_acquisition2,51732.0,0.109252929688,0.122802734375,0.693603515625,0.701354980469,1.75,3.5625,-2.6875,-0.27,2.93,9.84
1542214799498128890,407,0,/imu_data_acquisition2,51744.0,0.109130859375,0.123107910156,0.693481445312,0.701416015625,1.875,3.0625,-1.5625,0.2,2.91,9.5
1542214799504340887,408,0,/imu_data_acquisition2,51752.0,-6.103515625e-05,-6.103515625e-05,-6.103515625e-05,0.701416015625,1.375,3.625,-1.125,-0.04,3.39,9.58
1542214799514364957,409,0,/imu_data_acquisition2,51761.0,0.10888671875,0.123840332031,0.693359375,0.701477050781,2.4375,3.8125,-2.0,-0.08,3.05,9.28
1542214799524509906,410,0,/imu_data_acquisition2,51771.0,0.108215332031,0.124633789062,0.695983886719,0.698852539062,1.9375,4.5,-2.125,0.13,3.22,9.73
1542214799533067941,411,0,/imu_data_acquisition2,51781.0,0.107849121094,0.125244140625,0.695861816406,0.698913574219,1.8125,7.4375,-0.0625,-0.57,3.31,9.84
1542214799545984983,412,0,/imu_data_acquisition2,51793.0,0.107727050781,0.125732421875,0.695739746094,0.698974609375,2.9375,5.0,-2.625,0.11,3.23,9.27
1542214799558005094,413,0,/imu_data_acquisition2,51804.0,0.107604980469,0.126220703125,0.695617675781,0.699035644531,3.1875,4.375,-2.3125,0.02,3.32,9.55
1542214799563947916,414,0,/imu_data_acquisition2,51811.0,0.107543945312,0.126525878906,0.695495605469,0.699035644531,2.6875,4.375,-1.875,0.01,3.1,9.45
1542214799580301046,415,0,/imu_data_acquisition2,51826.0,0.10693359375,0.127502441406,0.698608398438,0.695922851562,4.3125,5.3125,-2.1875,0.24,3.24,9.58
1542214799587301015,416,0,/imu_data_acquisition2,51832.0,0.107055664062,0.127868652344,0.698486328125,0.695922851562,5.0625,4.625,-2.25,0.24,3.24,9.58
1542214799595768928,417,0,/imu_data_acquisition2,51843.0,0.107116699219,0.128112792969,0.698425292969,0.695983886719,4.5625,4.0625,-1.8125,0.0,2.97,-0.01
1542214799606573104,418,0,/imu_data_acquisition2,51853.0,0.107299804688,0.128295898438,0.698303222656,0.695983886719,5.75,4.125,-2.0,0.34,3.14,9.79
1542214799614134073,419,0,/imu_data_acquisition2,51861.0,0.107543945312,0.128540039062,0.6982421875,0.695922851562,5.625,3.75,-1.375,0.01,3.17,9.57
1542214799625519037,420,0,/imu_data_acquisition2,51873.0,0.107299804688,0.129211425781,0.699829101562,0.694274902344,6.0,4.4375,-1.125,-0.24,3.07,9.54
1542214799636107921,421,0,/imu_data_acquisition2,51882.0,0.107421875,0.1298828125,0.699768066406,0.694152832031,6.875,4.8125,-0.6875,-0.2,3.35,9.57
1542214799648616075,422,0,/imu_data_acquisition2,51895.0,0.107482910156,0.130554199219,0.69970703125,0.694091796875,6.3125,5.5625,-0.75,-0.06,3.09,9.56
1542214799657501935,423,0,/imu_data_acquisition2,51905.0,0.107604980469,0.13134765625,0.699645996094,0.694030761719,7.875,5.5,-0.9375,0.06,3.46,9.49
1542214799665393114,424,0,/imu_data_acquisition2,51912.0,0.107727050781,0.132080078125,0.699523925781,0.693969726562,7.5,4.875,-0.8125,-0.39,3.33,9.72
1542214799677062034,425,0,/imu_data_acquisition2,51923.0,0.107666015625,0.1328125,0.700378417969,0.692993164062,5.5,4.3125,-0.0625,-0.2,3.6,9.44
1542214799685730934,426,0,/imu_data_acquisition2,51933.0,0.107604980469,0.132751464844,0.700500488281,0.69287109375,1.5,3.4375,1.0,0.29,2.73,9.58
1542214799695902109,427,0,/imu_data_acquisition2,51942.0,0.107788085938,0.13330078125,0.700500488281,0.692749023438,6.5,3.3125,-0.4375,-0.41,3.38,9.26
1542214799705183982,428,0,/imu_data_acquisition2,51952.0,0.10791015625,0.133728027344,0.700500488281,0.692687988281,5.9375,3.875,-0.375,-0.15,3.12,9.47
1542214799714427947,429,0,/imu_data_acquisition2,51962.0,0.108093261719,0.13427734375,0.700439453125,0.692626953125,6.4375,3.8125,-0.8125,-0.26,3.31,9.75
1542214799725877046,430,0,/imu_data_acquisition2,51972.0,0.107788085938,0.134643554688,0.701782226562,0.691223144531,5.375,3.5,-0.0625,-0.12,2.66,9.59
1542214799735454082,431,0,/imu_data_acquisition2,51982.0,0.107971191406,0.13525390625,0.70166015625,0.691162109375,8.3125,3.5625,-0.75,-0.27,3.42,9.72
1542214799745193958,432,0,/imu_data_acquisition2,51992.0,0.108215332031,0.1357421875,0.70166015625,0.691040039062,7.1875,3.1875,0.3125,-0.35,3.28,9.32
1542214799754976987,433,0,/imu_data_acquisition2,52001.0,0.108459472656,0.136352539062,0.701599121094,0.690979003906,7.1875,2.75,0.125,-0.45,3.64,9.82
1542214799765651941,434,0,/imu_data_acquisition2,52012.0,0.108764648438,0.136901855469,0.701538085938,0.690856933594,7.125,1.8125,-0.125,-0.31,3.75,9.57
1542214799774107933,435,0,/imu_data_acquisition2,52021.0,0.109008789062,0.137329101562,0.701721191406,0.690490722656,5.9375,1.125,0.5,-0.29,3.71,9.56
1542214799785161018,436,0,/imu_data_acquisition2,52032.0,0.109191894531,0.137634277344,0.701782226562,0.6904296875,4.0,0.75,1.1875,-0.07,3.35,9.58
1542214799793426036,437,0,/imu_data_acquisition2,52041.0,0.109375,0.137878417969,0.701843261719,0.690246582031,3.375,0.875,1.5,0.29,3.16,9.2
1542214799805565118,438,0,/imu_data_acquisition2,52053.0,0.109313964844,0.138244628906,0.701843261719,0.690185546875,3.25,3.5625,0.4375,-0.15,2.58,9.43
1542214799814157962,439,0,/imu_data_acquisition2,52061.0,0.109069824219,0.139038085938,0.701721191406,0.690185546875,4.0625,8.3125,-2.4375,-0.07,3.61,7.41
1542214799825022935,440,0,/imu_data_acquisition2,52072.0,0.108154296875,0.140197753906,0.701477050781,0.690307617188,3.25,16.625,-5.8125,-0.36,2.49,8.41
1542214799834969043,441,0,/imu_data_acquisition2,52082.0,0.10693359375,0.142028808594,0.701110839844,0.690490722656,5.125,24.375,-8.6875,0.67,3.03,11.78
1542214799843125104,442,0,/imu_data_acquisition2,52091.0,0.105712890625,0.14404296875,0.70068359375,0.690734863281,6.875,25.3125,-10.5,0.04,4.88,10.83
1542214799855700016,443,0,/imu_data_acquisition2,52102.0,0.104187011719,0.146240234375,0.700073242188,0.691162109375,6.5,29.1875,-13.625,1.12,3.31,7.83
1542214799866313934,444,0,/imu_data_acquisition2,52112.0,0.101623535156,0.149291992188,0.699279785156,0.691650390625,5.1875,44.5625,-18.375,0.11,2.64,8.17
1542214799873147964,445,0,/imu_data_acquisition2,52121.0,0.0977172851562,0.153686523438,0.698425292969,0.692138671875,5.375,66.25,-23.5625,1.84,2.44,7.03
1542214799887187957,446,0,/imu_data_acquisition2,52132.0,0.0926513671875,0.159729003906,0.697387695312,0.692504882812,9.4375,89.25,-27.625,2.5,3.44,7.21
1542214799896840095,447,0,/imu_data_acquisition2,52143.0,-6.103515625e-05,-6.103515625e-05,-6.103515625e-05,0.692687988281,10.1875,117.1875,-31.8125,1.36,3.69,8.97
1542214799902956008,448,0,/imu_data_acquisition2,52150.0,0.0781860351562,0.176574707031,0.694702148438,0.692932128906,15.5625,136.9375,-39.3125,0.61,6.78,10.45
1542214799917140960,449,0,/imu_data_acquisition2,52162.0,0.0681762695312,0.185546875,0.693298339844,0.693054199219,-6.0625,154.375,-41.6875,-1.24,2.83,12.32
1542214799924895048,450,0,/imu_data_acquisition2,52172.0,0.05712890625,0.193542480469,0.691467285156,0.693664550781,-21.5625,153.625,-51.125,-0.45,1.19,12.69
1542214799934524059,451,0,/imu_data_acquisition2,52181.0,0.0460205078125,0.202758789062,0.688232421875,0.695068359375,-9.25,160.5625,-69.5,-0.56,1.47,11.64
1542214799944701910,452,0,/imu_data_acquisition2,52192.0,0.0342407226562,0.213073730469,0.684387207031,0.696472167969,-4.6875,175.75,-77.0,1.72,2.82,-0.01
1542214799955476045,453,0,/imu_data_acquisition2,52202.0,0.0216064453125,0.226684570312,-6.103515625e-05,0.697265625,18.1875,210.8125,-82.0625,1.25,3.99,11.13
1542214799964014053,454,0,/imu_data_acquisition2,52211.0,0.0072021484375,0.243225097656,0.674743652344,0.69677734375,27.1875,252.3125,-80.1875,6.04,1.85,15.09
1542214799974215984,455,0,/imu_data_acquisition2,52222.0,-0.00762939453125,0.265380859375,0.667053222656,0.696105957031,77.4375,302.9375,-102.25,3.38,4.01,16.97
1542214799985414028,456,0,/imu_data_acquisition2,52231.0,-0.0242309570312,0.293518066406,0.654541015625,0.6962890625,124.0,363.875,-154.5,-0.08,5.25,18.42
1542214799992832899,457,0,/imu_data_acquisition2,52240.0,-0.04345703125,0.325439453125,0.637756347656,0.69677734375,147.9375,415.25,-199.75,-5.61,9.9,30.67
1542214800004319906,458,0,/imu_data_acquisition2,52252.0,-0.0597534179688,0.354736328125,0.618957519531,0.698181152344,160.125,369.5,-213.625,-0.38,5.44,23.03
1542214800015532970,459,0,/imu_data_acquisition2,52262.0,-0.07177734375,0.376770019531,0.599731445312,0.702331542969,145.625,266.125,-224.4375,7.05,8.88,18.02
1542214800022667884,460,0,/imu_data_acquisition2,52270.0,-0.080322265625,0.388305664062,0.582824707031,0.709289550781,92.5625,140.1875,-218.5625,2.97,10.03,31.07
1542214800034698009,461,0,/imu_data_acquisition2,52282.0,-0.0870361328125,0.388244628906,0.570129394531,0.718811035156,10.125,14.0,-202.75,1.99,7.92,25.37
1542214800045645952,462,0,/imu_data_acquisition2,52291.0,-0.0971069335938,0.378540039062,0.563720703125,0.727661132812,-112.9375,-48.1875,-170.625,11.27,-3.32,7.51
1542214800052721023,463,0,/imu_data_acquisition2,52300.0,-0.108093261719,0.368347167969,0.555541992188,0.737609863281,-114.5,-49.8125,-198.125,13.33,-0.01,-0.01
1542214800064526081,464,0,/imu_data_acquisition2,52312.0,-0.119079589844,0.357543945312,0.546203613281,0.748107910156,-112.75,-56.0,-212.75,6.96,5.17,3.93
1542214800075247049,465,0,/imu_data_acquisition2,52321.0,-0.128662109375,0.346740722656,0.536315917969,0.758666992188,-98.0625,-64.5,-211.1875,6.13,6.87,5.86
1542214800083169937,466,0,/imu_data_acquisition2,52330.0,-0.13623046875,0.336242675781,0.526733398438,0.768737792969,-79.75,-72.625,-197.4375,5.76,-0.01,-0.01
1542214800094508886,467,0,/imu_data_acquisition2,52342.0,-0.142211914062,0.325439453125,0.518981933594,0.777526855469,-76.5625,-83.875,-166.1875,6.17,11.74,3.95
1542214800104263067,468,0,/imu_data_acquisition2,52351.0,-0.14697265625,0.31396484375,0.514221191406,0.784484863281,-84.5,-94.8125,-124.1875,6.34,11.64,3.6
1542214800113024950,469,0,/imu_data_acquisition2,52361.0,-0.150451660156,0.302062988281,0.512573242188,0.78955078125,-89.9375,-105.5,-79.75,6.35,10.52,3.77
1542214800124160051,470,0,/imu_data_acquisition2,52371.0,-0.151733398438,0.290466308594,0.513305664062,0.793151855469,-78.5,-115.25,-40.375,5.71,9.03,4.77
1542214800134078025,471,0,/imu_data_acquisition2,52381.0,-0.149719238281,0.279418945312,0.515625,0.795959472656,-51.0625,-129.125,-8.25,4.43,6.86,-0.01
1542214800143310070,472,0,/imu_data_acquisition2,52391.0,-0.143737792969,0.269104003906,0.518920898438,0.798522949219,-12.5625,-148.375,17.0625,3.81,6.41,8.46
1542214800154300928,473,0,/imu_data_acquisition2,52401.0,-0.133422851562,0.259216308594,0.522888183594,0.801025390625,28.5,-171.5625,37.875,2.97,-0.01,-0.01
1542214800164349079,474,0,/imu_data_acquisition2,52411.0,-0.11962890625,0.249206542969,0.527648925781,0.80322265625,57.1875,-194.625,57.6875,2.41,7.32,9.38
1542214800173331022,475,0,/imu_data_acquisition2,52421.0,-0.103942871094,0.238586425781,0.533508300781,0.804748535156,67.75,-211.5,77.8125,1.99,6.93,9.03
1542214800184395074,476,0,/imu_data_acquisition2,52431.0,-0.0874633789062,0.227294921875,0.54052734375,0.805297851562,66.5625,-222.1875,96.125,1.61,6.04,9.01
1542214800193708896,477,0,/imu_data_acquisition2,52441.0,-0.0704345703125,0.21533203125,0.54833984375,0.804931640625,64.6875,-230.0625,110.375,0.78,4.14,10.36
1542214800203411102,478,0,/imu_data_acquisition2,52451.0,-0.0526123046875,0.202880859375,0.556579589844,0.803955078125,67.0625,-238.6875,120.0,0.56,3.47,11.15
1542214800214839935,479,0,/imu_data_acquisition2,52462.0,-0.0338134765625,0.190124511719,0.564758300781,0.802368164062,74.0625,-247.0,125.1875,0.43,3.11,11.8
1542214800223282098,480,0,/imu_data_acquisition2,52470.0,-0.0140380859375,0.177185058594,0.572570800781,0.800354003906,82.75,-253.375,127.25,0.35,2.92,11.93
1542214800233737945,481,0,/imu_data_acquisition2,52481.0,0.00628662109375,0.164428710938,0.579956054688,0.7978515625,90.375,-254.5625,127.125,0.2,3.1,11.81
1542214800244574069,482,0,/imu_data_acquisition2,52492.0,0.0266723632812,0.152282714844,0.586730957031,0.794860839844,96.125,-248.6875,125.1875,-0.1,3.75,12.57
1542214800252921104,483,0,/imu_data_acquisition2,52501.0,0.046630859375,0.140502929688,-6.103515625e-05,0.791320800781,95.875,-241.0,125.6875,-0.48,4.97,13.97
1542214800264183998,484,0,/imu_data_acquisition2,52512.0,0.0653686523438,0.128662109375,0.599914550781,0.786926269531,83.0,-231.5625,131.1875,-0.92,7.86,15.56
1542214800274636983,485,0,/imu_data_acquisition2,52522.0,0.0817260742188,0.116455078125,0.607360839844,0.781616210938,58.375,-216.125,141.5,-1.1,9.06,15.96
1542214800282898902,486,0,/imu_data_acquisition2,52530.0,0.0949096679688,0.104064941406,0.615783691406,0.775207519531,28.0625,-192.5,153.75,-1.52,10.0,16.69
1542214800294388055,487,0,/imu_data_acquisition2,52542.0,0.104797363281,0.0919799804688,0.625366210938,0.767761230469,-1.125,-163.5,168.0625,-4.76,9.79,20.93
1542214800305025100,488,0,/imu_data_acquisition2,52552.0,0.1123046875,0.0802612304688,0.635986328125,0.75927734375,-18.9375,-139.375,182.25,-7.28,9.33,23.85
1542214800313082933,489,0,/imu_data_acquisition2,52561.0,0.119323730469,0.0692749023438,0.647155761719,0.749755859375,-18.0,-127.625,193.5625,-9.69,8.3,25.17
1542214800324358940,490,0,/imu_data_acquisition2,52572.0,0.127563476562,0.0593872070312,0.658508300781,0.739318847656,2.75,-126.125,201.8125,-14.22,4.44,25.25
1542214800335225105,491,0,/imu_data_acquisition2,52582.0,0.138916015625,0.0518798828125,0.669250488281,0.728088378906,49.875,-130.4375,200.375,-16.0,5.43,23.6
1542214800342880964,492,0,/imu_data_acquisition2,52591.0,0.153381347656,0.04638671875,0.679138183594,0.71630859375,94.75,-138.6875,196.5625,-17.07,6.03,21.82
1542214800354401111,493,0,/imu_data_acquisition2,52602.0,0.170288085938,-6.103515625e-05,-6.103515625e-05,0.703796386719,129.125,-146.0625,195.9375,-18.46,7.11,21.04
1542214800365072965,494,0,/imu_data_acquisition2,52611.0,0.188354492188,0.0379028320312,0.697448730469,0.6904296875,136.5,-159.6875,202.25,-18.6,6.85,16.42
1542214800373446941,495,0,/imu_data_acquisition2,52621.0,0.205139160156,0.0303344726562,0.706237792969,0.676879882812,100.6875,-174.75,208.4375,-25.13,3.87,18.61
1542214800385294914,496,0,/imu_data_acquisition2,52632.0,0.221374511719,0.0184936523438,0.713623046875,0.664367675781,59.0,-207.8125,198.625,-26.91,-2.95,11.74
1542214800393891096,497,0,/imu_data_acquisition2,52641.0,0.238098144531,0.00726318359375,0.718994140625,0.652893066406,65.125,-213.125,172.0625,-27.12,-11.23,-0.87
1542214800404052019,498,0,/imu_data_acquisition2,52652.0,0.25390625,-0.00030517578125,0.72216796875,0.643432617188,84.5625,-183.8125,127.875,-24.98,-14.03,-12.47
1542214800415766000,499,0,/imu_data_acquisition2,52662.0,0.265808105469,-0.001953125,0.723327636719,0.637329101562,94.8125,-110.3125,65.875,-22.26,-13.84,-14.59
1542214800423012971,500,0,/imu_data_acquisition2,52671.0,0.272338867188,0.0025634765625,0.72265625,0.635314941406,94.0625,-24.0,-2.25,-17.14,-6.39,-6.64
1542214800434459924,501,0,/imu_data_acquisition2,52682.0,0.273132324219,0.0106201171875,0.720520019531,0.637329101562,68.875,46.4375,-59.1875,-14.8,-1.29,0.64
1542214800445713043,502,0,/imu_data_acquisition2,52692.0,0.268981933594,0.0188598632812,0.717224121094,0.642578125,22.1875,86.625,-96.75,-11.57,8.13,2.94
1542214800453140020,503,0,/imu_data_acquisition2,52701.0,0.258117675781,0.0231323242188,-6.103515625e-05,0.649291992188,-67.5,116.0625,-89.4375,8.12,-0.01,-0.01
1542214800465137004,504,0,/imu_data_acquisition2,52712.0,0.241333007812,0.021728515625,0.714538574219,0.656311035156,-162.0625,128.1875,-63.875,15.61,10.37,17.75
1542214800475415945,505,0,/imu_data_acquisition2,52721.0,0.224182128906,0.0224609375,0.714172363281,0.662719726562,-145.1875,148.1875,-63.4375,8.69,3.06,12.12
1542214800482779026,506,0,/imu_data_acquisition2,52730.0,0.211242675781,0.0279541015625,0.713806152344,0.667114257812,-66.5625,150.4375,-58.1875,-0.52,4.87,2.17
1542214800494587898,507,0,/imu_data_acquisition2,52741.0,0.199462890625,0.0392456054688,0.715087890625,0.668823242188,-2.4375,190.6875,-36.25,-1.21,5.72,5.51
1542214800504868030,508,0,/imu_data_acquisition2,52751.0,0.186096191406,0.0528564453125,0.716979980469,0.669738769531,6.875,225.375,-31.125,-0.34,-0.24,23.78
1542214800513159036,509,0,/imu_data_acquisition2,52761.0,0.171203613281,0.0645141601562,0.718017578125,0.671569824219,-24.375,220.0,-42.1875,-4.03,-4.45,28.97
1542214800524316072,510,0,/imu_data_acquisition2,52771.0,0.157653808594,0.0760498046875,0.717407226562,0.67431640625,-14.75,203.3125,-61.875,1.82,4.82,27.52
1542214800534893035,511,0,/imu_data_acquisition2,52781.0,0.1455078125,0.087158203125,0.7158203125,0.677368164062,-6.625,186.375,-70.25,-10.16,23.36,31.05
1542214800542963027,512,0,/imu_data_acquisition2,52791.0,0.135375976562,0.0971069335938,0.7158203125,0.678100585938,2.0,165.0625,-34.0,-4.89,11.09,14.12
1542214800554246902,513,0,/imu_data_acquisition2,52801.0,0.127685546875,0.0977783203125,0.717834472656,0.677429199219,-57.375,74.0625,-0.0625,-0.34,-1.89,17.91
1542214800565577983,514,0,/imu_data_acquisition2,52812.0,0.120056152344,0.101623535156,0.718872070312,0.677124023438,-29.5625,98.0625,-4.1875,-3.95,1.27,19.15
1542214800572921991,515,0,/imu_data_acquisition2,52821.0,0.116516113281,0.105163574219,0.71875,0.677307128906,1.5,58.0625,-11.6875,0.96,3.16,9.65
1542214800584573030,516,0,/imu_data_acquisition2,52831.0,0.114929199219,0.108154296875,0.718444824219,0.677490234375,13.125,37.0,-9.875,1.56,4.53,9.07
1542214800594402074,517,0,/imu_data_acquisition2,52841.0,0.113220214844,0.110900878906,0.71826171875,0.677490234375,9.6875,35.5625,-7.25,1.15,3.2,8.54
1542214800603303909,518,0,/imu_data_acquisition2,52851.0,0.112182617188,0.11328125,0.717956542969,0.677612304688,12.4375,28.0625,-7.9375,0.0,3.91,9.95
1542214800615066051,519,0,/imu_data_acquisition2,52862.0,0.111389160156,0.115234375,0.717651367188,0.677673339844,9.9375,21.4375,-6.5625,1.51,3.1,9.3
1542214800624305009,520,0,/imu_data_acquisition2,52871.0,0.111389160156,0.115234375,0.717651367188,0.677673339844,10.5,19.25,-7.0,0.0,3.54,9.13
1542214800633338928,521,0,/imu_data_acquisition2,52881.0,0.110534667969,0.118957519531,0.716857910156,0.678039550781,15.25,16.0625,-8.5625,-0.05,2.56,10.36
1542214800644690990,522,0,/imu_data_acquisition2,52892.0,0.110534667969,0.120727539062,0.716430664062,0.67822265625,15.1875,13.625,-7.4375,0.6,4.64,9.52
1542214800654165029,523,0,/imu_data_acquisition2,52901.0,0.110534667969,0.120727539062,0.716430664062,0.67822265625,9.125,14.0625,-6.3125,1.04,3.61,10.17
1542214800663837909,524,0,/imu_data_acquisition2,52911.0,0.10986328125,0.123291015625,0.715759277344,0.678527832031,7.75,10.75,-5.9375,-0.46,3.06,10.11
1542214800674534082,525,0,/imu_data_acquisition2,52921.0,0.10986328125,0.123291015625,0.715759277344,0.678527832031,4.8125,13.1875,-5.5625,-0.25,3.74,10.3
1542214800683974027,526,0,/imu_data_acquisition2,52931.0,0.109252929688,0.124389648438,0.715515136719,0.6787109375,0.875,8.0625,-2.125,0.58,2.8,9.9
1542214800693852901,527,0,/imu_data_acquisition2,52941.0,0.108337402344,0.125366210938,0.715393066406,0.678771972656,0.25,7.625,-2.0625,-0.38,2.85,9.79
1542214800704698085,528,0,/imu_data_acquisition2,52952.0,0.108337402344,0.125366210938,0.715393066406,0.678771972656,-3.375,10.625,-2.1875,0.33,4.2,9.68
1542214800714432954,529,0,/imu_data_acquisition2,52961.0,-6.103515625e-05,-6.103515625e-05,-6.103515625e-05,0.678833007812,-4.125,5.125,-2.1875,0.73,4.09,8.88
1542214800723999023,530,0,/imu_data_acquisition2,52972.0,0.106872558594,0.125854492188,0.715393066406,0.678955078125,-6.0,9.1875,-2.9375,0.31,3.03,9.65
1542214800734787940,531,0,/imu_data_acquisition2,52982.0,0.10595703125,0.126037597656,0.71533203125,0.679077148438,-4.625,6.875,-3.6875,-0.61,2.98,10.22
1542214800743546962,532,0,/imu_data_acquisition2,52991.0,0.105224609375,0.126220703125,0.715270996094,0.679260253906,-3.875,7.4375,-3.625,0.3,2.81,-0.01
1542214800754865884,533,0,/imu_data_acquisition2,53002.0,0.104553222656,0.126403808594,0.715148925781,0.679443359375,-2.5,5.5,-2.3125,-0.24,3.06,9.51
1542214800765978097,534,0,/imu_data_acquisition2,53012.0,0.10400390625,0.126586914062,0.715087890625,0.679565429688,-1.25,6.25,-1.5625,0.2,2.89,9.58
1542214800774377107,535,0,/imu_data_acquisition2,53022.0,0.103210449219,0.127258300781,0.715087890625,0.679565429688,-0.375,5.8125,-0.6875,-0.11,2.71,9.77
1542214800784828901,536,0,/imu_data_acquisition2,53032.0,0.103210449219,0.127258300781,0.715087890625,0.679565429688,1.5,5.625,-1.25,-0.19,3.11,9.62
1542214800795757055,537,0,/imu_data_acquisition2,53042.0,0.102905273438,0.127685546875,0.715026855469,0.679565429688,1.3125,5.3125,-1.125,-0.08,3.12,9.27
1542214800803719043,538,0,/imu_data_acquisition2,53051.0,0.102661132812,0.128051757812,0.715026855469,0.679565429688,2.6875,5.0,-0.0625,-0.31,3.12,9.52
