%time,field.header.seq,field.header.stamp,field.header.frame_id,field.time_stamp,field.quat_x,field.quat_y,field.quat_z,field.quat_w,field.gyro_x,field.gyro_y,field.gyro_z,field.accel_x,field.accel_y,field.accel_z
1542407208766309022,74,0,/imu_data_acquisition2,21811.0,0.159362792969,0.00592041015625,0.692810058594,0.703308105469,4.25,18.25,41.4375,-12.83,-5.33,3.28
1542407208776036024,75,0,/imu_data_acquisition2,21820.0,0.156127929688,0.00738525390625,0.695007324219,0.701782226562,-12.625,42.75,28.0625,-11.48,-3.85,4.67
1542407208797473907,77,0,/imu_data_acquisition2,21842.0,0.144653320312,0.0113525390625,0.699279785156,0.699951171875,-34.25,74.8125,20.5625,-9.42,-1.55,6.07
1542407208809742927,78,0,/imu_data_acquisition2,21854.0,0.137268066406,0.0138549804688,0.70166015625,0.699035644531,-39.125,86.125,21.875,-5.9,1.03,8.5
1542407208816206932,79,0,/imu_data_acquisition2,21861.0,0.130432128906,0.0166015625,0.7041015625,0.697875976562,-32.3125,84.1875,24.25,14.21,2.88,14.95
1542407208829093933,80,0,/imu_data_acquisition2,21874.0,0.123779296875,0.0198974609375,0.706359863281,0.696655273438,-26.1875,85.9375,22.4375,15.84,9.5,21.18
1542407208835964918,81,0,/imu_data_acquisition2,21881.0,0.112609863281,0.0240478515625,0.707153320312,0.697570800781,-58.625,128.5625,-9.8125,-0.15,-1.16,-5.17
1542407208845391035,82,0,/imu_data_acquisition2,21889.0,0.0960693359375,-6.103515625e-05,-6.103515625e-05,0.700561523438,-117.125,160.5,-0.0625,1.47,-0.99,2.09
1542407208860622882,83,0,/imu_data_acquisition2,21905.0,0.0789794921875,0.0301513671875,0.706420898438,0.702758789062,-116.625,168.875,-29.0625,0.19,-2.24,13.89
1542407208866842031,84,0,/imu_data_acquisition2,21911.0,0.0635375976562,0.0369262695312,0.706726074219,0.70361328125,-72.5625,185.375,-16.6875,-5.14,-3.15,14.03
1542407208885417938,86,0,/imu_data_acquisition2,21930.0,0.0348510742188,0.0505981445312,0.705383300781,0.706176757812,-60.8125,170.75,-33.6875,-1.3,-4.19,13.34
1542407208896382093,87,0,/imu_data_acquisition2,21940.0,0.02197265625,0.0588989257812,0.703979492188,0.707458496094,-38.0,175.875,-33.1875,-4.97,0.89,14.84
1542407208909022092,88,0,/imu_data_acquisition2,21953.0,0.0101928710938,0.0662841796875,0.702514648438,0.70849609375,-36.25,159.0625,-15.375,-2.61,3.13,11.63
1542407208917006969,89,0,/imu_data_acquisition2,21960.0,-0.0009765625,0.0733642578125,0.701354980469,0.708984375,-33.5,151.5625,-23.125,-3.5,2.13,11.62
1542407208929316043,90,0,/imu_data_acquisition2,21974.0,-0.0120239257812,0.0800170898438,0.700439453125,0.709106445312,-37.0,147.125,-18.375,-3.91,0.54,13.42
1542407208938608884,91,0,/imu_data_acquisition2,21981.0,-0.0225830078125,0.0855102539062,0.699584960938,0.709045410156,-42.5,134.1875,-16.0,-6.04,0.57,16.31
1542407208950731992,92,0,/imu_data_acquisition2,21994.0,-0.0320434570312,0.08935546875,0.698852539062,0.708923339844,-46.8125,111.25,-13.125,-8.47,-0.57,17.35
1542407208957912921,93,0,/imu_data_acquisition2,22003.0,-0.0389404296875,0.0923461914062,0.698181152344,0.708862304688,-32.5625,82.0625,-11.4375,-4.99,-1.5,12.99
1542407208968677997,94,0,/imu_data_acquisition2,22013.0,-0.0435180664062,0.0953979492188,0.697509765625,0.708862304688,-12.125,63.5,-9.5,-4.33,-0.18,11.73
1542407208975377082,95,0,/imu_data_acquisition2,22019.0,-0.046630859375,0.0988159179688,0.696838378906,0.708862304688,2.8125,54.8125,-7.25,-3.99,0.79,10.98
1542407208986031055,96,0,/imu_data_acquisition2,22030.0,-0.0487060546875,0.1015625,0.696350097656,0.708801269531,5.375,40.625,-4.3125,-3.36,-0.27,10.9
1542407208997155904,97,0,/imu_data_acquisition2,22041.0,-0.0501098632812,0.103759765625,0.696044921875,0.708740234375,7.125,30.125,-2.4375,-3.01,0.43,10.33
1542407209005671977,98,0,/imu_data_acquisition2,22049.0,-0.0501098632812,0.103759765625,0.696044921875,0.708740234375,8.6875,24.0,-0.6875,-2.84,0.34,10.2
1542407209016266107,99,0,/imu_data_acquisition2,22061.0,-0.0515747070312,0.107299804688,0.695617675781,0.708435058594,8.8125,18.5625,0.1875,-2.39,0.32,10.17
1542407209027767896,100,0,/imu_data_acquisition2,22071.0,-0.0050048828125,-6.103515625e-05,-6.103515625e-05,0.708312988281,9.0,15.125,1.0,-2.49,0.5,10.16
1542407209035208940,101,0,/imu_data_acquisition2,22080.0,-0.0521240234375,0.110107421875,0.695495605469,0.708129882812,8.8125,13.625,1.625,-2.49,-0.01,-0.01
1542407209046719074,102,0,/imu_data_acquisition2,22091.0,-0.0523071289062,0.111328125,0.695495605469,0.707946777344,8.625,11.9375,2.125,-2.29,0.6,9.78
1542407209056802034,103,0,/imu_data_acquisition2,22100.0,-0.0523071289062,0.111328125,0.695495605469,0.707946777344,7.875,10.5625,2.5,-2.47,0.35,9.76
1542407209065288066,104,0,/imu_data_acquisition2,22110.0,-0.052490234375,0.113342285156,0.695556640625,0.70751953125,6.875,8.375,2.5,-2.32,0.64,9.44
1542407209076939105,105,0,/imu_data_acquisition2,22121.0,-6.103515625e-05,-6.103515625e-05,-6.103515625e-05,0.707336425781,5.4375,7.0,1.9375,-2.55,0.82,9.48
1542407209086333990,106,0,/imu_data_acquisition2,22130.0,-0.0526733398438,0.11474609375,-6.103515625e-05,0.707214355469,4.125,6.125,1.5625,-2.11,0.93,9.86
1542407209095952033,107,0,/imu_data_acquisition2,22141.0,-6.103515625e-05,-6.103515625e-05,-6.103515625e-05,0.707153320312,2.0625,6.125,0.5625,-2.72,0.59,9.85
1542407209107012033,108,0,/imu_data_acquisition2,22151.0,-6.103515625e-05,-6.103515625e-05,-6.103515625e-05,0.707092285156,0.4375,5.0,-0.3125,-2.46,0.62,9.79
1542407209115907907,109,0,/imu_data_acquisition2,22160.0,-0.0534057617188,0.11572265625,0.695556640625,0.707092285156,0.1875,3.5,-0.5,-2.64,0.53,9.6
1542407209126269102,110,0,/imu_data_acquisition2,22170.0,-0.0535888671875,0.115905761719,0.695556640625,0.70703125,0.4375,2.625,-0.5,-2.6,0.59,9.77
1542407209139195919,111,0,/imu_data_acquisition2,22183.0,-0.0535888671875,0.116088867188,0.695495605469,0.70703125,1.125,1.75,-0.125,-2.44,0.5,10.01
1542407209146378040,112,0,/imu_data_acquisition2,22190.0,-0.0535888671875,0.1162109375,0.695495605469,0.70703125,1.0625,0.8125,-0.25,-2.36,0.56,9.91
1542407209156872034,113,0,/imu_data_acquisition2,22202.0,-0.0535278320312,0.116271972656,0.695495605469,0.70703125,1.3125,0.375,0.0625,-2.28,0.75,10.05
1542407209170125007,114,0,/imu_data_acquisition2,22214.0,-0.053466796875,0.116455078125,0.695495605469,0.70703125,1.875,1.0625,-0.0625,-2.43,0.7,9.61
1542407209177726030,115,0,/imu_data_acquisition2,22221.0,-0.053466796875,0.116455078125,0.695495605469,0.70703125,1.9375,-0.125,0.125,-2.48,0.6,9.77
1542407209186708927,116,0,/imu_data_acquisition2,22231.0,-6.103515625e-05,-6.103515625e-05,-6.103515625e-05,0.707092285156,2.0,-0.3125,-0.0625,-2.74,0.58,9.77
1542407209196304082,117,0,/imu_data_acquisition2,22239.0,-0.0533447265625,0.116638183594,0.695434570312,0.707092285156,1.8125,-0.375,-0.125,-2.35,0.65,9.73
1542407209205102920,118,0,/imu_data_acquisition2,22249.0,-0.0533447265625,0.11669921875,0.695373535156,0.707092285156,1.8125,-1.3125,0.125,-2.59,0.64,9.67
1542407209215593099,119,0,/imu_data_acquisition2,22260.0,-0.0532836914062,0.11669921875,0.695373535156,0.707092285156,1.5,-0.0625,-0.0625,-2.56,0.76,9.64
1542407209225575923,120,0,/imu_data_acquisition2,22270.0,-0.05322265625,0.11669921875,0.6953125,0.707153320312,1.25,-0.0625,-0.0625,-2.24,0.64,9.53
1542407209236177921,121,0,/imu_data_acquisition2,22280.0,-0.0531005859375,0.11669921875,0.6953125,0.707153320312,0.5,-0.125,-0.625,-2.76,0.52,9.56
1542407209244990110,122,0,/imu_data_acquisition2,22289.0,-0.0533447265625,0.116638183594,0.695251464844,0.707214355469,0.5,-0.125,-0.625,-2.64,0.73,9.64
1542407209254842996,123,0,/imu_data_acquisition2,22299.0,-0.0535888671875,0.116760253906,0.695190429688,0.707275390625,-0.125,1.3125,-0.9375,-2.43,0.6,9.63
1542407209265486955,124,0,/imu_data_acquisition2,22310.0,-0.0537719726562,0.116760253906,0.695129394531,0.707336425781,-1.0,1.0625,-1.125,-2.62,0.63,9.46
1542407209276000976,125,0,/imu_data_acquisition2,22320.0,-0.0540771484375,0.11669921875,0.695007324219,0.707397460938,-1.25,1.3125,-1.3125,-2.54,0.62,9.51
1542407209285650968,126,0,/imu_data_acquisition2,22330.0,-0.0543823242188,0.11669921875,0.694946289062,0.707458496094,-1.75,1.0625,-1.625,-2.54,0.67,9.55
1542407209294735908,127,0,/imu_data_acquisition2,22339.0,-0.0546875,0.116638183594,0.69482421875,0.70751953125,-2.25,1.5625,-1.875,-2.81,0.53,9.65
1542407209305484056,128,0,/imu_data_acquisition2,22350.0,-0.0551147460938,0.116638183594,0.6943359375,0.707946777344,-2.75,2.0625,-2.0625,-2.47,0.47,9.6
1542407209315480947,129,0,/imu_data_acquisition2,22360.0,-0.0556030273438,0.116577148438,0.694213867188,0.708068847656,-2.9375,1.625,-2.3125,-2.68,0.62,9.57
1542407209325598001,130,0,/imu_data_acquisition2,22370.0,-0.0560913085938,0.116455078125,0.694091796875,0.708190917969,-2.5,1.5,-2.125,-2.52,0.5,9.8
1542407209335517883,131,0,/imu_data_acquisition2,22380.0,-0.0565185546875,0.116394042969,0.693969726562,0.708312988281,-1.875,1.1875,-1.9375,-2.94,0.23,9.59
1542407209345628976,132,0,/imu_data_acquisition2,22390.0,-0.0571899414062,0.116271972656,0.693786621094,0.708435058594,-1.875,1.1875,-1.9375,-2.28,0.47,9.83
1542407209355532884,133,0,/imu_data_acquisition2,22400.0,-0.0574340820312,0.1162109375,0.693115234375,0.709045410156,-1.0,0.6875,-1.5625,-2.65,0.38,9.6
1542407209365431070,134,0,/imu_data_acquisition2,22410.0,-0.0578002929688,0.116027832031,0.693054199219,0.709167480469,-1.125,1.5,-1.5,-2.61,0.55,9.42
1542407209375534057,135,0,/imu_data_acquisition2,22420.0,-0.0581665039062,0.116027832031,0.692932128906,0.709228515625,-1.25,1.625,-0.0625,-2.47,-0.01,-0.01
1542407209385705947,136,0,/imu_data_acquisition2,22431.0,-0.0584716796875,0.116027832031,0.692810058594,0.709350585938,-1.3125,2.125,-1.75,-2.63,0.45,9.56
1542407209395209074,137,0,/imu_data_acquisition2,22440.0,-0.058837890625,0.116027832031,0.692687988281,0.709411621094,-1.3125,2.125,-1.75,-2.62,0.5,9.61
1542407209405862092,138,0,/imu_data_acquisition2,22451.0,-0.05908203125,0.116088867188,0.691650390625,0.710388183594,-1.5625,2.6875,-2.375,-2.49,0.56,9.61
1542407209415482997,139,0,/imu_data_acquisition2,22460.0,-0.0594482421875,0.116149902344,0.691467285156,0.710510253906,-1.625,2.75,-2.6875,-2.56,0.48,9.48
1542407209426999092,140,0,/imu_data_acquisition2,22470.0,-0.0598754882812,0.116149902344,0.691284179688,0.710632324219,-1.625,2.75,-2.875,-2.63,0.49,9.57
1542407209436034917,141,0,/imu_data_acquisition2,22481.0,-0.0602416992188,0.116149902344,0.691101074219,0.710815429688,-1.9375,3.625,-3.5,-2.63,0.48,9.67
1542407209446444988,142,0,/imu_data_acquisition2,22490.0,-0.0607299804688,0.1162109375,0.69091796875,0.7109375,-1.9375,3.625,-3.5,-2.63,0.48,9.67
1542407209455636024,143,0,/imu_data_acquisition2,22500.0,-0.0611572265625,0.116333007812,0.690002441406,0.711791992188,-3.0625,6.0,-4.0,-2.59,0.53,9.8
1542407209466422080,144,0,/imu_data_acquisition2,22511.0,-0.061767578125,0.116455078125,0.689758300781,0.711975097656,-3.4375,7.4375,-4.625,-2.66,0.61,9.61
1542407209476042032,145,0,/imu_data_acquisition2,22521.0,-0.0625610351562,0.11669921875,0.689453125,0.712158203125,-4.1875,8.625,-5.25,-2.62,0.43,9.51
1542407209486167907,146,0,/imu_data_acquisition2,22531.0,-0.0634155273438,0.116882324219,0.689086914062,0.712341308594,-4.6875,9.875,-0.0625,-2.67,0.47,9.7
1542407209494971990,147,0,/imu_data_acquisition2,22539.0,-0.0643920898438,0.1171875,0.688720703125,0.712585449219,-4.6875,9.875,-5.75,-2.67,0.47,9.7
1542407209505578041,148,0,/imu_data_acquisition2,22550.0,-0.0653686523438,0.117492675781,0.688171386719,0.712951660156,-4.8125,10.4375,-6.0,-3.03,0.38,9.63
1542407209515486955,149,0,/imu_data_acquisition2,22561.0,-0.0663452148438,0.117858886719,0.687805175781,0.713195800781,-4.3125,11.3125,-6.0625,-2.58,0.45,9.52
1542407209526220083,150,0,/imu_data_acquisition2,22571.0,-0.0673217773438,0.118286132812,0.687438964844,0.71337890625,-4.25,12.5,-6.3125,-2.65,0.33,9.54
1542407209536148071,151,0,/imu_data_acquisition2,22581.0,-0.0684204101562,0.11865234375,0.68701171875,0.713623046875,-4.25,13.625,-0.0625,-2.46,0.4,9.68
1542407209544435024,152,0,/imu_data_acquisition2,22589.0,-6.103515625e-05,-6.103515625e-05,-6.103515625e-05,0.7138671875,-4.25,13.625,-6.4375,-2.46,0.4,9.68
1542407209556355953,153,0,/imu_data_acquisition2,22601.0,-0.0708618164062,0.119689941406,0.686096191406,0.714050292969,-4.125,14.875,-6.4375,-2.51,0.25,9.66
1542407209566442966,154,0,/imu_data_acquisition2,22611.0,-0.0722045898438,0.120361328125,0.685607910156,0.714294433594,-3.6875,18.125,-6.875,-2.99,0.3,9.56
1542407209578515052,155,0,/imu_data_acquisition2,22622.0,-0.0736694335938,0.121154785156,0.685119628906,0.714477539062,-3.75,19.4375,-7.6875,-2.99,0.2,9.58
1542407209588814973,156,0,/imu_data_acquisition2,22632.0,-0.0751342773438,0.122009277344,-6.103515625e-05,0.714721679688,-3.375,20.375,-8.4375,-3.09,0.13,9.21
1542407209597635984,157,0,/imu_data_acquisition2,22642.0,-0.0780639648438,0.124084472656,0.683349609375,0.715209960938,-2.9375,21.375,-8.5,-2.85,0.06,10.08
1542407209606925964,158,0,/imu_data_acquisition2,22651.0,-0.0780639648438,0.124084472656,0.683349609375,0.715209960938,-2.9375,21.375,-8.5,-1.88,0.45,10.19
1542407209620927095,159,0,/imu_data_acquisition2,22664.0,-0.0796508789062,0.125305175781,0.682739257812,0.715454101562,-1.5625,24.125,-8.25,-3.47,0.76,10.75
1542407209630326032,160,0,/imu_data_acquisition2,22673.0,-0.0812377929688,0.126647949219,0.682067871094,0.715637207031,-1.3125,27.5,-8.6875,-3.21,-0.19,8.83
1542407209642921924,161,0,/imu_data_acquisition2,22682.0,-0.0830078125,0.128173828125,0.681396484375,0.7158203125,-1.25,29.625,-10.5,-2.23,0.54,9.11
1542407209648030996,162,0,/imu_data_acquisition2,22692.0,-0.0848999023438,0.129821777344,0.680541992188,0.716125488281,-0.625,32.0,-11.5,-2.45,0.69,9.65
1542407209658741950,163,0,/imu_data_acquisition2,22700.0,-0.0869140625,0.131652832031,0.679626464844,0.716430664062,-0.625,32.0,-11.5,-2.45,0.69,9.65
1542407209670614004,164,0,/imu_data_acquisition2,22714.0,-0.0892333984375,0.133911132812,0.6787109375,0.716552734375,1.0,43.375,-0.0625,-3.48,0.68,10.14
1542407209678114891,165,0,/imu_data_acquisition2,22723.0,-0.0917358398438,0.136535644531,0.677917480469,0.716491699219,1.6875,47.4375,-0.0625,-2.83,0.74,10.74
1542407209690001010,166,0,/imu_data_acquisition2,22734.0,-0.0944213867188,0.139465332031,0.677185058594,0.716247558594,2.5625,53.4375,-3.4375,-2.63,0.55,10.27
1542407209699845075,167,0,/imu_data_acquisition2,22744.0,-0.0973510742188,0.142822265625,0.676513671875,0.715881347656,4.8125,66.1875,-0.875,-3.46,0.6,9.76
1542407209708888053,168,0,/imu_data_acquisition2,22752.0,-0.100891113281,0.147094726562,0.675842285156,0.715148925781,4.8125,66.1875,-0.875,-3.46,0.6,9.76
1542407209719311952,169,0,/imu_data_acquisition2,22763.0,-0.104675292969,0.151977539062,0.675231933594,0.714111328125,5.1875,82.0625,2.0,-2.99,1.03,9.88
1542407209730026960,170,0,/imu_data_acquisition2,22775.0,-0.109008789062,0.1572265625,0.674560546875,0.713012695312,3.3125,99.3125,0.5,-2.65,2.34,10.7
1542407209742654085,171,0,/imu_data_acquisition2,22785.0,-0.114440917969,0.163391113281,0.673583984375,0.711669921875,-0.3125,120.625,-6.75,-2.43,2.16,10.46
1542407209750771999,172,0,/imu_data_acquisition2,22793.0,-0.121398925781,0.170593261719,0.671997070312,0.710388183594,-15.125,134.3125,-24.1875,-1.61,2.02,11.49
1542407209757399082,173,0,/imu_data_acquisition2,22802.0,-0.130249023438,0.177490234375,0.669311523438,0.709594726562,-35.25,158.1875,-42.8125,-1.91,2.93,11.27
1542407209780947923,175,0,/imu_data_acquisition2,22825.0,-0.157165527344,0.191772460938,0.660522460938,0.708740234375,-80.1875,214.5625,-68.4375,-1.96,1.79,12.33
1542407209797806978,176,0,/imu_data_acquisition2,22832.0,-0.174987792969,0.19921875,0.654724121094,0.707824707031,-80.1875,214.5625,-68.4375,-1.02,2.06,14.16
1542407209799351930,177,0,/imu_data_acquisition2,22842.0,-0.1953125,0.208435058594,0.647766113281,0.706298828125,-91.25,309.625,-77.25,-2.09,0.85,12.68
1542407209809608936,178,0,/imu_data_acquisition2,22854.0,-0.246032714844,0.235778808594,0.6298828125,0.697937011719,-99.1875,370.75,-6.5625,-2.51,2.26,11.57
1542407209817919969,179,0,/imu_data_acquisition2,22862.0,-0.246032714844,0.235778808594,0.6298828125,0.697937011719,-99.1875,370.75,-70.5625,-2.91,1.93,9.34
1542407209827303886,180,0,/imu_data_acquisition2,22872.0,-0.275573730469,0.254699707031,0.618041992188,0.690795898438,-68.0,501.4375,-76.375,-6.32,-1.01,8.46
1542407209840842962,181,0,/imu_data_acquisition2,22884.0,-0.307067871094,0.278381347656,0.602844238281,0.681762695312,-56.0,546.875,-73.125,-4.41,-2.87,8.45
1542407209847393035,182,0,/imu_data_acquisition2,22891.0,-0.339477539062,0.304809570312,0.585144042969,0.670471191406,-56.0,546.875,-73.125,-4.41,-2.87,8.45
1542407209856491088,183,0,/imu_data_acquisition2,22901.0,-0.370483398438,0.333374023438,0.565368652344,0.657287597656,-29.5625,568.9375,-62.5625,-3.28,-0.75,7.61
1542407209866292953,184,0,/imu_data_acquisition2,22911.0,-0.400695800781,0.36474609375,0.542541503906,0.641967773438,-2.0625,607.8125,-56.875,-8.55,7.8,7.67
1542407209876843929,185,0,/imu_data_acquisition2,22922.0,-0.430908203125,0.396423339844,0.516540527344,0.624816894531,4.375,633.0,-67.375,-25.59,17.7,23.6
1542407209886755943,186,0,/imu_data_acquisition2,22932.0,-0.005126953125,-6.103515625e-05,-6.103515625e-05,0.603759765625,-54.125,564.4375,-11.625,-12.43,12.6,31.46
1542407209895117044,187,0,/imu_data_acquisition2,22939.0,-0.475646972656,0.439270019531,0.491394042969,0.58251953125,-116.875,354.1875,88.6875,-12.43,12.6,31.46
1542407209904562950,188,0,/imu_data_acquisition2,22949.0,-0.485473632812,0.445129394531,0.49951171875,0.562683105469,-187.875,154.875,153.1875,-10.09,-3.45,30.88
1542407209917366981,189,0,/imu_data_acquisition2,22961.0,-0.489135742188,0.443603515625,0.514709472656,0.546813964844,-204.8125,8.0625,167.1875,-7.31,-10.48,27.13
1542407209926994085,190,0,/imu_data_acquisition2,22972.0,-0.485717773438,0.436706542969,0.531921386719,0.538879394531,-156.0625,-123.5625,137.5625,-4.26,-10.45,14.85
1542407209938741922,191,0,/imu_data_acquisition2,22983.0,-0.475524902344,0.427917480469,0.546691894531,0.540283203125,-58.5625,-212.3125,87.75,-4.41,-7.66,11.21
1542407209946160078,192,0,/imu_data_acquisition2,22990.0,-0.460021972656,0.41845703125,0.557861328125,0.549621582031,33.5625,-271.625,36.5,-4.41,-7.66,11.21
1542407209957247972,193,0,/imu_data_acquisition2,23001.0,-0.441833496094,0.407165527344,0.566284179688,0.564208984375,81.75,-311.3125,-13.125,-3.84,-5.77,7.53
1542407209967319011,194,0,/imu_data_acquisition2,23011.0,-0.423278808594,0.393493652344,0.572631835938,0.581481933594,91.875,-332.875,-55.6875,-3.33,-2.16,2.15
1542407209978265047,195,0,/imu_data_acquisition2,23022.0,-0.406372070312,0.37841796875,0.576904296875,0.599060058594,82.6875,-321.25,-86.1875,-4.06,0.83,3.77
1542407209988341093,196,0,/imu_data_acquisition2,23033.0,-0.391357421875,0.3623046875,0.580444335938,0.615356445312,58.625,-307.5625,-96.6875,-5.33,1.91,5.48
1542407209994332075,197,0,/imu_data_acquisition2,23039.0,-0.377990722656,0.344909667969,0.584167480469,0.630004882812,29.8125,-298.25,-96.8125,-5.33,1.91,5.48
1542407210005932092,198,0,/imu_data_acquisition2,23050.0,-0.365234375,0.325744628906,0.588806152344,0.643249511719,2.625,-306.125,-90.3125,-5.37,2.29,7.72
1542407210017185926,199,0,/imu_data_acquisition2,23062.0,-0.352233886719,0.30517578125,0.594421386719,0.655334472656,-13.4375,-318.3125,-80.0,-5.24,1.75,6.73
1542407210029124021,200,0,/imu_data_acquisition2,23073.0,-0.338073730469,0.284423828125,0.6005859375,0.666381835938,-12.4375,-326.9375,-65.8125,-5.11,0.82,5.45
1542407210039844989,201,0,/imu_data_acquisition2,23083.0,-0.322326660156,0.264099121094,-6.103515625e-05,0.6767578125,0.5625,-332.0625,-51.75,-5.71,0.55,5.92
1542407210047162055,202,0,/imu_data_acquisition2,23092.0,-0.305053710938,0.2451171875,0.612915039062,0.686401367188,19.625,-329.875,-40.0,-5.71,0.55,5.92
1542407210054477930,203,0,/imu_data_acquisition2,23099.0,-0.285400390625,0.22900390625,0.618103027344,0.695739746094,61.375,-319.3125,-26.5,-6.44,0.42,6.91
1542407210067348957,204,0,/imu_data_acquisition2,23112.0,-0.265563964844,0.212707519531,0.622863769531,0.704467773438,61.375,-319.3125,-26.5,-7.77,0.49,9.67
1542407210078705072,205,0,/imu_data_acquisition2,23123.0,-0.244506835938,0.197143554688,0.626953125,0.712951660156,85.5625,-320.0,-23.5625,-8.15,0.52,9.79
1542407210089404106,206,0,/imu_data_acquisition2,23133.0,-0.222717285156,0.181823730469,0.630493164062,0.721008300781,85.5625,-320.0,-23.5625,-7.71,-0.15,8.02
1542407210096645116,207,0,/imu_data_acquisition2,23141.0,-0.201293945312,0.167236328125,0.632751464844,0.728820800781,89.9375,-307.8125,-31.375,-7.71,-0.15,8.02
1542407210107131958,208,0,/imu_data_acquisition2,23151.0,-0.180358886719,0.15380859375,0.633972167969,0.736145019531,95.125,-289.875,-34.875,-7.65,-0.38,8.05
1542407210118280887,209,0,/imu_data_acquisition2,23162.0,-0.159301757812,0.140319824219,0.634765625,0.742980957031,95.125,-289.875,-34.875,-7.57,-0.21,8.75
1542407210131366968,210,0,/imu_data_acquisition2,23173.0,-0.138854980469,0.130493164062,0.634826660156,0.748779296875,117.4375,-250.0,-27.5,-8.84,1.13,14.49
1542407210138598918,211,0,/imu_data_acquisition2,23183.0,-0.118225097656,0.1220703125,-6.103515625e-05,0.753662109375,126.8125,-237.4375,-17.3125,-9.72,1.01,16.73
1542407210146207094,212,0,/imu_data_acquisition2,23190.0,-0.0971069335938,0.1142578125,0.635375976562,0.757507324219,134.4375,-234.9375,-5.3125,-9.72,1.01,16.73
1542407210157324075,213,0,/imu_data_acquisition2,23201.0,-0.0750122070312,0.1064453125,0.636291503906,0.760375976562,141.3125,-241.125,6.6875,-10.15,0.71,17.77
1542407210167982101,214,0,/imu_data_acquisition2,23210.0,-0.0521240234375,0.0984497070312,0.637390136719,0.762451171875,146.3125,-247.875,16.5,-10.06,0.07,16.74
1542407210179168939,215,0,/imu_data_acquisition2,23223.0,-0.029052734375,0.09033203125,0.638610839844,0.763671875,146.5,-249.1875,23.5625,-9.76,-0.38,14.95
1542407210188100099,216,0,/imu_data_acquisition2,23233.0,-0.00634765625,0.0823364257812,-6.103515625e-05,0.76416015625,143.875,-244.875,28.25,-10.12,0.11,14.43
1542407210199378967,217,0,/imu_data_acquisition2,23241.0,0.0156860351562,0.0747680664062,0.640869140625,0.763793945312,141.3125,-235.5,33.8125,-10.12,0.11,14.43
1542407210208972930,218,0,/imu_data_acquisition2,23250.0,0.0369262695312,0.0675659179688,0.642272949219,0.762634277344,136.4375,-225.1875,41.375,-10.33,0.38,13.66
1542407210215821027,219,0,/imu_data_acquisition2,23261.0,0.0570678710938,0.060791015625,0.643859863281,0.760620117188,129.125,-212.0625,48.875,-10.46,0.05,12.49
1542407210230837106,220,0,/imu_data_acquisition2,23273.0,0.0760498046875,-6.103515625e-05,-6.103515625e-05,0.757873535156,126.3125,-195.0625,54.25,-10.8,-0.79,11.25
1542407210239311933,221,0,/imu_data_acquisition2,23283.0,0.0941162109375,0.0503540039062,0.647338867188,0.754699707031,129.625,-174.4375,55.8125,-11.23,-3.56,6.47
1542407210244472026,222,0,/imu_data_acquisition2,23289.0,0.111206054688,0.0478515625,0.64892578125,0.751159667969,136.625,-0.0625,-0.0625,-11.23,-3.56,6.47
1542407210256370067,223,0,/imu_data_acquisition2,23300.0,0.127136230469,0.0469360351562,0.650512695312,0.747314453125,138.75,-126.0625,53.25,-12.25,-3.6,6.43
1542407210267888069,224,0,/imu_data_acquisition2,23312.0,0.141174316406,0.0465698242188,0.652099609375,0.743408203125,126.6875,-107.25,52.9375,-15.29,-4.12,5.8
1542407210279560089,225,0,/imu_data_acquisition2,23323.0,0.152709960938,0.0460815429688,0.653869628906,0.739624023438,102.5,-88.125,52.0625,-17.81,-6.73,-1.05
1542407210289227962,226,0,/imu_data_acquisition2,23333.0,0.160522460938,0.0454711914062,0.655822753906,0.736267089844,69.4375,-60.5625,48.4375,-15.66,-8.2,-4.59
1542407210297966957,227,0,/imu_data_acquisition2,23342.0,0.163269042969,0.0452880859375,0.657531738281,0.734130859375,24.875,-18.25,33.5,-15.66,-8.2,-4.59
1542407210307364940,228,0,/imu_data_acquisition2,23349.0,0.160827636719,0.046142578125,0.658508300781,0.733703613281,-14.1875,28.375,8.5625,-14.22,-7.99,-1.42
1542407210319436073,229,0,/imu_data_acquisition2,23364.0,0.1552734375,0.0484619140625,0.65869140625,0.734619140625,-31.75,63.125,-12.9375,-11.78,-4.01,5.51
1542407210331458091,230,0,/imu_data_acquisition2,23377.0,0.140502929688,0.054931640625,0.658081054688,0.737670898438,-44.5625,88.625,-24.9375,-9.38,-0.32,7.53
1542407210340647935,231,0,/imu_data_acquisition2,23384.0,0.140502929688,0.054931640625,0.658081054688,0.737670898438,-44.5625,88.625,-24.9375,-9.12,0.82,8.47
1542407210346846103,232,0,/imu_data_acquisition2,23391.0,0.131713867188,0.0578002929688,0.658386230469,0.73876953125,-56.75,93.625,-16.125,-9.12,0.82,8.47
1542407210358299970,233,0,/imu_data_acquisition2,23403.0,0.121459960938,0.0591430664062,0.660034179688,0.739013671875,-81.0,94.0,3.125,-6.98,5.8,10.69
1542407210364556074,234,0,/imu_data_acquisition2,23409.0,0.110778808594,0.0570678710938,0.663024902344,0.738098144531,-110.1875,70.125,29.0,16.57,9.32,19.56
1542407210378349065,235,0,/imu_data_acquisition2,23423.0,0.0993041992188,0.0550537109375,0.66650390625,0.736755371094,-116.6875,78.0,35.875,16.59,11.61,21.76
1542407210390878915,236,0,/imu_data_acquisition2,23434.0,0.085693359375,0.0529174804688,0.6689453125,0.736450195312,-136.875,91.875,17.0,1.43,-6.23,-6.86
1542407210395648002,237,0,/imu_data_acquisition2,23441.0,0.0668334960938,0.05419921875,0.6708984375,0.736572265625,-155.625,161.9375,3.375,1.43,-6.23,-6.86
1542407210406572103,238,0,/imu_data_acquisition2,23452.0,0.0489501953125,0.0579223632812,0.672973632812,0.735778808594,-126.8125,177.1875,10.125,4.75,-9.92,11.03
1542407210418935060,239,0,/imu_data_acquisition2,23463.0,0.0325927734375,0.066162109375,0.673950195312,0.735107421875,-77.0625,203.0,-2.4375,-7.97,-11.69,21.71
1542407210428670883,240,0,/imu_data_acquisition2,23472.0,0.0189208984375,0.0732421875,0.672668457031,0.736083984375,-62.375,169.5,-32.125,-4.42,-9.94,16.01
1542407210437159061,241,0,/imu_data_acquisition2,23482.0,0.0076904296875,0.0806274414062,-6.103515625e-05,0.737731933594,-5.25,-0.0625,-0.0625,-4.32,0.51,12.83
1542407210446554899,242,0,/imu_data_acquisition2,23490.0,-0.00189208984375,0.087646484375,0.668090820312,0.738891601562,-26.25,136.125,-37.25,-3.58,7.15,12.16
1542407210454755067,243,0,/imu_data_acquisition2,23500.0,-0.01171875,0.093994140625,0.6669921875,0.739013671875,-34.375,133.375,-21.0,-3.04,7.66,13.53
1542407210465567111,244,0,/imu_data_acquisition2,23510.0,-0.0216064453125,0.0989379882812,0.66650390625,0.738586425781,-46.375,121.75,-10.75,-5.57,-0.06,14.98
1542407210479068994,245,0,/imu_data_acquisition2,23523.0,-0.0305786132812,0.102233886719,0.666320800781,0.737976074219,-52.625,100.6875,-7.1875,-4.67,-1.01,15.21
1542407210487226963,246,0,/imu_data_acquisition2,23532.0,-0.0382080078125,0.104614257812,0.666198730469,0.737426757812,-47.8125,80.9375,-5.0,-5.25,-0.37,15.51
1542407210496186017,247,0,/imu_data_acquisition2,23540.0,-0.043701171875,0.1064453125,0.666015625,0.736999511719,-33.4375,60.5625,-4.3125,-2.84,-0.71,10.88
1542407210506640911,248,0,/imu_data_acquisition2,23551.0,-0.0479125976562,0.108581542969,0.665649414062,0.736755371094,-19.9375,51.9375,-0.0625,-2.17,-0.48,12.05
1542407210515470027,249,0,/imu_data_acquisition2,23560.0,-0.0513305664062,0.111511230469,0.664978027344,0.736694335938,-5.8125,53.0625,-7.75,-3.37,-0.54,12.07
1542407210529510021,250,0,/imu_data_acquisition2,23573.0,-0.0537109375,0.114318847656,0.664367675781,0.736633300781,2.3125,43.875,-6.75,-2.57,-0.08,10.42
1542407210540173053,251,0,/imu_data_acquisition2,23584.0,-0.0553588867188,0.116882324219,0.663818359375,0.736633300781,6.5,35.6875,-4.75,-2.7,-0.1,9.98
1542407210546032905,252,0,/imu_data_acquisition2,23591.0,-0.0565185546875,0.119323730469,0.663391113281,0.736511230469,9.875,30.4375,-3.0625,-2.96,0.16,9.97
1542407210555206060,253,0,/imu_data_acquisition2,23599.0,-0.0571899414062,0.121520996094,0.662902832031,0.736572265625,11.1875,25.125,-2.0,-2.22,0.3,9.97
1542407210566325902,254,0,/imu_data_acquisition2,23611.0,-0.0578002929688,0.123718261719,0.662536621094,0.736511230469,12.5,23.9375,-1.75,-2.07,0.56,9.93
1542407210577423095,255,0,/imu_data_acquisition2,23622.0,-0.058349609375,0.125915527344,0.662170410156,0.736389160156,12.875,23.75,-2.0625,-2.46,0.99,10.0
1542407210585334062,256,0,/imu_data_acquisition2,23630.0,-0.0588989257812,0.127868652344,0.661804199219,0.736328125,11.25,21.875,-1.5,-2.43,0.93,9.78
1542407210596570014,257,0,/imu_data_acquisition2,23640.0,-0.059326171875,0.129638671875,0.66162109375,0.736145019531,10.0,18.9375,-0.0625,-2.49,0.93,9.64
1542407210607031106,258,0,/imu_data_acquisition2,23651.0,-0.0596923828125,0.131103515625,0.661193847656,0.736267089844,8.1875,16.25,-0.5,-2.41,0.93,9.88
1542407210614324092,259,0,/imu_data_acquisition2,23659.0,-0.0599975585938,0.13232421875,0.661010742188,0.736206054688,6.4375,13.4375,-0.875,-2.38,1.29,10.0
1542407210628668069,260,0,/imu_data_acquisition2,23673.0,-0.0604858398438,0.133239746094,0.660766601562,0.736145019531,3.75,11.8125,-1.875,-2.78,0.83,9.8
1542407210635963916,261,0,/imu_data_acquisition2,23680.0,-0.0609741210938,0.133972167969,0.660522460938,0.736206054688,1.25,10.25,-0.0625,-2.15,0.99,9.68
1542407210644855022,262,0,/imu_data_acquisition2,23690.0,-0.0613403320312,0.13427734375,0.660278320312,0.736328125,-1.125,9.0625,-0.0625,-2.41,1.09,9.92
1542407210656522989,263,0,/imu_data_acquisition2,23701.0,-0.0619506835938,0.134460449219,0.660095214844,0.736450195312,-3.125,8.5625,-4.0,-2.71,0.62,10.07
1542407210665420055,264,0,/imu_data_acquisition2,23710.0,-0.0626220703125,0.134521484375,0.659851074219,0.736572265625,-4.0,7.9375,-3.4375,-2.61,0.56,9.77
1542407210675290107,265,0,/imu_data_acquisition2,23720.0,-0.0631713867188,0.134460449219,0.659729003906,0.736694335938,-3.5625,5.9375,-2.8125,-2.54,0.73,9.86
1542407210688039064,266,0,/imu_data_acquisition2,23732.0,-0.0636596679688,0.134582519531,0.659606933594,0.736755371094,-3.0,4.75,-2.3125,-2.48,0.6,9.96
1542407210695772886,267,0,/imu_data_acquisition2,23740.0,-0.0640258789062,0.134704589844,0.659484863281,0.736755371094,-2.375,3.75,-1.875,-2.47,0.67,9.86
1542407210705317974,268,0,/imu_data_acquisition2,23750.0,-0.0643920898438,0.134826660156,0.659362792969,0.73681640625,-1.6875,4.0625,-1.625,-2.75,0.6,10.02
1542407210716486930,269,0,/imu_data_acquisition2,23760.0,-0.0645751953125,0.134582519531,0.659301757812,0.736877441406,-1.0,2.6875,-1.25,-2.41,0.53,9.93
1542407210728898048,270,0,/imu_data_acquisition2,23773.0,-0.064697265625,0.134460449219,0.659240722656,0.736999511719,-0.5625,2.4375,-1.0,-2.61,0.6,9.58
1542407210735641956,271,0,/imu_data_acquisition2,23780.0,-0.0646362304688,0.134155273438,0.659240722656,0.737060546875,-0.5,1.9375,-0.625,-2.22,0.66,9.69
1542407210746119976,272,0,/imu_data_acquisition2,23790.0,-0.064697265625,0.133972167969,0.659240722656,0.737060546875,-0.5,2.5625,-0.625,-2.55,0.63,9.79
1542407210755165100,273,0,/imu_data_acquisition2,23800.0,-0.0648193359375,0.133972167969,0.658935546875,0.7373046875,-0.625,2.5,-0.875,-2.81,0.68,9.83
1542407210765773057,274,0,/imu_data_acquisition2,23811.0,-0.0650024414062,0.133972167969,0.658874511719,0.737365722656,-0.8125,2.8125,-1.1875,-2.56,0.71,9.59
1542407210775413990,275,0,/imu_data_acquisition2,23819.0,-0.065185546875,0.133850097656,0.658813476562,0.737426757812,-1.0625,2.4375,-1.375,-2.5,0.65,9.54
1542407210785887002,276,0,/imu_data_acquisition2,23830.0,-0.0654296875,0.133850097656,0.65869140625,0.737487792969,-1.4375,2.375,-1.6875,-2.68,0.71,-0.01
1542407210796647071,277,0,/imu_data_acquisition2,23841.0,-6.103515625e-05,-6.103515625e-05,-6.103515625e-05,0.737609863281,-1.4375,2.125,-1.8125,-2.52,0.75,9.72
1542407210804512023,278,0,/imu_data_acquisition2,23849.0,-0.0657958984375,0.133666992188,0.658447265625,0.737731933594,-1.4375,2.25,-2.0,-2.65,0.54,9.49
1542407210815047979,279,0,/imu_data_acquisition2,23860.0,-0.0660400390625,0.133544921875,0.658325195312,0.737854003906,-1.8125,2.4375,-2.1875,-2.57,0.62,9.82
1542407210828062057,280,0,/imu_data_acquisition2,23872.0,-0.06640625,0.133483886719,0.658203125,0.737915039062,-2.1875,3.0,-2.4375,-2.82,0.52,9.51
1542407210834770917,281,0,/imu_data_acquisition2,23879.0,-6.103515625e-05,-6.103515625e-05,-6.103515625e-05,0.738037109375,-2.9375,3.5625,-2.625,-2.63,0.64,9.47
1542407210846637010,282,0,/imu_data_acquisition2,23891.0,-0.0671997070312,0.13330078125,0.657897949219,0.738159179688,-3.125,3.375,-2.6875,-2.51,0.51,9.6
1542407210855586051,283,0,/imu_data_acquisition2,23900.0,-0.0677490234375,0.13330078125,0.65771484375,0.73828125,-3.375,4.5625,-2.8125,-2.97,0.53,9.63
1542407210864752054,284,0,/imu_data_acquisition2,23910.0,-0.068115234375,0.133056640625,0.657592773438,0.738403320312,-3.625,4.3125,-2.6875,-2.08,0.66,9.72
1542407210876945018,285,0,/imu_data_acquisition2,23921.0,-0.0686645507812,0.132995605469,0.657470703125,0.738464355469,-3.8125,5.6875,-2.6875,-2.67,0.55,9.51
1542407210885678052,286,0,/imu_data_acquisition2,23930.0,-0.0692749023438,0.133056640625,0.657287597656,0.738586425781,-4.0,6.0625,-2.875,-2.89,0.53,9.58
1542407210894880056,287,0,/imu_data_acquisition2,23939.0,-0.0699462890625,0.133056640625,0.657165527344,0.738647460938,-4.0,6.25,-0.0625,-2.65,0.48,9.73
1542407210908077001,288,0,/imu_data_acquisition2,23952.0,-0.0706176757812,0.133056640625,0.656982421875,0.738708496094,-4.0625,7.25,-2.875,-2.6,0.46,9.67
1542407210915582895,289,0,/imu_data_acquisition2,23960.0,-0.0712890625,0.133117675781,0.656799316406,0.73876953125,-4.0625,7.75,-2.8125,-2.74,0.55,9.76
1542407210926240921,290,0,/imu_data_acquisition2,23971.0,-0.072021484375,0.133178710938,0.656616210938,0.738891601562,-4.1875,8.125,-3.1875,-2.66,0.5,-0.01
1542407210936278104,291,0,/imu_data_acquisition2,23980.0,-0.0728149414062,0.133361816406,0.656372070312,0.738952636719,-3.875,8.625,-3.5625,-2.91,0.48,9.59
1542407210945930004,292,0,/imu_data_acquisition2,23991.0,-0.073486328125,0.133483886719,0.656127929688,0.739074707031,-3.6875,8.25,-3.6875,-2.59,0.5,9.7
1542407210955013990,293,0,/imu_data_acquisition2,24000.0,-0.0741577148438,0.133483886719,0.655944824219,0.739196777344,-3.4375,8.5,-3.75,-2.45,0.39,9.72
1542407210966310977,294,0,/imu_data_acquisition2,24011.0,-0.0748901367188,0.133728027344,0.655639648438,0.739318847656,-3.0625,8.375,-3.625,-3.31,0.34,9.46
1542407210976593971,295,0,/imu_data_acquisition2,24020.0,-0.0755004882812,0.133972167969,0.655456542969,0.739440917969,-2.625,7.75,-3.3125,-2.6,0.59,9.59
1542407210984819889,296,0,/imu_data_acquisition2,24029.0,-0.076171875,0.13427734375,0.655212402344,0.739501953125,-2.3125,8.3125,-3.4375,-3.01,0.58,9.69
1542407210996123075,297,0,/imu_data_acquisition2,24040.0,-0.0767822265625,0.134521484375,0.654907226562,0.739624023438,-2.625,8.375,-4.125,-2.59,0.68,9.65
1542407211008667945,298,0,/imu_data_acquisition2,24053.0,-0.0775146484375,0.134826660156,0.654602050781,0.739807128906,-2.8125,8.6875,-4.6875,-3.04,0.45,9.47
1542407211017712116,299,0,/imu_data_acquisition2,24062.0,-0.0781860351562,0.135131835938,0.654296875,0.739990234375,-3.125,8.5,-5.1875,-2.71,0.67,9.67
1542407211025943994,300,0,/imu_data_acquisition2,24071.0,-0.0789184570312,0.135375976562,0.653930664062,0.740173339844,-3.5,9.25,-5.5,-2.87,0.55,9.53
1542407211036250114,301,0,/imu_data_acquisition2,24081.0,-0.0797729492188,0.135681152344,0.653503417969,0.740356445312,-3.6875,10.25,-5.8125,-2.83,0.37,9.5
1542407211047274112,302,0,/imu_data_acquisition2,24090.0,-0.0806274414062,0.136047363281,0.653137207031,0.740539550781,-3.5625,11.375,-5.5,-2.79,0.5,9.78
1542407211055023908,303,0,/imu_data_acquisition2,24100.0,-0.08154296875,0.136413574219,0.65283203125,0.740661621094,-3.375,12.6875,-5.125,-2.77,0.36,9.71
1542407211067578077,304,0,/imu_data_acquisition2,24112.0,-0.0825805664062,0.136901855469,0.652465820312,0.740783691406,-3.375,13.5625,-4.625,-3.17,0.29,9.49
1542407211077826976,305,0,/imu_data_acquisition2,24120.0,-0.08349609375,0.137390136719,0.652160644531,0.740844726562,-2.8125,12.9375,-4.3125,-2.76,0.33,9.52
1542407211085170030,306,0,/imu_data_acquisition2,24130.0,-0.00628662109375,-6.103515625e-05,-6.103515625e-05,0.740966796875,-2.1875,13.75,-0.0625,-2.92,0.43,-0.01
1542407211097831964,307,0,/imu_data_acquisition2,24141.0,-0.0853881835938,0.138549804688,0.651428222656,0.741027832031,-1.9375,14.625,-4.9375,-2.92,0.49,9.58
1542407211107769966,308,0,/imu_data_acquisition2,24150.0,-0.0863647460938,0.139282226562,0.650939941406,0.7412109375,-1.875,16.375,-6.625,-2.69,0.5,9.35
1542407211116090059,309,0,/imu_data_acquisition2,24161.0,-0.0877075195312,0.140380859375,0.650329589844,0.741394042969,-2.3125,20.25,-7.875,-3.18,0.11,8.36
1542407211131567955,310,0,/imu_data_acquisition2,24177.0,-0.0891723632812,0.141540527344,0.649597167969,0.741638183594,-2.125,22.0625,-9.0,-2.55,0.6,10.63
1542407211136025905,311,0,/imu_data_acquisition2,24180.0,-0.0906372070312,0.142883300781,0.648864746094,0.741882324219,-1.125,23.375,-9.3125,-2.55,0.6,10.63
1542407211147459983,312,0,/imu_data_acquisition2,24192.0,-0.09228515625,0.144470214844,0.648071289062,0.742065429688,-0.625,27.25,-9.8125,-4.45,0.48,10.96
1542407211157891035,313,0,/imu_data_acquisition2,24201.0,-0.0939331054688,0.14599609375,0.647094726562,0.742370605469,-0.6875,26.1875,-11.8125,-3.32,-0.1,9.43
1542407211165399074,314,0,/imu_data_acquisition2,24209.0,-0.0956420898438,0.147827148438,0.64599609375,0.742797851562,1.1875,29.6875,-13.8125,-2.21,0.44,8.8
1542407211179092884,315,0,/imu_data_acquisition2,24224.0,-6.103515625e-05,-6.103515625e-05,-6.103515625e-05,0.743041992188,2.4375,33.0,-11.8125,-2.84,0.42,9.4
1542407211191812038,316,0,/imu_data_acquisition2,24237.0,-0.0994262695312,0.15234375,0.64404296875,0.743041992188,2.8125,37.625,-8.625,-3.65,0.97,9.96
1542407211197781085,317,0,/imu_data_acquisition2,24240.0,-0.1015625,0.155090332031,0.643249511719,0.742858886719,3.3125,41.6875,-6.375,-3.05,0.85,10.32
1542407211206394910,318,0,/imu_data_acquisition2,24251.0,-0.103820800781,0.158081054688,0.642456054688,0.742614746094,3.9375,44.75,-5.5625,-3.79,0.68,10.6
1542407211216929912,319,0,/imu_data_acquisition2,24260.0,-0.106079101562,0.161315917969,0.641723632812,0.742248535156,5.375,47.1875,-3.75,-3.52,0.36,9.83
1542407211232944965,320,0,/imu_data_acquisition2,24276.0,-0.108520507812,0.164978027344,0.64111328125,0.741638183594,6.375,52.5625,-1.0,-2.94,0.46,9.34
1542407211241091966,321,0,/imu_data_acquisition2,24285.0,-0.111328125,0.169128417969,0.640441894531,0.740844726562,7.1875,60.3125,-0.1875,-3.12,0.81,9.67
1542407211249037981,322,0,/imu_data_acquisition2,24290.0,-0.114624023438,0.173583984375,0.6396484375,0.739990234375,5.5,66.9375,-0.75,-2.95,1.09,9.77
1542407211256025075,323,0,/imu_data_acquisition2,24301.0,-0.118713378906,0.1787109375,0.638671875,0.738952636719,3.9375,78.9375,-2.375,-3.59,1.25,10.59
1542407211267410039,324,0,/imu_data_acquisition2,24312.0,-0.12353515625,0.1845703125,0.637329101562,0.737854003906,2.9375,91.8125,-5.5,-2.72,1.09,10.69
1542407211276668071,325,0,/imu_data_acquisition2,24320.0,-0.129516601562,0.191040039062,0.635314941406,0.736999511719,-0.5625,106.5,-14.8125,-1.81,0.95,10.87
1542407211289479017,326,0,/imu_data_acquisition2,24333.0,-0.1376953125,0.198791503906,0.632263183594,0.736083984375,-7.4375,135.8125,-26.3125,-2.47,2.16,10.25
1542407211298391103,327,0,/imu_data_acquisition2,24343.0,-0.148193359375,0.206726074219,0.628112792969,0.735412597656,-23.625,156.5,-42.9375,-3.21,1.75,10.36
1542407211309055089,328,0,/imu_data_acquisition2,24350.0,-0.161315917969,0.214904785156,0.622863769531,0.734741210938,-41.3125,179.5,-58.125,-1.24,2.41,11.93
1542407211314860105,329,0,/imu_data_acquisition2,24360.0,-0.176940917969,0.224426269531,0.616638183594,0.733520507812,-52.25,213.0625,-67.125,-2.84,1.72,-0.01
1542407211326886892,330,0,/imu_data_acquisition2,24370.0,-0.194458007812,0.236389160156,0.609130859375,0.731628417969,-48.875,252.25,-73.0,-2.57,2.04,12.88
1542407211339555978,331,0,/imu_data_acquisition2,24381.0,-0.214294433594,0.250549316406,0.600463867188,0.728515625,-52.625,294.875,-75.0625,-2.39,0.56,12.53
1542407211344944953,332,0,/imu_data_acquisition2,24390.0,-0.236206054688,0.26806640625,0.590393066406,0.723693847656,-46.6875,346.75,-73.1875,-2.6,-0.27,11.87
1542407211356121063,333,0,/imu_data_acquisition2,24400.0,-0.259582519531,0.2890625,0.578552246094,0.717163085938,-34.3125,397.125,-71.1875,-2.61,3.18,10.03
1542407211366137027,334,0,/imu_data_acquisition2,24410.0,-0.28564453125,0.312622070312,0.564880371094,0.708251953125,-40.5625,451.875,-72.0625,-6.31,1.81,6.09
1542407211375469923,335,0,/imu_data_acquisition2,24420.0,-0.3134765625,0.337768554688,0.549194335938,0.697143554688,-45.0,491.5,-75.1875,-6.49,0.36,8.32
1542407211386965990,336,0,/imu_data_acquisition2,24430.0,-0.3408203125,0.364501953125,0.531616210938,0.684387207031,-28.75,515.0625,-72.3125,-4.59,-0.27,7.69
1542407211396662950,337,0,/imu_data_acquisition2,24440.0,-0.367919921875,0.393432617188,0.511840820312,0.669250488281,-13.0,550.625,-65.125,-4.7,0.21,6.05
1542407211405776023,338,0,/imu_data_acquisition2,24450.0,-0.395080566406,0.42333984375,0.489929199219,0.651672363281,-8.5,579.3125,-63.625,-5.49,0.79,5.46
1542407211416727066,339,0,/imu_data_acquisition2,24461.0,-0.421813964844,0.452819824219,0.467834472656,0.630981445312,-21.5625,590.75,-46.25,-13.59,22.17,9.33
1542407211427642107,340,0,/imu_data_acquisition2,24469.0,-0.444885253906,0.480895996094,0.452270507812,0.605224609375,-61.5,553.875,42.75,-20.69,20.95,15.25
1542407211435825109,341,0,/imu_data_acquisition2,24480.0,-0.459777832031,0.50341796875,0.447937011719,0.578430175781,-103.125,416.375,146.375,-12.77,15.47,22.24
1542407211447257041,342,0,/imu_data_acquisition2,24491.0,-0.469787597656,0.519897460938,0.453308105469,0.550903320312,-163.125,301.3125,212.9375,-14.07,8.45,26.47
1542407211455843925,343,0,/imu_data_acquisition2,24500.0,-0.475341796875,0.528930664062,0.465637207031,0.526733398438,-197.875,168.5625,226.1875,-12.97,-5.34,28.01
1542407211465045928,344,0,/imu_data_acquisition2,24510.0,-0.475646972656,0.528259277344,0.483520507812,0.5107421875,-207.4375,-2.625,193.8125,-10.51,-11.35,26.5
1542407211477549076,345,0,/imu_data_acquisition2,24521.0,-0.471130371094,0.520141601562,0.502746582031,0.504699707031,-13.8125,-0.0625,-0.0625,-7.85,-13.68,24.25
1542407211488576889,346,0,/imu_data_acquisition2,24530.0,-0.46337890625,0.507202148438,0.519836425781,0.507690429688,-119.3125,-236.8125,60.0625,-8.39,-11.48,19.13
1542407211498169898,347,0,/imu_data_acquisition2,24542.0,-0.453369140625,0.489990234375,0.534301757812,0.5185546875,-73.0,-310.5,-14.1875,-8.53,-9.38,15.75
1542407211506879091,348,0,/imu_data_acquisition2,24551.0,-0.441711425781,0.468566894531,0.546203613281,0.535766601562,-40.5,-368.5625,-83.25,-8.34,-7.58,11.76
1542407211517832040,349,0,/imu_data_acquisition2,24562.0,-0.42919921875,0.443908691406,0.555297851562,0.55712890625,-19.125,-403.5625,-140.1875,-6.53,-3.81,4.39
1542407211529315948,350,0,/imu_data_acquisition2,24570.0,-0.416259765625,0.417907714844,0.5615234375,0.580322265625,0.1875,-410.4375,-175.3125,-6.37,-0.87,4.3
1542407211535371065,351,0,/imu_data_acquisition2,24580.0,-0.403198242188,0.392578125,0.565124511719,0.603271484375,16.625,-392.625,-188.6875,-8.96,1.24,4.36
1542407211546993017,352,0,/imu_data_acquisition2,24591.0,-0.389465332031,0.367065429688,0.568176269531,0.625122070312,17.625,-390.0,-182.0,-9.02,7.6,6.69
1542407211558048963,353,0,/imu_data_acquisition2,24601.0,-0.375183105469,0.340698242188,0.572021484375,0.644958496094,3.0,-395.875,-164.9375,-9.51,9.32,7.37
1542407211565242052,354,0,/imu_data_acquisition2,24610.0,-0.360656738281,0.312683105469,0.577819824219,0.662048339844,-26.5,-7.0625,-0.0625,-8.95,8.57,6.65
1542407211577527046,355,0,/imu_data_acquisition2,24621.0,-0.345581054688,0.283508300781,0.58544921875,0.676330566406,-48.5625,-417.4375,-106.6875,-7.94,6.47,4.98
1542407211590647935,356,0,/imu_data_acquisition2,24631.0,-0.345581054688,0.283508300781,0.58544921875,0.676330566406,-42.6875,-417.3125,-79.6875,-6.48,2.94,2.78
1542407211595784902,357,0,/imu_data_acquisition2,24641.0,-0.310729980469,0.229125976562,0.601501464844,0.699401855469,-14.125,-403.75,-58.3125,-6.43,1.9,2.58
1542407211607036113,358,0,/imu_data_acquisition2,24650.0,-0.310729980469,0.229125976562,0.601501464844,0.699401855469,26.25,-383.0625,-43.0625,-6.29,1.97,2.66
1542407211619185924,359,0,/imu_data_acquisition2,24661.0,-0.268737792969,0.187255859375,0.613525390625,0.718505859375,61.4375,-359.25,-34.6875,-6.46,2.64,4.36
1542407211625864028,360,0,/imu_data_acquisition2,24670.0,-0.246887207031,0.170654296875,-6.103515625e-05,0.726867675781,82.25,-332.0625,-29.875,-7.29,2.93,6.35
1542407211636936902,361,0,/imu_data_acquisition2,24681.0,-0.246887207031,0.170654296875,0.617736816406,0.726867675781,90.6875,-306.25,-26.9375,-8.74,3.12,9.19
1542407211649180889,362,0,/imu_data_acquisition2,24691.0,-0.225646972656,0.155944824219,0.620910644531,0.734313964844,93.3125,-293.125,-26.8125,-10.71,3.16,12.29
1542407211655307054,363,0,/imu_data_acquisition2,24700.0,-0.204772949219,0.14208984375,0.623413085938,0.741149902344,101.125,-286.25,-22.4375,-10.48,3.49,11.53
1542407211666593074,364,0,/imu_data_acquisition2,24711.0,-0.183532714844,0.129089355469,0.62548828125,0.747253417969,114.5,-280.5625,-8.625,-9.72,3.79,10.89
1542407211681258916,365,0,/imu_data_acquisition2,24721.0,-0.161560058594,0.117248535156,0.627868652344,0.752319335938,125.625,-267.6875,11.125,-9.39,3.6,10.91
1542407211685822963,366,0,/imu_data_acquisition2,24731.0,-0.116821289062,0.0985717773438,0.634521484375,0.757629394531,135.75,-251.5,34.5625,-10.03,2.79,13.5
1542407211697628974,367,0,/imu_data_acquisition2,24742.0,-0.116821289062,0.0985717773438,0.634521484375,0.757629394531,145.3125,-238.25,57.375,-10.39,2.53,14.74
1542407211707411050,368,0,/imu_data_acquisition2,24750.0,-0.09423828125,0.0916748046875,0.63916015625,0.757751464844,150.0,-230.375,76.875,-10.48,2.22,15.54
1542407211715745925,369,0,/imu_data_acquisition2,24760.0,-0.071533203125,0.0855712890625,0.644592285156,0.75634765625,148.25,-226.125,91.625,-10.48,0.41,15.81
1542407211729705095,370,0,/imu_data_acquisition2,24772.0,-0.049072265625,0.0797729492188,0.650512695312,0.753662109375,143.0,-222.25,100.75,-10.54,-0.65,-0.01
1542407211738954067,371,0,/imu_data_acquisition2,24782.0,-0.027099609375,0.0738525390625,0.65673828125,0.75,138.8125,-216.5625,104.125,-10.48,-1.63,14.56
1542407211746233940,372,0,/imu_data_acquisition2,24791.0,-0.005615234375,0.0680541992188,0.662780761719,0.745727539062,135.75,-208.875,101.6875,-10.91,-2.43,13.51
1542407211756979942,373,0,/imu_data_acquisition2,24801.0,0.0151977539062,0.0625,0.668334960938,0.741088867188,131.875,-199.1875,95.6875,-10.87,-2.58,12.68
1542407211766541004,374,0,/imu_data_acquisition2,24810.0,0.0352172851562,0.057373046875,0.673217773438,0.736389160156,131.875,-199.1875,95.6875,-10.57,-2.69,11.56
1542407211776246070,375,0,/imu_data_acquisition2,24821.0,0.0540771484375,0.0524291992188,0.677307128906,0.731811523438,114.5625,-175.3125,75.6875,-10.51,-3.61,10.09
1542407211787769079,376,0,/imu_data_acquisition2,24832.0,0.071533203125,0.0477905273438,0.680603027344,0.727600097656,108.9375,-159.125,61.0625,-10.32,-6.09,7.53
1542407211798537015,377,0,/imu_data_acquisition2,24842.0,0.087646484375,0.0439453125,-6.103515625e-05,0.723999023438,115.5625,-139.1875,46.375,-10.21,-6.38,6.1
1542407211805592060,378,0,/imu_data_acquisition2,24850.0,0.102905273438,0.041748046875,0.684143066406,0.720886230469,115.5625,-139.1875,46.375,-10.77,-6.46,4.8
1542407211817488908,379,0,/imu_data_acquisition2,24861.0,0.117370605469,0.0416870117188,0.6845703125,0.71826171875,132.0,-89.1875,20.6875,-15.13,-6.58,4.29
1542407211829480886,380,0,/imu_data_acquisition2,24872.0,0.130554199219,0.043701171875,0.684387207031,0.716003417969,126.6875,-66.125,11.875,-17.17,-5.26,3.73
1542407211836591958,381,0,/imu_data_acquisition2,24881.0,0.14208984375,0.046875,0.683898925781,0.714111328125,100.1875,-0.0625,-0.0625,-17.08,-4.22,1.61
1542407211847455978,382,0,/imu_data_acquisition2,24892.0,-6.103515625e-05,-6.103515625e-05,-6.103515625e-05,0.712707519531,47.6875,-30.4375,-2.5625,-12.05,-5.46,-2.02
1542407211856961011,383,0,/imu_data_acquisition2,24900.0,0.155700683594,0.050537109375,0.682434082031,0.71240234375,47.6875,-30.4375,-2.5625,-10.64,-5.78,-0.4
1542407211865641117,384,0,/imu_data_acquisition2,24910.0,0.154968261719,0.0505981445312,0.681640625,0.713317871094,-6.5,4.0625,-14.6875,-9.95,-4.7,2.78
1542407211877585887,385,0,/imu_data_acquisition2,24922.0,-6.103515625e-05,-6.103515625e-05,-6.103515625e-05,0.715026855469,-30.4375,70.375,-0.0625,-9.47,-3.04,5.9
1542407211887943983,386,0,/imu_data_acquisition2,24932.0,0.144470214844,0.0546264648438,0.679748535156,0.716979980469,-21.25,81.5,-30.75,-8.26,1.41,10.69
1542407211896558046,387,0,/imu_data_acquisition2,24941.0,-6.103515625e-05,-6.103515625e-05,-6.103515625e-05,0.718627929688,-18.625,80.5625,-19.0,-6.87,3.26,10.66
1542407211907190084,388,0,/imu_data_acquisition2,24951.0,0.132507324219,0.062744140625,0.678833007812,0.719482421875,-18.625,80.5625,-19.0,-5.09,3.51,9.24
1542407211916217088,389,0,/imu_data_acquisition2,24960.0,0.126281738281,0.0654907226562,0.679870605469,0.719360351562,-31.3125,75.25,1.0,-5.09,3.51,9.24
1542407211926731109,390,0,/imu_data_acquisition2,24971.0,0.118896484375,0.0665893554688,-6.103515625e-05,0.717956542969,-80.25,69.0,52.3125,19.8,5.89,17.3
1542407211937748908,391,0,/imu_data_acquisition2,24982.0,0.1103515625,0.0656127929688,0.686889648438,0.71533203125,-67.9375,78.5625,57.5625,11.32,10.3,16.02
1542407211947618007,392,0,/imu_data_acquisition2,24992.0,0.101989746094,0.06591796875,0.691467285156,0.712158203125,-94.25,113.5625,22.125,0.3,-7.53,-4.33
1542407211957000017,393,0,/imu_data_acquisition2,25002.0,0.08984375,0.0670166015625,0.694213867188,0.710998535156,-146.3125,149.125,-14.75,3.81,-8.08,5.57
1542407211967353105,394,0,/imu_data_acquisition2,25012.0,0.0722045898438,0.0675048828125,0.695190429688,0.711975097656,-146.3125,149.125,-14.75,-0.8,-10.12,19.24
1542407211977560997,395,0,/imu_data_acquisition2,25022.0,0.0545654296875,0.070068359375,0.695373535156,0.713134765625,-81.125,198.0,-36.625,-2.91,-6.83,15.2
1542407211987111091,396,0,/imu_data_acquisition2,25032.0,0.037841796875,0.077392578125,0.694458007812,0.71435546875,-13.5625,-0.0625,-0.0625,-5.86,-0.07,13.94
1542407211998521089,397,0,/imu_data_acquisition2,25043.0,0.0230712890625,0.0848999023438,0.69189453125,0.716613769531,-41.125,169.8125,-57.5625,-4.17,5.75,11.92
1542407212005340099,398,0,/imu_data_acquisition2,25050.0,0.01025390625,0.0928955078125,0.688903808594,0.71875,-41.125,169.8125,-57.5625,-4.17,5.75,11.92
1542407212016845941,399,0,/imu_data_acquisition2,25062.0,-0.00128173828125,0.100036621094,0.686767578125,0.719970703125,-37.125,153.1875,-41.8125,-7.35,0.62,16.88
1542407212030916929,400,0,/imu_data_acquisition2,25073.0,-0.0126953125,0.105651855469,0.685485839844,0.72021484375,-58.125,120.6875,-0.0625,-7.52,-1.06,16.86
1542407212037950038,401,0,/imu_data_acquisition2,25082.0,-0.0233764648438,0.109619140625,0.684875488281,0.720031738281,-55.25,88.0,-11.3125,-5.4,-1.51,14.1
1542407212047590970,402,0,/imu_data_acquisition2,25092.0,-0.0319213867188,0.111755371094,0.684448242188,0.7197265625,-42.0,59.625,-4.875,-2.98,-0.18,10.95
1542407212057591915,403,0,/imu_data_acquisition2,25102.0,-0.0380249023438,0.112915039062,0.684387207031,0.719299316406,-42.0,59.625,-4.875,-2.96,0.4,10.88
1542407212065876007,404,0,/imu_data_acquisition2,25111.0,-0.0425415039062,0.113891601562,0.684448242188,0.718872070312,-31.125,46.0,-1.875,-2.73,0.55,11.73
1542407212077729940,405,0,/imu_data_acquisition2,25122.0,-0.0465087890625,0.114868164062,0.684387207031,0.718505859375,-21.1875,37.75,-3.375,-0.71,-0.01,-0.01
1542407212088612079,406,0,/imu_data_acquisition2,25133.0,-0.0499877929688,0.115966796875,0.684265136719,0.71826171875,-13.375,34.125,-5.375,-2.79,-0.03,9.52
1542407212096851110,407,0,/imu_data_acquisition2,25142.0,-0.0528564453125,0.1171875,0.683898925781,0.718139648438,-3.8125,29.0,-4.5625,-2.81,0.62,10.08
1542407212106714010,408,0,/imu_data_acquisition2,25151.0,-0.0548095703125,0.118713378906,0.683532714844,0.718139648438,-3.8125,29.0,-4.5625,-2.81,0.62,10.08
1542407212117077112,409,0,/imu_data_acquisition2,25161.0,-0.05615234375,0.120300292969,0.683166503906,0.718078613281,1.25,24.5,-3.5,-2.4,0.46,9.68
1542407212126935005,410,0,/imu_data_acquisition2,25171.0,-0.0573120117188,0.121765136719,0.682861328125,0.718078613281,3.9375,19.375,-0.0625,-2.38,0.81,-0.01
1542407212137586116,411,0,/imu_data_acquisition2,25182.0,-0.0581665039062,0.123168945312,0.682556152344,0.718017578125,4.25,16.9375,-2.875,-2.48,1.0,9.58
1542407212148803949,412,0,/imu_data_acquisition2,25192.0,-0.0589599609375,0.124450683594,0.682250976562,0.718078613281,3.9375,15.8125,-3.3125,-2.18,0.39,9.43
1542407212156380891,413,0,/imu_data_acquisition2,25201.0,-0.0596313476562,0.125610351562,0.681884765625,0.718078613281,3.9375,15.8125,-3.3125,-2.56,0.84,9.9
1542407212166610002,414,0,/imu_data_acquisition2,25211.0,-0.060302734375,0.126770019531,0.681579589844,0.718200683594,4.25,15.375,-3.6875,-2.56,0.84,9.9
1542407212180835008,415,0,/imu_data_acquisition2,25222.0,-0.06103515625,0.1279296875,0.681274414062,0.718200683594,3.6875,16.0,-3.0,-2.8,0.9,9.58
1542407212187169075,416,0,/imu_data_acquisition2,25232.0,-0.0618896484375,0.128967285156,0.681030273438,0.718200683594,-0.625,14.8125,-0.0625,-2.26,0.94,9.88
1542407212198462009,417,0,/imu_data_acquisition2,25242.0,-0.0628051757812,0.129821777344,0.680786132812,0.718200683594,-2.3125,13.1875,-3.0,-2.16,0.84,9.72
1542407212207679033,418,0,/imu_data_acquisition2,25249.0,-0.063720703125,0.130432128906,0.680541992188,0.718200683594,-2.3125,13.1875,-3.0,-2.16,-0.01,-0.01
1542407212216065883,419,0,/imu_data_acquisition2,25261.0,-0.0648193359375,0.130981445312,0.680297851562,0.71826171875,-4.4375,13.3125,-3.9375,-2.8,0.65,9.81
1542407212229628086,420,0,/imu_data_acquisition2,25271.0,-0.06591796875,0.131225585938,0.679992675781,0.718322753906,-5.8125,12.9375,-4.3125,-2.84,0.54,9.67
1542407212239458084,421,0,/imu_data_acquisition2,25283.0,-0.0669555664062,0.131530761719,0.679748535156,0.718444824219,-5.8125,11.0625,-3.9375,-2.67,0.66,10.26
1542407212247378110,422,0,/imu_data_acquisition2,25292.0,-0.0678100585938,0.131774902344,0.679565429688,0.718444824219,-4.5,7.375,-2.5625,-2.72,0.8,10.13
1542407212258055925,423,0,/imu_data_acquisition2,25301.0,-0.0685424804688,0.131958007812,0.679443359375,0.718505859375,-4.5,7.375,-2.5625,-2.72,0.8,10.13
1542407212265189886,424,0,/imu_data_acquisition2,25310.0,-0.0692749023438,0.132080078125,0.679321289062,0.718566894531,-4.9375,7.1875,-2.5,-2.59,0.45,9.72
1542407212276757955,425,0,/imu_data_acquisition2,25321.0,-0.0699462890625,0.132141113281,0.67919921875,0.718566894531,-5.125,5.9375,-2.25,-2.71,0.57,9.91
1542407212290735006,426,0,/imu_data_acquisition2,25332.0,-0.0704956054688,0.131958007812,0.679077148438,0.718627929688,-4.8125,-0.0625,-0.0625,-2.93,0.47,9.65
1542407212299007892,427,0,/imu_data_acquisition2,25342.0,-0.071044921875,0.132019042969,0.679016113281,0.718688964844,-4.625,4.75,-1.9375,-2.6,0.64,9.72
1542407212306480884,428,0,/imu_data_acquisition2,25350.0,-0.0717163085938,0.132019042969,0.678894042969,0.718688964844,-4.9375,5.1875,-2.0625,-2.6,0.64,9.72
1542407212317320108,429,0,/imu_data_acquisition2,25360.0,-0.072265625,0.132019042969,0.678771972656,0.71875,-4.75,4.8125,-2.0625,-2.82,0.6,9.57
1542407212329329967,430,0,/imu_data_acquisition2,25372.0,-0.0728149414062,0.132080078125,0.678649902344,0.718811035156,-3.875,4.75,-2.0625,-2.41,0.59,9.41
1542407212337830066,431,0,/imu_data_acquisition2,25382.0,-0.0733032226562,0.132141113281,0.678527832031,0.718811035156,-3.1875,4.1875,-2.1875,-3.01,0.48,9.56
1542407212350797891,432,0,/imu_data_acquisition2,25393.0,-0.0737915039062,0.132141113281,0.678405761719,0.718933105469,-3.0,4.5625,-2.4375,-3.15,0.59,9.57
1542407212355942010,433,0,/imu_data_acquisition2,25400.0,-0.0742797851562,0.132141113281,0.678283691406,0.718994140625,-3.1875,3.9375,-2.5,-3.15,0.59,9.57
1542407212366172075,434,0,/imu_data_acquisition2,25410.0,-0.0747680664062,0.132202148438,0.678100585938,0.719116210938,-3.1875,4.8125,-2.8125,-2.73,0.61,9.54
1542407212376912117,435,0,/imu_data_acquisition2,25420.0,-0.0752563476562,0.132202148438,0.677917480469,0.71923828125,-3.375,4.3125,-3.125,-2.74,0.53,9.74
1542407212387109041,436,0,/imu_data_acquisition2,25432.0,-0.0132446289062,-6.103515625e-05,-6.103515625e-05,0.719360351562,-3.3125,4.25,-3.5,-2.73,0.52,9.51
1542407212397964000,437,0,/imu_data_acquisition2,25443.0,-0.0762939453125,0.132080078125,0.677490234375,0.719543457031,-3.4375,4.5,-3.625,-2.74,0.6,9.67
1542407212408375024,438,0,/imu_data_acquisition2,25451.0,-0.0767211914062,0.132080078125,0.677307128906,0.719665527344,-3.1875,4.625,-0.0625,-2.74,0.6,9.67
1542407212415745973,439,0,/imu_data_acquisition2,25461.0,-0.0772705078125,0.132080078125,0.677062988281,0.719848632812,-3.375,4.9375,-3.875,-2.87,0.41,9.76
1542407212426598072,440,0,/imu_data_acquisition2,25470.0,-0.077880859375,0.132019042969,0.676818847656,0.719970703125,-3.625,5.25,-4.0,-2.91,0.42,9.63
1542407212437657117,441,0,/imu_data_acquisition2,25482.0,-0.0784301757812,0.132019042969,0.676574707031,0.720153808594,-3.5,5.125,-4.0,-2.78,0.53,9.55
1542407212447619915,442,0,/imu_data_acquisition2,25492.0,-0.0789794921875,0.132080078125,0.676391601562,0.720336914062,-3.0,5.0,-3.75,-2.92,0.31,-0.01
1542407212456439971,443,0,/imu_data_acquisition2,25500.0,-0.0795288085938,0.132080078125,0.676147460938,0.720458984375,-2.3125,5.125,-3.5625,-2.92,0.31,9.63
1542407212465908050,444,0,/imu_data_acquisition2,25510.0,-0.0800170898438,0.132141113281,0.675903320312,0.720581054688,-1.8125,5.0625,-3.3125,-2.94,0.37,9.64
1542407212476541042,445,0,/imu_data_acquisition2,25521.0,-0.0805053710938,0.13232421875,0.675659179688,0.720764160156,-1.5625,5.25,-3.3125,-3.17,0.38,9.61
1542407212488442897,446,0,/imu_data_acquisition2,25532.0,-0.0809936523438,0.132446289062,0.675476074219,0.720886230469,-1.375,5.3125,-3.25,-2.77,0.42,9.54
1542407212498749971,447,0,/imu_data_acquisition2,25543.0,-0.0814819335938,0.132568359375,0.675231933594,0.721008300781,-1.5,5.3125,-3.5,-2.92,0.4,9.57
1542407212506772994,448,0,/imu_data_acquisition2,25550.0,-0.0819702148438,0.132751464844,0.674987792969,0.72119140625,-1.5,5.8125,-3.5625,-2.92,0.4,9.57
1542407212515328884,449,0,/imu_data_acquisition2,25560.0,-0.0824584960938,0.132934570312,0.674743652344,0.721313476562,-1.1875,6.1875,-0.0625,-2.8,0.47,9.58
1542407212526895999,450,0,/imu_data_acquisition2,25570.0,-0.0829467773438,0.133178710938,0.674438476562,0.721435546875,-1.1875,6.1875,-3.9375,-3.31,0.44,9.62
1542407212538084030,451,0,/imu_data_acquisition2,25582.0,-6.103515625e-05,-6.103515625e-05,-6.103515625e-05,0.721618652344,-1.25,6.375,-4.5,-2.96,0.57,9.57
1542407212547672986,452,0,/imu_data_acquisition2,25592.0,-0.0839233398438,0.133666992188,0.673828125,0.721801757812,-1.25,5.25,-4.375,-3.11,0.47,9.5
1542407212556960105,453,0,/imu_data_acquisition2,25601.0,-0.0843505859375,0.133850097656,0.673522949219,0.722045898438,-1.4375,5.4375,-4.625,-2.77,0.4,9.5
1542407212565298080,454,0,/imu_data_acquisition2,25610.0,-0.0847778320312,0.134033203125,0.673217773438,0.722229003906,-0.875,5.375,-4.625,-2.99,0.48,-0.01
1542407212576594114,455,0,/imu_data_acquisition2,25621.0,-0.085205078125,0.134216308594,0.672912597656,0.722412109375,-0.875,5.375,-4.625,-3.13,0.39,9.43
1542407212587589025,456,0,/imu_data_acquisition2,25632.0,-0.0856323242188,0.134521484375,0.672546386719,0.72265625,-0.5625,5.9375,-4.625,-3.06,0.22,9.42
1542407212598689079,457,0,/imu_data_acquisition2,25643.0,-0.0860595703125,0.134765625,0.672302246094,0.722839355469,-0.1875,6.0,-4.0625,-2.99,0.46,9.66
1542407212606317996,458,0,/imu_data_acquisition2,25651.0,-0.0864868164062,0.135070800781,0.671997070312,0.722961425781,0.0,6.5,-3.5625,-2.97,0.36,9.44
