%time,field.header.seq,field.header.stamp,field.header.frame_id,field.time_stamp,field.quat_x,field.quat_y,field.quat_z,field.quat_w,field.gyro_x,field.gyro_y,field.gyro_z,field.accel_x,field.accel_y,field.accel_z
1542407569133033990,85,0,/imu_data_acquisition2,25021.0,0.149597167969,0.039306640625,0.638366699219,0.754028320312,-78.375,98.4375,14.3125,6.19,0.69,11.95
1542407569142405033,86,0,/imu_data_acquisition2,25031.0,0.139404296875,0.0374145507812,0.642700195312,0.752380371094,-104.1875,69.125,49.3125,13.83,12.03,16.6
1542407569150341033,87,0,/imu_data_acquisition2,25038.0,0.128601074219,0.0406494140625,0.647705078125,0.749877929688,-69.75,120.3125,53.6875,3.54,-0.01,-0.01
1542407569158989906,88,0,/imu_data_acquisition2,25048.0,0.111328125,0.0418090820312,0.651062011719,0.749694824219,-146.0625,147.75,21.0,4.52,-7.18,-0.23
1542407569173230886,89,0,/imu_data_acquisition2,25058.0,0.091064453125,0.043701171875,0.65380859375,0.749877929688,-166.6875,176.9375,10.375,2.39,-11.28,13.5
1542407569179462909,90,0,/imu_data_acquisition2,25068.0,0.0714721679688,0.0509643554688,0.65576171875,0.749816894531,-118.5,218.0,0.3125,-8.08,-14.96,20.75
1542407569194150924,91,0,/imu_data_acquisition2,25083.0,0.0550537109375,0.0595092773438,0.655578613281,0.750793457031,-80.0625,202.6875,-26.5,-4.36,4.38,12.59
1542407569207020998,92,0,/imu_data_acquisition2,25094.0,0.0421142578125,0.0679931640625,0.653198242188,0.7529296875,-22.625,141.8125,-49.0625,-4.82,11.59,14.76
1542407569211174011,93,0,/imu_data_acquisition2,25100.0,0.0325927734375,0.075927734375,0.650695800781,0.754821777344,-22.625,141.8125,-49.0625,-4.82,11.59,14.76
1542407569220459938,94,0,/imu_data_acquisition2,25108.0,0.02294921875,0.08251953125,0.6494140625,0.755615234375,-34.0,132.0,-28.125,-6.67,1.32,16.79
1542407569230312108,95,0,/imu_data_acquisition2,25119.0,0.0128784179688,0.08642578125,0.649230957031,0.755554199219,-60.4375,112.375,-12.1875,-4.91,-2.72,16.47
1542407569243406057,96,0,/imu_data_acquisition2,25130.0,0.00408935546875,0.0880126953125,0.649230957031,0.755432128906,-66.0,82.375,-8.5,-4.89,-3.01,16.81
1542407569254254102,97,0,/imu_data_acquisition2,25142.0,-0.0023193359375,0.0892944335938,0.649230957031,0.755310058594,-47.3125,60.75,-5.5,-2.73,-0.49,11.61
1542407569263143062,98,0,/imu_data_acquisition2,25150.0,-0.0064697265625,0.0907592773438,0.649291992188,0.755065917969,-25.9375,45.125,-1.6875,-2.39,-0.19,11.13
1542407569272062063,99,0,/imu_data_acquisition2,25158.0,-0.0093994140625,0.092529296875,0.649291992188,0.754821777344,-12.5,37.875,-1.4375,-3.2,0.56,10.96
1542407569279490947,100,0,/imu_data_acquisition2,25168.0,-0.011474609375,0.0944213867188,0.649169921875,0.754699707031,-3.875,33.125,-2.125,-3.11,0.93,11.45
1542407569295037031,101,0,/imu_data_acquisition2,25183.0,-0.0126953125,0.0958862304688,0.648986816406,0.754577636719,0.75,22.9375,-1.875,-2.45,1.17,10.19
1542407569305634975,102,0,/imu_data_acquisition2,25194.0,-0.0135498046875,0.0972290039062,0.648803710938,0.754577636719,3.4375,14.5,-2.3125,-2.01,-0.01,-0.01
1542407569309202909,103,0,/imu_data_acquisition2,25198.0,-0.01416015625,0.098388671875,0.648620605469,0.754577636719,3.4375,14.5,-2.3125,-2.01,0.79,9.82
1542407569322422981,104,0,/imu_data_acquisition2,25211.0,-0.0145263671875,0.0993041992188,0.6484375,0.754638671875,3.6875,11.25,-2.3125,-1.88,1.08,9.76
1542407569332962036,105,0,/imu_data_acquisition2,25222.0,-0.0148315429688,0.10009765625,0.648193359375,0.754699707031,4.0625,9.75,-2.5625,-1.69,1.23,9.38
1542407569344635009,106,0,/imu_data_acquisition2,25232.0,-0.01513671875,0.100830078125,0.64794921875,0.754821777344,3.4375,8.5,-3.1875,-1.84,0.96,9.35
1542407569354515075,107,0,/imu_data_acquisition2,25243.0,-0.0154418945312,0.101623535156,0.647705078125,0.7548828125,3.125,9.0,-3.25,-1.57,0.53,9.85
1542407569364023923,108,0,/imu_data_acquisition2,25253.0,-0.015869140625,0.102355957031,0.647521972656,0.755004882812,2.125,10.375,-3.1875,-2.0,0.94,9.87
1542407569371045112,109,0,/imu_data_acquisition2,25258.0,-0.0164794921875,0.103149414062,0.647277832031,0.755065917969,1.3125,11.4375,-3.25,-2.2,0.89,10.23
1542407569382703065,110,0,/imu_data_acquisition2,25271.0,-0.0169677734375,0.103881835938,0.647033691406,0.755126953125,0.875,10.0,-2.9375,-1.85,1.34,10.15
1542407569395211935,111,0,/imu_data_acquisition2,25283.0,-0.0174560546875,0.104431152344,0.646850585938,0.755249023438,0.375,8.6875,-2.8125,-2.2,1.11,9.87
1542407569404223918,112,0,/imu_data_acquisition2,25291.0,-0.0179443359375,0.104797363281,0.646667480469,0.75537109375,-0.9375,6.875,-3.125,-2.2,1.11,9.87
1542407569413131952,113,0,/imu_data_acquisition2,25302.0,-0.0183715820312,0.105102539062,0.646484375,0.755432128906,-1.125,6.0,-2.875,-2.11,0.87,9.82
1542407569424673080,114,0,/imu_data_acquisition2,25310.0,-0.0188598632812,0.105407714844,0.646301269531,0.755554199219,-1.6875,4.5625,-2.6875,-2.3,1.18,9.81
1542407569430048942,115,0,/imu_data_acquisition2,25319.0,-0.019287109375,0.105590820312,0.646118164062,0.755615234375,-1.25,3.375,-2.1875,-2.1,0.93,10.09
1542407569444381952,116,0,/imu_data_acquisition2,25333.0,-0.0195922851562,0.105712890625,0.64599609375,0.755737304688,-1.5,2.375,-2.125,-2.14,0.79,9.94
1542407569450103998,117,0,/imu_data_acquisition2,25338.0,-0.0199584960938,0.105773925781,0.645874023438,0.755798339844,-1.4375,1.875,-1.5,-2.14,0.79,9.94
1542407569459453105,118,0,/imu_data_acquisition2,25348.0,-0.020263671875,0.105834960938,0.645812988281,0.755859375,-0.9375,1.25,-0.875,-2.14,0.93,9.81
1542407569474666118,119,0,/imu_data_acquisition2,25361.0,-0.0205688476562,0.105834960938,0.645812988281,0.755859375,0.0625,-0.1875,0.0,-2.29,0.63,9.89
1542407569479594945,120,0,/imu_data_acquisition2,25367.0,-0.0208129882812,0.105895996094,0.645751953125,0.755859375,0.0625,-0.1875,0.0,-2.13,0.88,-0.01
1542407569489686965,121,0,/imu_data_acquisition2,25378.0,-0.0209350585938,0.10595703125,0.645751953125,0.755859375,-0.125,0.1875,0.1875,-2.02,-0.01,-0.01
1542407569501497030,122,0,/imu_data_acquisition2,25388.0,-0.0210571289062,0.106018066406,0.645751953125,0.755859375,-0.625,0.8125,-0.125,-2.02,-0.01,-0.01
1542407569509509086,123,0,/imu_data_acquisition2,25398.0,-0.021240234375,0.106018066406,0.645751953125,0.755859375,-1.5625,1.3125,-0.6875,-1.96,0.94,9.58
1542407569520298957,124,0,/imu_data_acquisition2,25408.0,-0.0215454101562,0.106018066406,0.645629882812,0.755920410156,-2.375,2.0,-1.375,-2.02,1.07,9.53
1542407569530792951,125,0,/imu_data_acquisition2,25419.0,-0.0217895507812,0.106018066406,0.645568847656,0.755981445312,-2.375,2.0,-1.375,-2.09,1.21,9.52
1542407569546430110,126,0,/imu_data_acquisition2,25434.0,-0.0222778320312,0.106140136719,0.645446777344,0.756103515625,-3.8125,3.0625,-2.6875,-2.09,0.76,9.65
1542407569551153898,127,0,/imu_data_acquisition2,25440.0,-0.0228881835938,0.106079101562,0.645263671875,0.756225585938,-4.5625,2.75,-3.0625,-2.09,0.76,9.65
1542407569560504913,128,0,/imu_data_acquisition2,25449.0,-0.0234375,0.106079101562,0.645080566406,0.75634765625,-5.25,3.25,-3.4375,-2.15,1.07,9.76
1542407569571247100,129,0,/imu_data_acquisition2,25458.0,-0.0241088867188,0.106018066406,0.644897460938,0.756469726562,-6.0,3.5625,-3.1875,-1.91,0.79,9.7
1542407569580809116,130,0,/imu_data_acquisition2,25468.0,-0.02490234375,0.105895996094,0.644714355469,0.756652832031,-7.0625,4.0,-3.3125,-2.19,0.81,9.57
1542407569591799974,131,0,/imu_data_acquisition2,25479.0,-0.0257568359375,0.105834960938,0.644653320312,0.756713867188,-7.5625,3.8125,-2.1875,-2.41,0.89,9.68
1542407569600811004,132,0,/imu_data_acquisition2,25488.0,-0.0265502929688,0.105712890625,0.64453125,0.756774902344,-7.375,-0.0625,-0.0625,-2.21,0.8,9.57
1542407569610610961,133,0,/imu_data_acquisition2,25499.0,-0.02734375,0.105590820312,0.644409179688,0.7568359375,-6.75,2.5625,-2.0625,-2.35,0.75,9.99
1542407569621802091,134,0,/imu_data_acquisition2,25509.0,-0.0280151367188,0.10546875,0.644348144531,0.756896972656,-6.1875,2.6875,-1.8125,-2.1,0.79,9.78
1542407569628571987,135,0,/imu_data_acquisition2,25517.0,-0.0286865234375,0.105346679688,0.644287109375,0.756958007812,-6.0625,2.9375,-2.0,-2.18,0.8,9.6
1542407569640161991,136,0,/imu_data_acquisition2,25529.0,-0.0293579101562,0.105346679688,0.644165039062,0.757019042969,-5.5625,4.0625,-1.9375,-2.07,0.77,9.56
1542407569651206016,137,0,/imu_data_acquisition2,25539.0,-0.0300903320312,0.105346679688,0.64404296875,0.757080078125,-5.4375,4.5,-2.0,-2.37,0.71,9.74
1542407569658890008,138,0,/imu_data_acquisition2,25547.0,-0.03076171875,0.105407714844,0.643981933594,0.757141113281,-5.0625,4.25,-1.9375,-2.16,0.83,9.68
1542407569670809984,139,0,/imu_data_acquisition2,25559.0,-0.0313720703125,0.10546875,0.643859863281,0.757202148438,-4.8125,4.8125,-1.75,-1.98,0.76,9.7
1542407569681706905,140,0,/imu_data_acquisition2,25569.0,-0.0321044921875,0.105590820312,0.643737792969,0.757263183594,-4.75,5.5,-2.0625,-2.26,0.82,9.64
1542407569689764022,141,0,/imu_data_acquisition2,25578.0,-0.03271484375,0.105590820312,0.643676757812,0.757263183594,-5.125,4.875,-1.75,-1.95,0.89,9.43
1542407569698610067,142,0,/imu_data_acquisition2,25587.0,-0.033447265625,0.105712890625,0.6435546875,0.75732421875,-5.375,6.125,-2.75,-2.11,0.71,9.71
1542407569711191892,143,0,/imu_data_acquisition2,25597.0,-0.0342407226562,0.105895996094,0.643371582031,0.757446289062,-5.4375,7.3125,-2.9375,-2.21,0.64,9.69
1542407569721071958,144,0,/imu_data_acquisition2,25609.0,-0.0350952148438,0.106018066406,0.643188476562,0.757507324219,-5.4375,7.5,-3.0,-2.17,0.64,9.63
1542407569731843948,145,0,/imu_data_acquisition2,25618.0,-0.0360107421875,0.106323242188,0.643005371094,0.757629394531,-5.125,8.75,-3.25,-2.22,0.63,9.73
1542407569738858938,146,0,/imu_data_acquisition2,25627.0,-0.0369262695312,0.106628417969,0.642822265625,0.757690429688,-5.375,9.375,-3.3125,-2.12,0.85,9.59
1542407569749846935,147,0,/imu_data_acquisition2,25638.0,-0.037841796875,0.10693359375,0.642517089844,0.7578125,-5.625,10.3125,-4.125,-1.89,0.89,9.73
1542407569759645938,148,0,/imu_data_acquisition2,25648.0,-0.0390014648438,0.107421875,0.642211914062,0.757934570312,-6.1875,12.25,-4.875,-2.53,0.56,9.59
1542407569769037961,149,0,/imu_data_acquisition2,25657.0,-0.0402221679688,0.107849121094,0.641906738281,0.758056640625,-7.125,13.0625,-5.1875,-2.22,0.83,9.76
1542407569780011892,150,0,/imu_data_acquisition2,25668.0,-0.0416259765625,0.1083984375,0.6416015625,0.758239746094,-7.6875,15.5,-5.625,-2.66,0.71,9.73
1542407569794214010,151,0,/imu_data_acquisition2,25683.0,-0.0430297851562,0.10888671875,0.641235351562,0.758361816406,-8.375,15.3125,-0.0625,-1.87,0.63,9.5
1542407569799159049,152,0,/imu_data_acquisition2,25688.0,-0.0446166992188,0.109619140625,0.640808105469,0.758544921875,-8.375,18.25,-6.3125,-2.45,0.46,9.72
1542407569809989929,153,0,/imu_data_acquisition2,25698.0,-0.0463256835938,0.110290527344,0.640380859375,0.758666992188,-8.625,19.25,-6.625,-1.98,0.6,9.77
1542407569823761940,154,0,/imu_data_acquisition2,25712.0,-0.0481567382812,0.111206054688,-6.103515625e-05,0.758850097656,-8.5625,21.4375,-7.375,-2.88,0.45,9.8
1542407569828387022,155,0,/imu_data_acquisition2,25717.0,-0.0498657226562,0.112060546875,0.639404296875,0.759033203125,-7.75,20.5,-7.4375,-2.54,0.54,9.68
1542407569840725898,156,0,/imu_data_acquisition2,25728.0,-0.051513671875,0.112976074219,0.638977050781,0.759155273438,-7.125,20.625,-7.0,-2.54,0.27,9.7
1542407569851586103,157,0,/imu_data_acquisition2,25738.0,-0.0531616210938,0.113952636719,0.638549804688,0.75927734375,-6.875,21.875,-6.0625,-2.63,0.21,9.72
1542407569858755111,158,0,/imu_data_acquisition2,25747.0,-0.0548706054688,0.115112304688,0.638122558594,0.75927734375,-6.0,23.375,-5.625,-1.84,0.41,9.38
1542407569871016979,159,0,/imu_data_acquisition2,25758.0,-0.056640625,0.116516113281,0.637634277344,0.759338378906,-4.9375,26.125,-0.0625,-2.18,0.75,10.28
1542407569880939006,160,0,/imu_data_acquisition2,25767.0,-0.0586547851562,0.118103027344,0.637084960938,0.759460449219,-4.625,29.6875,-7.625,-3.21,0.55,9.8
1542407569890579938,161,0,/imu_data_acquisition2,25778.0,-0.0606689453125,0.119873046875,0.636352539062,0.759643554688,-3.875,30.9375,-9.625,-2.99,0.39,9.17
1542407569899787902,162,0,/imu_data_acquisition2,25787.0,-0.0626220703125,0.121459960938,0.635559082031,0.759887695312,-2.8125,31.375,-10.4375,-1.67,0.18,9.16
1542407569910327911,163,0,/imu_data_acquisition2,25798.0,-0.0647583007812,0.123657226562,0.634704589844,0.760009765625,-1.1875,36.5,-9.875,-2.39,0.45,9.62
1542407569921200037,164,0,/imu_data_acquisition2,25808.0,-0.0670166015625,0.126220703125,0.633911132812,0.760070800781,0.0,40.625,-9.125,-2.35,0.87,9.77
1542407569928457975,165,0,/imu_data_acquisition2,25817.0,-0.0695190429688,0.129272460938,0.633056640625,0.760070800781,1.5,46.75,-8.4375,-3.13,0.88,10.16
1542407569940828084,166,0,/imu_data_acquisition2,25828.0,-0.0722045898438,0.132629394531,0.632202148438,0.759948730469,2.0,50.9375,-8.25,-2.59,1.01,10.47
1542407569949836015,167,0,/imu_data_acquisition2,25838.0,-0.0751953125,0.136413574219,0.63134765625,0.759704589844,3.0625,57.4375,-7.6875,-2.82,0.04,9.86
1542407569958780050,168,0,/imu_data_acquisition2,25848.0,-0.0783081054688,0.140869140625,0.63037109375,0.759399414062,6.1875,64.5625,-6.875,-2.42,0.46,9.82
1542407569970738887,169,0,/imu_data_acquisition2,25858.0,-0.0819091796875,0.146301269531,0.62939453125,0.7587890625,9.8125,78.0,-5.375,-1.82,0.66,10.15
1542407569979314088,170,0,/imu_data_acquisition2,25867.0,-0.0859985351562,0.15283203125,0.628295898438,0.757934570312,12.5625,91.6875,-4.0,-3.27,0.98,9.77
1542407569989475011,171,0,/imu_data_acquisition2,25878.0,-0.090576171875,0.160034179688,0.627197265625,0.7568359375,13.625,101.5,-3.0,-2.68,1.12,10.5
1542407570000618934,172,0,/imu_data_acquisition2,25888.0,-0.0960083007812,0.16796875,0.625915527344,0.755493164062,10.75,115.625,-3.3125,-3.19,1.51,10.5
1542407570009221076,173,0,/imu_data_acquisition2,25898.0,-0.102783203125,0.176452636719,0.624328613281,0.753967285156,3.6875,130.875,-6.5,-2.43,1.72,10.37
1542407570020176887,174,0,/imu_data_acquisition2,25909.0,-0.111206054688,0.185119628906,0.622131347656,0.752563476562,-8.375,145.25,-16.1875,-2.47,2.42,10.69
1542407570028516054,175,0,/imu_data_acquisition2,25917.0,-0.122192382812,0.193786621094,0.618896484375,0.751342773438,-28.25,165.3125,-32.6875,-2.61,2.21,10.48
1542407570039640903,176,0,/imu_data_acquisition2,25928.0,-0.136108398438,0.202514648438,0.614685058594,0.750061035156,-51.875,188.1875,-15.25,-0.48,2.23,12.11
1542407570050476074,177,0,/imu_data_acquisition2,25938.0,-0.15283203125,0.212829589844,0.609069824219,0.748596191406,-62.4375,226.0,-62.625,-2.68,3.38,12.66
1542407570058676958,178,0,/imu_data_acquisition2,25947.0,-0.1728515625,0.225830078125,0.601867675781,0.746276855469,-69.5625,278.375,-74.125,-1.63,3.81,14.37
1542407570069971084,179,0,/imu_data_acquisition2,25958.0,-0.1962890625,0.24169921875,0.5927734375,0.742736816406,-77.3125,335.625,-85.625,-2.06,3.25,14.58
1542407570080338954,180,0,/imu_data_acquisition2,25968.0,-0.222473144531,0.261108398438,0.581237792969,0.737915039062,-71.875,395.25,-97.0625,-2.94,0.7,12.15
1542407570089108943,181,0,/imu_data_acquisition2,25978.0,-6.103515625e-05,-6.103515625e-05,-6.103515625e-05,0.731262207031,-59.875,454.875,-0.0625,-4.54,2.36,10.58
1542407570100744009,182,0,/imu_data_acquisition2,25989.0,-0.281372070312,0.308227539062,0.55078125,0.722839355469,-76.5,489.9375,-116.75,-7.43,5.68,10.82
1542407570109509944,183,0,/imu_data_acquisition2,25998.0,-0.315551757812,0.327514648438,0.533996582031,0.712707519531,-139.0625,481.6875,-138.625,-4.1,1.17,10.18
1542407570119743108,184,0,/imu_data_acquisition2,26008.0,-0.351196289062,0.343505859375,0.516662597656,0.701232910156,-175.3125,469.5,-152.25,-8.09,-1.39,16.19
1542407570129988908,185,0,/imu_data_acquisition2,26018.0,-0.351196289062,0.343505859375,0.516662597656,0.701232910156,-158.5625,343.875,-131.0625,-19.39,-2.47,32.22
1542407570139520883,186,0,/imu_data_acquisition2,26028.0,-0.3935546875,0.354614257812,0.496337890625,0.687744140625,-98.0,147.5625,-82.0625,-1.96,0.32,28.54
1542407570150104999,187,0,/imu_data_acquisition2,26039.0,-0.398315429688,0.354370117188,0.491638183594,0.688537597656,-16.6875,44.6875,-63.8125,-1.32,2.27,20.83
1542407570162662982,188,0,/imu_data_acquisition2,26048.0,-0.397766113281,0.352172851562,0.488891601562,0.69189453125,18.75,-22.3125,-50.5,1.75,2.78,13.38
1542407570172310113,189,0,/imu_data_acquisition2,26059.0,-0.395690917969,0.348937988281,0.487426757812,0.695739746094,22.5625,-47.9375,-40.75,2.3,3.55,8.35
1542407570181329011,190,0,/imu_data_acquisition2,26069.0,-0.393981933594,0.345153808594,0.4873046875,0.69873046875,6.625,-4.875,-0.0625,1.47,4.04,5.98
1542407570192131996,191,0,/imu_data_acquisition2,26079.0,-0.392578125,0.3408203125,0.48876953125,0.700622558594,-10.5625,-58.3125,-13.75,0.86,3.74,6.97
1542407570202239036,192,0,/imu_data_acquisition2,26089.0,-0.390563964844,0.335815429688,0.491821289062,0.702026367188,-18.0,-72.625,2.0,0.3,3.34,8.9
1542407570210688114,193,0,/imu_data_acquisition2,26099.0,-0.386962890625,0.330017089844,0.496520996094,0.703430175781,-15.625,-96.3125,18.3125,-1.27,2.85,12.94
1542407570221035003,194,0,/imu_data_acquisition2,26109.0,-0.386962890625,0.330017089844,0.496520996094,0.703430175781,-7.0625,-127.5625,33.4375,-2.08,2.37,14.03
1542407570230586051,195,0,/imu_data_acquisition2,26119.0,-0.372314453125,0.315246582031,0.510559082031,0.708068847656,7.9375,-164.25,45.6875,-2.2,1.76,14.0
1542407570240288972,196,0,/imu_data_acquisition2,26129.0,-0.360900878906,0.306030273438,0.519409179688,0.711547851562,22.5,-6.375,-0.0625,-2.38,1.11,10.94
1542407570251530885,197,0,/imu_data_acquisition2,26139.0,-0.347595214844,0.295532226562,0.528930664062,0.715576171875,30.4375,-225.5625,58.6875,-2.22,0.45,9.79
1542407570261101961,198,0,/imu_data_acquisition2,26149.0,-0.333068847656,0.283996582031,0.53857421875,0.719970703125,35.125,-244.0,58.3125,-2.49,-0.07,9.14
1542407570269782066,199,0,/imu_data_acquisition2,26158.0,-0.317626953125,0.271545410156,0.547973632812,0.724609375,38.8125,-257.0,53.0625,-3.95,-1.49,9.46
1542407570284168004,200,0,/imu_data_acquisition2,26172.0,-0.301208496094,0.258178710938,0.556762695312,0.729797363281,46.0,-271.0625,44.3125,-4.72,-1.72,9.64
1542407570290568113,201,0,/imu_data_acquisition2,26178.0,-0.301208496094,0.258178710938,0.556762695312,0.729797363281,55.625,-282.4375,33.25,-5.03,-1.86,8.8
1542407570299766063,202,0,/imu_data_acquisition2,26188.0,-0.283630371094,0.244201660156,0.564636230469,0.735595703125,62.8125,-288.875,18.6875,-2.25,-0.01,-0.01
1542407570315232038,203,0,/imu_data_acquisition2,26203.0,-0.247375488281,0.215209960938,0.576232910156,0.748657226562,69.25,-283.375,2.3125,-5.43,-2.46,6.51
1542407570323914051,204,0,/imu_data_acquisition2,26210.0,-0.229614257812,0.201354980469,0.579467773438,0.755615234375,75.0,-271.0,-13.5,-6.33,-1.81,8.07
1542407570329452991,205,0,/imu_data_acquisition2,26218.0,-0.212036132812,0.188049316406,0.581359863281,0.7626953125,80.625,-262.0,-26.125,-6.88,-1.13,9.88
1542407570341362953,206,0,/imu_data_acquisition2,26229.0,-0.212036132812,0.188049316406,0.581359863281,0.7626953125,89.375,-258.4375,-33.0,-7.61,0.34,-0.01
1542407570352514028,207,0,/imu_data_acquisition2,26239.0,-0.194030761719,0.175109863281,0.582275390625,0.769836425781,99.625,-257.0,-32.625,-8.01,1.25,11.43
1542407570359747886,208,0,/imu_data_acquisition2,26249.0,-0.175354003906,0.162719726562,0.582763671875,0.776611328125,106.0,-252.375,-27.375,-8.09,1.51,10.54
1542407570371597051,209,0,/imu_data_acquisition2,26259.0,-0.156311035156,0.150939941406,0.583068847656,0.782836914062,112.0625,-240.25,-18.375,-7.94,1.09,8.48
1542407570381299018,210,0,/imu_data_acquisition2,26269.0,-0.137268066406,0.140319824219,0.583435058594,0.7880859375,120.25,-218.625,-7.625,-8.84,1.25,9.84
1542407570392426013,211,0,/imu_data_acquisition2,26280.0,-0.118530273438,0.131530761719,0.583923339844,0.792236328125,129.5625,-6.3125,-0.0625,-10.19,1.78,12.83
1542407570401493072,212,0,/imu_data_acquisition2,26289.0,-0.100036621094,0.124694824219,0.584655761719,0.795349121094,136.0,-191.8125,21.5,-10.98,2.94,15.2
1542407570410587072,213,0,/imu_data_acquisition2,26299.0,-0.0811767578125,0.118713378906,0.586181640625,0.797302246094,130.4375,-194.3125,41.25,-10.6,3.95,17.05
1542407570420967102,214,0,/imu_data_acquisition2,26309.0,-0.0623168945312,0.1123046875,0.5888671875,0.797973632812,118.8125,-198.5,60.1875,-11.03,2.66,18.0
1542407570429238080,215,0,/imu_data_acquisition2,26318.0,-0.0438842773438,0.105163574219,0.592712402344,0.797302246094,118.8125,-208.1875,82.875,-10.62,2.56,17.44
1542407570440753936,216,0,/imu_data_acquisition2,26329.0,-0.0247192382812,0.0973510742188,0.597900390625,0.795227050781,116.5625,-216.9375,104.125,-9.32,1.97,14.29
1542407570451288938,217,0,/imu_data_acquisition2,26340.0,-0.00506591796875,0.0888671875,0.604248046875,0.791809082031,107.5,-218.875,121.5,-8.87,1.14,12.92
1542407570459821939,218,0,/imu_data_acquisition2,26349.0,0.0142211914062,0.0797729492188,0.611511230469,0.787109375,98.0,-213.75,134.25,-8.45,0.25,11.0
1542407570471118927,219,0,/imu_data_acquisition2,26360.0,0.0326538085938,0.0704345703125,0.619323730469,0.78125,90.5625,-198.75,140.4375,-8.78,-1.91,10.52
1542407570481324911,220,0,/imu_data_acquisition2,26369.0,0.0498657226562,0.0616455078125,0.627380371094,0.774658203125,90.5625,-198.75,140.4375,-9.55,-2.48,12.41
1542407570490050077,221,0,/imu_data_acquisition2,26379.0,0.0657348632812,0.0537109375,-6.103515625e-05,0.767700195312,82.125,-172.0,132.625,-9.79,-2.83,12.99
1542407570501590013,222,0,/imu_data_acquisition2,26390.0,0.0808715820312,0.0462036132812,0.642333984375,0.7607421875,78.5625,-168.6875,121.75,-9.35,-3.31,12.14
1542407570512200117,223,0,/imu_data_acquisition2,26400.0,0.0955810546875,0.038818359375,0.648559570312,0.754150390625,73.75,-162.6875,106.875,-8.28,-5.33,9.06
1542407570519392967,224,0,/imu_data_acquisition2,26408.0,0.109497070312,0.0316162109375,0.653686523438,0.748107910156,73.75,-162.6875,106.875,-8.0,-6.26,7.84
1542407570530776977,225,0,/imu_data_acquisition2,26419.0,0.122619628906,0.0252685546875,0.657653808594,0.742858886719,72.375,-0.0625,-0.0625,-8.06,-6.73,7.13
1542407570542388916,226,0,/imu_data_acquisition2,26430.0,0.134826660156,0.0205078125,0.660217285156,0.738586425781,80.6875,-113.125,43.1875,-8.92,-6.18,6.83
1542407570550113916,227,0,/imu_data_acquisition2,26439.0,0.146240234375,0.0174560546875,0.661376953125,0.735412597656,81.3125,-95.75,21.6875,-9.23,-5.54,6.35
1542407570561686038,228,0,/imu_data_acquisition2,26450.0,0.156677246094,0.0158081054688,0.661437988281,0.733276367188,74.1875,-79.3125,2.25,-9.53,-4.95,5.54
1542407570570700883,229,0,/imu_data_acquisition2,26458.0,0.165710449219,0.0150146484375,0.660400390625,0.732299804688,74.1875,-79.3125,2.25,-10.25,-4.07,4.43
1542407570580383062,230,0,/imu_data_acquisition2,26469.0,0.172973632812,0.0148315429688,0.658508300781,0.732299804688,61.875,-62.1875,-14.75,-10.14,-3.21,3.62
1542407570592403888,231,0,/imu_data_acquisition2,26480.0,0.178588867188,0.0151977539062,0.656127929688,0.733093261719,38.0625,-27.3125,-31.9375,-10.03,-2.14,2.98
1542407570600852012,232,0,/imu_data_acquisition2,26489.0,0.182434082031,0.0160522460938,-6.103515625e-05,0.734313964844,23.6875,-7.0,-30.5,-9.59,0.03,2.99
1542407570611603021,233,0,/imu_data_acquisition2,26500.0,0.184204101562,0.0173950195312,0.651611328125,0.735595703125,7.5625,14.125,-22.25,-9.43,0.87,3.54
1542407570620961904,234,0,/imu_data_acquisition2,26508.0,0.183898925781,0.01904296875,0.650451660156,0.736694335938,7.5625,14.125,-22.25,-9.43,0.87,3.54
1542407570630227088,235,0,/imu_data_acquisition2,26518.0,-6.103515625e-05,-6.103515625e-05,-6.103515625e-05,0.737243652344,-9.25,33.375,-8.0,-9.07,1.81,4.41
1542407570642313003,236,0,/imu_data_acquisition2,26530.0,0.17724609375,0.0224609375,0.651977539062,0.736938476562,-32.875,66.125,31.8125,-9.03,1.32,4.61
1542407570651467084,237,0,/imu_data_acquisition2,26540.0,0.171630859375,0.0242919921875,0.654968261719,0.735534667969,-37.8125,80.875,53.3125,-9.13,0.8,5.1
1542407570661422014,238,0,/imu_data_acquisition2,26550.0,0.164916992188,0.0264282226562,0.659484863281,0.73291015625,-39.875,93.0,73.0625,-6.91,1.93,6.55
1542407570669090986,239,0,/imu_data_acquisition2,26557.0,0.157409667969,0.0289916992188,0.665405273438,0.729125976562,-39.875,93.0,73.0625,-6.91,1.93,6.55
1542407570681699991,240,0,/imu_data_acquisition2,26570.0,0.150085449219,0.0308837890625,0.671875,0.724670410156,-30.3125,88.3125,79.3125,17.55,15.93,19.43
1542407570690845012,241,0,/imu_data_acquisition2,26580.0,0.143432617188,0.0335693359375,0.677856445312,0.720275878906,-103.125,141.375,13.5,6.23,0.1,-0.97
1542407570702636957,242,0,/imu_data_acquisition2,26591.0,0.129089355469,0.0360717773438,0.6806640625,0.720275878906,-189.0625,180.8125,-31.625,1.52,-6.75,12.19
1542407570716957092,243,0,/imu_data_acquisition2,26604.0,0.107055664062,0.0365600585938,0.681091308594,0.723388671875,-153.8125,185.375,-28.9375,-1.65,-7.54,21.55
1542407570722027063,244,0,/imu_data_acquisition2,26611.0,0.0869140625,0.039306640625,0.681335449219,0.725708007812,-94.6875,203.9375,-23.6875,-6.96,-1.0,-0.01
1542407570734112024,245,0,/imu_data_acquisition2,26622.0,0.0692749023438,0.0465087890625,0.681579589844,0.726989746094,-80.9375,177.125,-46.625,-0.7,-10.1,12.55
1542407570744200944,246,0,/imu_data_acquisition2,26630.0,0.0538940429688,0.052978515625,0.679931640625,0.729370117188,-43.4375,170.8125,-52.25,-6.22,3.67,15.13
1542407570752036094,247,0,/imu_data_acquisition2,26641.0,-6.103515625e-05,-6.103515625e-05,-6.103515625e-05,0.731689453125,-27.375,148.8125,-40.9375,-3.75,5.6,15.04
1542407570763955116,248,0,/imu_data_acquisition2,26652.0,0.0210571289062,0.075439453125,0.674499511719,0.734130859375,-32.375,132.125,-27.0,-4.06,4.99,15.65
1542407570768856048,249,0,/imu_data_acquisition2,26657.0,0.0210571289062,0.075439453125,0.674499511719,0.734130859375,-32.375,132.125,-27.0,-4.06,4.99,15.65
1542407570780513048,250,0,/imu_data_acquisition2,26669.0,0.0117797851562,0.0809326171875,0.673950195312,0.734252929688,-36.1875,121.5,-15.8125,-4.06,0.26,13.98
1542407570792062997,251,0,/imu_data_acquisition2,26680.0,0.00372314453125,0.0844116210938,0.673645019531,0.734191894531,-39.8125,75.1875,-5.0,-2.21,-0.43,11.46
1542407570802258968,252,0,/imu_data_acquisition2,26690.0,-6.103515625e-05,-6.103515625e-05,-6.103515625e-05,0.733947753906,-7.8125,-0.0625,-0.0625,-3.13,-0.26,11.98
1542407570812889099,253,0,/imu_data_acquisition2,26701.0,-0.00897216796875,0.0889282226562,0.673645019531,0.733642578125,-30.4375,56.0625,-5.625,-3.24,0.99,11.5
1542407570822138071,254,0,/imu_data_acquisition2,26710.0,-0.0140991210938,0.0906982421875,0.673461914062,0.733520507812,-30.4375,56.0625,-5.625,-3.24,0.99,11.5
1542407570828712940,255,0,/imu_data_acquisition2,26718.0,-0.0184326171875,0.09228515625,0.673217773438,0.733459472656,-24.375,48.75,-6.25,-2.6,1.07,12.01
1542407570842093944,256,0,/imu_data_acquisition2,26729.0,-0.0220336914062,0.0938720703125,0.672668457031,0.733642578125,-17.5625,42.3125,-9.8125,-2.51,0.72,9.97
1542407570852405071,257,0,/imu_data_acquisition2,26740.0,-0.0242309570312,0.095703125,0.672058105469,0.73388671875,-4.125,33.375,-8.9375,-2.7,0.36,10.36
1542407570861274957,258,0,/imu_data_acquisition2,26750.0,-0.0256958007812,0.0973510742188,0.671630859375,0.734008789062,3.375,19.25,-6.5,-2.2,0.65,10.24
1542407570871745109,259,0,/imu_data_acquisition2,26759.0,-0.026611328125,0.0987548828125,0.671142578125,0.734252929688,3.375,19.25,-6.5,-2.2,0.65,10.24
1542407570878984928,260,0,/imu_data_acquisition2,26768.0,-0.0271606445312,0.0999145507812,0.670715332031,0.734497070312,5.0,14.5,-5.6875,-1.92,0.79,10.31
1542407570891484975,261,0,/imu_data_acquisition2,26780.0,-0.0275268554688,0.100952148438,-6.103515625e-05,0.734619140625,5.375,11.8125,-4.5,-2.11,1.18,9.83
1542407570904939889,262,0,/imu_data_acquisition2,26793.0,-0.02783203125,0.10205078125,0.670104980469,0.734680175781,5.75,10.5625,-1.5,-2.01,0.61,9.89
1542407570915255069,263,0,/imu_data_acquisition2,26803.0,-0.028076171875,0.10302734375,0.669921875,0.734741210938,5.625,8.6875,0.1875,-1.81,1.26,10.02
1542407570921339035,264,0,/imu_data_acquisition2,26810.0,-0.0282592773438,0.103881835938,0.669860839844,0.734680175781,5.625,8.6875,0.1875,-2.08,1.21,9.79
1542407570932431936,265,0,/imu_data_acquisition2,26820.0,-0.0283813476562,0.104614257812,0.669799804688,0.734619140625,4.4375,7.4375,0.375,-1.76,1.06,9.78
1542407570944032907,266,0,/imu_data_acquisition2,26829.0,-0.0286254882812,0.105163574219,0.669738769531,0.734558105469,2.3125,6.4375,-0.625,-1.76,1.06,9.78
1542407570951641082,267,0,/imu_data_acquisition2,26840.0,-0.0288696289062,0.105407714844,0.669555664062,0.734619140625,0.5625,4.625,-1.8125,-2.4,1.08,9.93
1542407570963901042,268,0,/imu_data_acquisition2,26850.0,-0.0291748046875,0.105712890625,0.669372558594,0.734802246094,-0.5625,4.9375,-3.6875,-2.04,1.05,9.69
1542407570968632936,269,0,/imu_data_acquisition2,26857.0,-0.029541015625,0.105895996094,0.669128417969,0.734985351562,-1.1875,3.75,-3.5,-2.04,1.05,9.69
1542407570979881048,270,0,/imu_data_acquisition2,26868.0,-0.02978515625,0.106018066406,0.6689453125,0.735107421875,-1.125,3.0,-3.25,-2.07,0.44,10.04
1542407570993510961,271,0,/imu_data_acquisition2,26880.0,-0.030029296875,0.106018066406,0.668762207031,0.735229492188,-1.375,1.875,-2.625,-2.02,0.79,-0.01
1542407571002178907,272,0,/imu_data_acquisition2,26890.0,-0.0301513671875,0.106079101562,0.668640136719,0.7353515625,-1.0625,1.625,-1.625,-1.77,0.93,9.88
1542407571012278079,273,0,/imu_data_acquisition2,26901.0,-0.0303955078125,0.106140136719,0.668579101562,0.7353515625,-0.6875,2.625,-1.0625,-2.17,0.99,9.96
1542407571020232915,274,0,/imu_data_acquisition2,26908.0,-0.0304565429688,0.106262207031,0.668579101562,0.7353515625,0.3125,1.4375,0.5,-2.17,0.99,9.96
1542407571028604984,275,0,/imu_data_acquisition2,26917.0,-0.0305786132812,0.1064453125,0.668579101562,0.7353515625,0.9375,1.75,0.4375,-2.42,0.97,9.85
1542407571042876005,276,0,/imu_data_acquisition2,26932.0,-0.030517578125,0.106506347656,0.668579101562,0.7353515625,0.9375,-0.1875,0.1875,-2.19,0.98,9.76
1542407571054148912,277,0,/imu_data_acquisition2,26942.0,-0.0304565429688,0.106567382812,0.668579101562,0.7353515625,0.9375,-0.1875,0.1875,-2.07,0.96,9.69
1542407571062170028,278,0,/imu_data_acquisition2,26951.0,-0.0303344726562,0.106567382812,0.668579101562,0.7353515625,1.1875,-1.0625,0.125,-1.99,0.94,9.64
1542407571071667909,279,0,/imu_data_acquisition2,26958.0,-0.0145874023438,-6.103515625e-05,-6.103515625e-05,0.7353515625,1.1875,-1.0625,0.125,-1.99,0.94,9.64
1542407571081831932,280,0,/imu_data_acquisition2,26970.0,-0.0301513671875,0.106628417969,0.668518066406,0.7353515625,1.1875,-0.5625,0.0,-2.42,0.9,9.63
1542407571091861009,281,0,/imu_data_acquisition2,26980.0,-0.0300903320312,0.106689453125,0.668518066406,0.735412597656,0.875,-0.75,-0.125,-1.95,1.12,9.44
1542407571102334976,282,0,/imu_data_acquisition2,26991.0,-0.030029296875,0.106750488281,0.668518066406,0.735412597656,0.6875,-0.8125,-0.25,-2.19,1.11,9.59
1542407571112443923,283,0,/imu_data_acquisition2,27001.0,-0.030029296875,0.106750488281,0.668518066406,0.735412597656,0.5,-0.625,-0.5,-2.27,0.96,9.74
1542407571121822118,284,0,/imu_data_acquisition2,27008.0,-0.030029296875,0.106750488281,0.66845703125,0.735412597656,0.4375,-1.0625,-0.625,-2.27,0.96,9.74
1542407571129095077,285,0,/imu_data_acquisition2,27018.0,-0.0299682617188,0.106750488281,0.668395996094,0.735473632812,0.0,-1.5,-0.8125,-2.16,0.83,9.54
1542407571140460014,286,0,/imu_data_acquisition2,27029.0,-0.0299072265625,0.106628417969,0.668334960938,0.735595703125,-0.1875,-1.8125,-1.125,-1.84,0.97,9.59
1542407571152385950,287,0,/imu_data_acquisition2,27040.0,-0.02978515625,0.106506347656,0.668273925781,0.735656738281,-0.1875,-2.625,-1.3125,-2.08,0.83,9.61
1542407571161761999,288,0,/imu_data_acquisition2,27050.0,-0.02978515625,0.106384277344,0.668151855469,0.735778808594,-0.25,-2.0625,-1.625,-2.18,0.86,9.76
1542407571171480894,289,0,/imu_data_acquisition2,27059.0,-0.02978515625,0.106262207031,-6.103515625e-05,0.735900878906,-0.6875,-1.375,-1.6875,-2.18,0.86,9.76
1542407571180022001,290,0,/imu_data_acquisition2,27068.0,-0.0298461914062,0.106140136719,0.66796875,0.735961914062,-1.125,-1.25,-1.625,-2.03,0.94,9.72
1542407571190227985,291,0,/imu_data_acquisition2,27078.0,-0.030029296875,0.106079101562,0.667907714844,0.736022949219,-1.25,-0.5,-1.125,-2.09,0.8,9.72
1542407571201687097,292,0,/imu_data_acquisition2,27090.0,-0.0145874023438,-6.103515625e-05,-6.103515625e-05,0.736083984375,-1.5625,-0.1875,-0.875,-2.17,0.81,9.58
1542407571213232040,293,0,/imu_data_acquisition2,27101.0,-0.0302734375,0.105895996094,0.667785644531,0.736145019531,-1.3125,0.4375,-0.875,-2.45,0.91,9.63
1542407571222851037,294,0,/imu_data_acquisition2,27108.0,-0.030517578125,0.10595703125,0.667724609375,0.736206054688,-1.1875,1.25,-1.0,-2.45,0.91,9.63
1542407571232997894,295,0,/imu_data_acquisition2,27122.0,-0.0308227539062,0.106079101562,0.667602539062,0.736267089844,-1.4375,2.4375,-0.0625,-1.85,0.76,9.68
1542407571240297079,296,0,/imu_data_acquisition2,27129.0,-0.0155029296875,-6.103515625e-05,-6.103515625e-05,0.736328125,-1.4375,2.4375,-1.75,-1.85,0.76,9.68
1542407571251560926,297,0,/imu_data_acquisition2,27140.0,-0.0314331054688,0.106201171875,0.667419433594,0.736389160156,-1.4375,2.25,-1.8125,-2.26,0.85,9.64
1542407571261862039,298,0,/imu_data_acquisition2,27150.0,-6.103515625e-05,-6.103515625e-05,-6.103515625e-05,0.736450195312,-1.6875,3.5625,-1.5625,-2.14,0.8,9.5
1542407571270653009,299,0,/imu_data_acquisition2,27158.0,-0.0322875976562,0.106506347656,0.667175292969,0.736511230469,-2.5625,4.5,-1.8125,-1.98,0.73,9.64
1542407571280438899,300,0,/imu_data_acquisition2,27168.0,-0.0327758789062,0.106628417969,0.667114257812,0.736572265625,-2.875,4.6875,-1.8125,-2.02,0.88,9.82
1542407571290184974,301,0,/imu_data_acquisition2,27178.0,-0.0333862304688,0.106811523438,0.6669921875,0.736633300781,-2.9375,5.5625,-1.75,-2.51,0.98,9.76
1542407571301165103,302,0,/imu_data_acquisition2,27190.0,-6.103515625e-05,-6.103515625e-05,-6.103515625e-05,0.736633300781,-3.25,6.1875,-2.0,-2.22,0.85,9.54
1542407571312489986,303,0,/imu_data_acquisition2,27201.0,-0.03466796875,0.107299804688,0.666748046875,0.736755371094,-4.0,6.375,-2.5625,-2.23,-0.01,-0.01
1542407571321722030,304,0,/imu_data_acquisition2,27208.0,-0.0354614257812,0.107543945312,0.666564941406,0.73681640625,-4.5625,7.75,-3.0,-2.28,1.08,9.67
1542407571328974962,305,0,/imu_data_acquisition2,27217.0,-0.0362548828125,0.107788085938,0.666381835938,0.736938476562,-5.0625,8.125,-3.3125,-1.82,1.08,9.64
1542407571340189933,306,0,/imu_data_acquisition2,27228.0,-6.103515625e-05,-6.103515625e-05,-6.103515625e-05,0.736999511719,-5.9375,9.0625,-4.0,-2.57,0.87,9.64
1542407571350944042,307,0,/imu_data_acquisition2,27239.0,-0.038330078125,0.1083984375,-6.103515625e-05,0.737182617188,-6.75,11.0,-4.6875,-1.94,0.82,9.73
1542407571361915111,308,0,/imu_data_acquisition2,27251.0,-0.0394287109375,0.108703613281,0.665588378906,0.7373046875,-7.0625,11.5625,-4.375,-2.38,0.77,9.76
1542407571370862960,309,0,/imu_data_acquisition2,27258.0,-0.0407104492188,0.109130859375,0.665344238281,0.737426757812,-6.875,13.4375,-4.8125,-1.92,0.74,9.85
1542407571381316900,310,0,/imu_data_acquisition2,27268.0,-0.0419311523438,0.109497070312,-6.103515625e-05,0.737548828125,-6.875,13.25,-4.625,-2.28,0.62,9.96
1542407571389965057,311,0,/imu_data_acquisition2,27278.0,-0.0120239257812,-6.103515625e-05,-6.103515625e-05,0.737670898438,-6.625,15.375,-5.0,-2.26,0.78,-0.01
1542407571401382923,312,0,/imu_data_acquisition2,27289.0,-0.044677734375,0.110656738281,0.664428710938,0.73779296875,-6.75,16.5625,-5.4375,-1.87,0.71,9.51
1542407571411252021,313,0,/imu_data_acquisition2,27300.0,-0.0462036132812,0.111511230469,0.664001464844,0.737915039062,-6.125,20.25,-6.125,-1.91,0.94,9.75
1542407571420969009,314,0,/imu_data_acquisition2,27308.0,-0.0478515625,0.112487792969,0.66357421875,0.738037109375,-6.0625,22.125,-6.1875,-2.48,0.49,9.7
1542407571428819894,315,0,/imu_data_acquisition2,27317.0,-0.0497436523438,0.113708496094,0.663146972656,0.738159179688,-6.0,25.375,-6.3125,-2.63,0.65,9.68
1542407571439918994,316,0,/imu_data_acquisition2,27328.0,-0.0515747070312,0.114990234375,0.662719726562,0.738159179688,-5.4375,25.6875,-5.5625,-2.62,0.56,9.49
1542407571453510999,317,0,/imu_data_acquisition2,27341.0,-0.0535278320312,0.116455078125,0.662292480469,0.738220214844,-4.75,28.0625,-6.25,-2.6,0.6,8.61
1542407571461599111,318,0,/imu_data_acquisition2,27350.0,-0.0556640625,0.118103027344,0.661743164062,0.73828125,-5.1875,31.3125,-6.875,-2.38,0.36,9.38
1542407571469789981,319,0,/imu_data_acquisition2,27358.0,-0.05810546875,0.119995117188,0.6611328125,0.738342285156,-5.6875,36.25,-8.125,-1.08,-0.01,-0.01
1542407571481324911,320,0,/imu_data_acquisition2,27370.0,-0.060791015625,0.122009277344,0.660461425781,0.738403320312,-6.0625,39.0,-8.4375,-2.68,1.45,11.1
1542407571490030050,321,0,/imu_data_acquisition2,27378.0,-0.0635986328125,0.124389648438,0.659790039062,0.738342285156,-5.125,43.625,-7.9375,-3.62,0.82,10.36
1542407571502094030,322,0,/imu_data_acquisition2,27390.0,-0.0665283203125,0.126770019531,0.658996582031,0.738403320312,-5.8125,43.8125,-9.9375,-2.61,0.71,8.2
1542407571513472080,323,0,/imu_data_acquisition2,27401.0,-0.0693969726562,0.129272460938,0.658142089844,0.738464355469,-4.3125,44.5,-10.25,-2.7,0.93,9.49
1542407571520529985,324,0,/imu_data_acquisition2,27408.0,-0.0723266601562,0.131958007812,0.657287597656,0.738464355469,-3.3125,47.375,-9.3125,-2.96,0.97,9.39
1542407571528459072,325,0,/imu_data_acquisition2,27417.0,-0.0752563476562,0.134765625,0.656616210938,0.73828125,-3.0,47.8125,-6.625,-2.08,0.71,9.37
1542407571540308952,326,0,/imu_data_acquisition2,27428.0,-0.0783081054688,0.137878417969,0.656005859375,0.737915039062,-1.4375,52.5625,-4.5,-3.18,0.42,10.63
1542407571552319049,327,0,/imu_data_acquisition2,27440.0,-0.08154296875,0.141479492188,0.655456542969,0.737365722656,0.5,57.5,-2.8125,-2.86,0.9,10.02
1542407571560781955,328,0,/imu_data_acquisition2,27450.0,-0.00677490234375,-6.103515625e-05,-6.103515625e-05,0.736755371094,1.4375,62.125,-1.8125,-2.28,0.7,9.91
1542407571570379018,329,0,/imu_data_acquisition2,27459.0,-0.0885009765625,0.14990234375,0.654235839844,0.735961914062,3.75,69.0625,-1.1875,-3.41,0.76,9.62
1542407571579740047,330,0,/imu_data_acquisition2,27467.0,-0.09228515625,0.155029296875,0.653564453125,0.735046386719,7.5,76.25,-0.625,-2.24,1.15,9.87
1542407571589446067,331,0,/imu_data_acquisition2,27478.0,-0.09619140625,0.160766601562,0.652770996094,0.734069824219,10.0,82.875,0.125,-2.96,1.34,9.75
1542407571602112054,332,0,/imu_data_acquisition2,27490.0,-0.100830078125,0.167358398438,0.651672363281,0.73291015625,11.5625,96.5625,-1.375,-3.81,1.89,9.98
1542407571611380100,333,0,/imu_data_acquisition2,27500.0,-0.106201171875,0.174560546875,0.650268554688,0.731689453125,10.625,107.875,-4.9375,-2.46,1.36,10.9
1542407571620305061,334,0,/imu_data_acquisition2,27508.0,-0.112426757812,0.182006835938,0.648254394531,0.730773925781,5.6875,116.875,-13.875,-2.05,1.62,10.36
1542407571630026102,335,0,/imu_data_acquisition2,27517.0,-0.120056152344,0.18994140625,0.6455078125,0.729919433594,-0.25,132.6875,-23.4375,-3.12,1.65,10.23
1542407571640253067,336,0,/imu_data_acquisition2,27528.0,-0.00469970703125,-6.103515625e-05,-6.103515625e-05,0.728881835938,-10.875,155.4375,-28.9375,-1.3,2.26,12.39
1542407571651485919,337,0,/imu_data_acquisition2,27540.0,-0.142150878906,0.20849609375,0.637878417969,0.727600097656,-24.5625,189.625,-42.5,-0.77,3.44,13.38
1542407571659306049,338,0,/imu_data_acquisition2,27548.0,-0.158508300781,0.220642089844,0.632263183594,0.725524902344,-6.3125,-0.0625,-0.0625,-1.33,2.77,13.48
1542407571670207023,339,0,/imu_data_acquisition2,27558.0,-0.178649902344,0.235961914062,0.625061035156,0.722290039062,-46.0625,304.875,-61.5,-1.89,2.51,14.67
1542407571680299043,340,0,/imu_data_acquisition2,27567.0,-0.202392578125,0.254089355469,0.615966796875,0.717651367188,-53.0625,363.1875,-71.75,-1.5,2.06,12.26
1542407571689199924,341,0,/imu_data_acquisition2,27578.0,-0.229248046875,0.276062011719,0.604614257812,0.711120605469,-49.3125,429.3125,-76.25,-2.73,2.74,11.57
1542407571701201915,342,0,/imu_data_acquisition2,27590.0,-0.259033203125,0.302001953125,0.5908203125,0.701904296875,-13.0,-0.0625,-0.0625,-6.61,0.68,10.34
1542407571711400032,343,0,/imu_data_acquisition2,27599.0,-0.290588378906,0.328125,0.575073242188,0.690795898438,-57.5,526.625,-85.9375,-3.2,1.08,10.26
1542407571719497919,344,0,/imu_data_acquisition2,27608.0,-0.322448730469,0.352966308594,0.5576171875,0.678649902344,-65.0,527.5625,-98.5625,-6.37,0.84,12.98
1542407571731069087,345,0,/imu_data_acquisition2,27618.0,-0.353576660156,0.375183105469,0.538391113281,0.666625976562,-69.1875,508.25,-120.3125,-19.4,-1.58,31.75
1542407571740194082,346,0,/imu_data_acquisition2,27628.0,-0.374633789062,0.386535644531,-6.103515625e-05,0.658996582031,-67.625,312.1875,-0.0625,-0.34,1.93,32.85
1542407571751544952,347,0,/imu_data_acquisition2,27640.0,-0.382995605469,0.386413574219,0.521301269531,0.657409667969,-54.8125,76.5,-60.375,-2.67,3.04,24.64
1542407571759284973,348,0,/imu_data_acquisition2,27647.0,-0.385559082031,0.382995605469,0.519653320312,0.659301757812,-25.1875,-12.0625,-51.8125,1.55,1.59,15.05
1542407571770018100,349,0,/imu_data_acquisition2,27658.0,-0.385437011719,0.376403808594,0.520141601562,0.662719726562,-26.125,-69.8125,-46.25,2.69,0.5,5.86
1542407571779831886,350,0,/imu_data_acquisition2,27668.0,-0.384704589844,0.368591308594,0.521545410156,0.666442871094,-31.1875,-89.125,-44.875,2.48,0.73,4.81
1542407571788748025,351,0,/imu_data_acquisition2,27677.0,-0.383911132812,0.3603515625,0.523376464844,0.669921875,-37.0625,-93.125,-40.875,1.79,1.43,5.51
1542407571800600051,352,0,/imu_data_acquisition2,27689.0,-0.382934570312,0.351623535156,-6.103515625e-05,0.673095703125,-42.5,-100.25,-35.0625,0.66,2.75,9.18
1542407571811542987,353,0,/imu_data_acquisition2,27699.0,-0.381408691406,0.342102050781,-6.103515625e-05,0.676086425781,-48.625,-114.5625,-25.75,-0.71,3.36,11.22
1542407571819149017,354,0,/imu_data_acquisition2,27708.0,-0.378784179688,0.331848144531,0.534545898438,0.678771972656,-51.4375,-132.125,-12.875,-1.43,3.34,12.5
1542407571830811023,355,0,/imu_data_acquisition2,27719.0,-0.374328613281,0.320190429688,0.541076660156,0.681579589844,-50.8125,-162.1875,0.5625,-1.8,2.48,11.57
1542407571840157985,356,0,/imu_data_acquisition2,27728.0,-0.367614746094,0.307373046875,0.549072265625,0.684753417969,-44.375,-193.1875,12.625,-2.07,2.03,10.48
1542407571849183082,357,0,/imu_data_acquisition2,27738.0,-0.35888671875,0.293762207031,0.557861328125,0.688293457031,-34.1875,-218.6875,20.6875,-2.32,1.57,9.58
1542407571860551118,358,0,/imu_data_acquisition2,27749.0,-0.348327636719,0.279602050781,0.56689453125,0.692138671875,-22.6875,-236.6875,24.9375,-2.96,1.15,9.35
1542407571874288082,359,0,/imu_data_acquisition2,27760.0,-0.336364746094,0.26513671875,0.575866699219,0.696411132812,-10.875,-250.25,24.875,-4.08,0.33,9.36
1542407571879323005,360,0,/imu_data_acquisition2,27768.0,-0.322937011719,0.250183105469,0.584411621094,0.701110839844,0.6875,-263.75,21.125,-4.36,0.29,8.85
1542407571891043901,361,0,/imu_data_acquisition2,27779.0,-0.308288574219,0.234802246094,0.592346191406,0.706359863281,11.5,-274.8125,13.875,-4.65,0.12,8.24
1542407571902436017,362,0,/imu_data_acquisition2,27790.0,-0.29296875,0.219055175781,0.599304199219,0.712036132812,19.125,-280.75,3.4375,-5.36,-0.68,8.15
1542407571909914970,363,0,/imu_data_acquisition2,27798.0,-0.277221679688,0.203186035156,0.605102539062,0.718139648438,26.375,-281.5,-9.0,-5.57,-1.2,8.45
1542407571922677040,364,0,/imu_data_acquisition2,27811.0,-0.261047363281,0.187194824219,0.609375,0.724914550781,34.4375,-281.4375,-25.4375,-6.27,-1.51,8.97
1542407571931255102,365,0,/imu_data_acquisition2,27820.0,-0.244506835938,0.171508789062,0.611938476562,0.732360839844,46.5625,-278.6875,-43.6875,-2.14,-0.01,-0.01
1542407571941678047,366,0,/imu_data_acquisition2,27829.0,-0.227355957031,0.156433105469,0.61279296875,0.740478515625,60.875,-274.0625,-60.375,-7.61,-0.98,10.05
1542407571950198888,367,0,/imu_data_acquisition2,27838.0,-0.209533691406,0.142211914062,0.612182617188,0.749084472656,77.3125,-268.5625,-72.6875,-7.96,-0.29,10.34
1542407571958976030,368,0,/imu_data_acquisition2,27848.0,-0.191162109375,0.129028320312,0.610534667969,0.757690429688,91.9375,-260.5625,-78.75,-8.59,0.41,11.38
1542407571970688104,369,0,/imu_data_acquisition2,27859.0,-0.172302246094,0.117004394531,0.608337402344,0.765869140625,104.0,-251.5,-77.625,-9.58,2.87,12.58
1542407571980756044,370,0,/imu_data_acquisition2,27869.0,-0.152770996094,0.10693359375,0.607421875,0.772216796875,118.8125,-239.125,-47.125,-9.43,4.6,-0.01
1542407571991066932,371,0,/imu_data_acquisition2,27878.0,-0.133117675781,0.0968017578125,0.606201171875,0.778076171875,118.8125,-239.125,-47.125,-9.28,5.58,12.58
1542407572002052068,372,0,/imu_data_acquisition2,27889.0,-0.113830566406,0.0872802734375,0.606384277344,0.782104492188,115.3125,-231.375,-19.75,-8.52,3.65,10.57
1542407572011331081,373,0,/imu_data_acquisition2,27900.0,-0.0945434570312,0.0809326171875,0.60986328125,0.78271484375,130.1875,-202.5625,39.0,-8.6,2.32,11.1
1542407572021275997,374,0,/imu_data_acquisition2,27909.0,-0.07470703125,0.0765991210938,0.614379882812,0.78173828125,147.25,-187.375,63.0625,-9.17,1.48,12.6
1542407572029402971,375,0,/imu_data_acquisition2,27918.0,-6.103515625e-05,-6.103515625e-05,-6.103515625e-05,0.779479980469,153.625,-180.125,81.75,-9.85,0.95,14.96
1542407572039580106,376,0,/imu_data_acquisition2,27927.0,-0.0350952148438,0.0695190429688,0.625915527344,0.776000976562,146.0625,-178.0625,96.375,-10.05,0.47,15.32
1542407572048305988,377,0,/imu_data_acquisition2,27937.0,-0.0164794921875,0.0650024414062,0.632568359375,0.771606445312,130.3125,-178.75,107.1875,-9.9,-0.52,15.16
1542407572062347888,378,0,/imu_data_acquisition2,27948.0,0.00115966796875,0.0596923828125,0.639465332031,0.766540527344,115.0,-177.875,113.75,-9.83,-1.21,14.84
1542407572073395013,379,0,/imu_data_acquisition2,27959.0,0.017822265625,0.0538330078125,0.646301269531,0.760925292969,102.375,-175.6875,116.5,-9.44,-2.48,13.04
1542407572078834056,380,0,/imu_data_acquisition2,27967.0,0.0335693359375,0.0477294921875,0.652893066406,0.755187988281,91.8125,-170.25,114.6875,-9.35,-2.59,12.18
1542407572091684103,381,0,/imu_data_acquisition2,27978.0,0.0482788085938,0.0416870117188,0.658996582031,0.749389648438,83.75,-162.0625,109.9375,-9.19,-2.67,11.51
1542407572100884914,382,0,/imu_data_acquisition2,27988.0,0.0620727539062,0.0359497070312,-6.103515625e-05,0.743774414062,78.1875,-152.25,103.625,-8.8,-2.46,10.17
1542407572108640909,383,0,/imu_data_acquisition2,27997.0,0.0748901367188,0.0308227539062,0.669494628906,0.738342285156,74.75,-140.4375,95.0625,-8.7,-2.77,9.73
1542407572120527982,384,0,/imu_data_acquisition2,28008.0,0.0872192382812,0.026611328125,0.673828125,0.733276367188,77.4375,-128.75,86.1875,-8.89,-3.52,9.34
1542407572129417896,385,0,/imu_data_acquisition2,28018.0,0.099365234375,0.0236206054688,0.677490234375,0.728393554688,85.0,-117.5625,77.75,-8.68,-4.1,8.01
1542407572139336109,386,0,/imu_data_acquisition2,28028.0,0.11083984375,0.0216064453125,0.6806640625,0.723876953125,87.5,-104.375,69.0,-8.46,-3.98,7.15
1542407572150744915,387,0,/imu_data_acquisition2,28038.0,0.121032714844,0.0203247070312,0.683349609375,0.7197265625,81.75,-88.5625,60.5625,-8.44,-4.18,6.28
1542407572159667968,388,0,/imu_data_acquisition2,28048.0,0.129638671875,0.0197143554688,0.685607910156,0.716064453125,72.625,-70.875,51.75,-9.16,-5.27,5.51
1542407572170048952,389,0,/imu_data_acquisition2,28058.0,0.13671875,0.019775390625,0.687316894531,0.713073730469,65.0625,-53.375,40.4375,-9.92,-5.9,5.39
1542407572178479909,390,0,/imu_data_acquisition2,28067.0,0.142578125,0.0206298828125,0.688354492188,0.7109375,59.625,-38.375,26.4375,-10.26,-5.98,5.04
1542407572189660072,391,0,/imu_data_acquisition2,28078.0,0.146911621094,0.0220336914062,0.688598632812,0.709716796875,49.25,-22.625,10.375,-10.43,-5.33,4.2
1542407572200201034,392,0,/imu_data_acquisition2,28089.0,0.14892578125,0.0235595703125,0.688293457031,0.709594726562,30.1875,-4.0,-3.6875,-9.76,-3.69,3.31
1542407572209453105,393,0,/imu_data_acquisition2,28097.0,0.148559570312,-6.103515625e-05,-6.103515625e-05,0.710205078125,9.625,16.125,-13.6875,-9.46,-3.03,3.72
1542407572220062971,394,0,/imu_data_acquisition2,28108.0,0.146362304688,0.02734375,0.68701171875,0.711242675781,-2.875,34.0625,-17.625,-9.11,-2.33,4.29
1542407572230273962,395,0,/imu_data_acquisition2,28119.0,0.142944335938,0.0301513671875,0.686767578125,0.712036132812,-7.3125,50.25,-14.875,-8.34,-0.23,4.91
1542407572241359949,396,0,/imu_data_acquisition2,28129.0,0.138488769531,0.0335693359375,0.687133789062,0.71240234375,-10.75,65.875,-7.0625,-8.11,0.78,5.17
1542407572250267982,397,0,/imu_data_acquisition2,28138.0,-6.103515625e-05,-6.103515625e-05,-6.103515625e-05,0.712097167969,-17.1875,79.5625,4.25,-8.23,1.52,5.78
1542407572258744001,398,0,/imu_data_acquisition2,28148.0,0.125366210938,0.0400390625,0.691040039062,0.710754394531,-39.375,88.5,26.0,4.0,6.67,11.66
1542407572270750999,399,0,/imu_data_acquisition2,28158.0,0.117004394531,0.0401611328125,0.695129394531,0.708129882812,-67.1875,76.8125,52.0,18.54,10.87,22.67
1542407572279654026,400,0,/imu_data_acquisition2,28168.0,0.106811523438,0.0406494140625,0.698913574219,0.705993652344,-80.5625,93.8125,43.8125,14.38,10.55,18.37
1542407572288896083,401,0,/imu_data_acquisition2,28178.0,0.0914306640625,0.0413818359375,0.701416015625,0.705627441406,-123.5625,137.0,15.5625,5.76,0.31,-0.01
1542407572300107955,402,0,/imu_data_acquisition2,28188.0,0.0742797851562,0.0422973632812,0.70361328125,0.705383300781,-136.1875,152.6875,10.75,2.13,-7.56,8.45
1542407572310153961,403,0,/imu_data_acquisition2,28198.0,0.058837890625,0.046875,0.705627441406,0.70458984375,-90.9375,169.0,11.5625,-1.06,-8.63,18.77
1542407572319000959,404,0,/imu_data_acquisition2,28207.0,0.0451049804688,0.0523681640625,0.705993652344,0.704895019531,-69.25,160.75,-10.875,-5.45,-10.45,18.19
1542407572330035924,405,0,/imu_data_acquisition2,28218.0,0.0330200195312,0.0570678710938,0.7041015625,0.70703125,-61.75,137.75,-43.875,0.72,-7.96,12.9
1542407572339379072,406,0,/imu_data_acquisition2,28228.0,0.0230102539062,0.0643920898438,0.70166015625,0.709228515625,-21.8125,142.3125,-48.375,-4.12,1.59,15.2
1542407572348905086,407,0,/imu_data_acquisition2,28238.0,0.0142822265625,0.0715942382812,0.699584960938,0.710815429688,-12.125,130.875,-38.6875,-4.33,6.28,13.63
1542407572360119104,408,0,/imu_data_acquisition2,28249.0,0.0059814453125,0.077392578125,0.6982421875,0.711608886719,-20.875,116.8125,-26.0625,-3.23,4.19,13.83
1542407572369451045,409,0,/imu_data_acquisition2,28258.0,-0.002197265625,0.0822143554688,0.697448730469,0.7119140625,-28.1875,107.625,-17.125,-3.97,1.16,13.81
1542407572379285097,410,0,/imu_data_acquisition2,28268.0,-0.0093994140625,0.0858764648438,0.696716308594,0.712158203125,-29.75,90.25,-13.75,-2.75,-0.4,13.47
1542407572390619039,411,0,/imu_data_acquisition2,28279.0,-0.015869140625,0.0889892578125,0.696105957031,0.712219238281,-28.3125,80.0,-11.5,-2.95,0.14,12.43
1542407572400034904,412,0,/imu_data_acquisition2,28288.0,-0.0219116210938,0.0912475585938,0.695678710938,0.712158203125,-32.125,69.0,-9.4375,-3.24,3.09,11.36
1542407572409851074,413,0,/imu_data_acquisition2,28298.0,-0.028076171875,0.0927124023438,0.695373535156,0.712097167969,-39.25,62.6875,-8.4375,-2.64,2.44,10.91
1542407572420838117,414,0,/imu_data_acquisition2,28309.0,-0.0339965820312,0.0933837890625,0.695068359375,0.712036132812,-44.3125,54.875,-7.875,-2.92,1.74,12.7
1542407572429181098,415,0,/imu_data_acquisition2,28318.0,-0.0389404296875,0.0936889648438,0.694519042969,0.712280273438,-38.75,43.625,-9.125,-3.32,-1.57,11.83
1542407572440336942,416,0,/imu_data_acquisition2,28329.0,-0.0422973632812,0.0941772460938,0.694213867188,0.712341308594,-24.375,31.375,-6.625,-2.33,-0.66,11.08
1542407572449354887,417,0,/imu_data_acquisition2,28337.0,-0.0447998046875,0.094970703125,0.693969726562,0.712341308594,-14.0625,27.5625,-5.0,-2.53,0.25,10.46
1542407572459996938,418,0,/imu_data_acquisition2,28348.0,-0.0466918945312,0.0958862304688,0.693603515625,0.71240234375,-7.75,23.3125,-4.625,-1.75,-0.37,10.5
1542407572470307111,419,0,/imu_data_acquisition2,28359.0,-0.0479736328125,0.096923828125,0.693298339844,0.712463378906,-2.0,19.6875,-4.125,-1.8,0.14,10.53
1542407572479227066,420,0,/imu_data_acquisition2,28367.0,-0.0490112304688,0.0980224609375,0.693237304688,0.712341308594,1.0625,17.3125,-3.625,-1.89,0.42,9.82
1542407572490458965,421,0,/imu_data_acquisition2,28379.0,-0.0497436523438,0.09912109375,0.692993164062,0.71240234375,3.1875,14.875,-2.9375,-1.65,-0.17,9.67
1542407572500282049,422,0,/imu_data_acquisition2,28389.0,-0.0501708984375,0.100280761719,0.692810058594,0.71240234375,6.125,14.0625,-1.4375,-1.52,0.29,9.65
1542407572509246110,423,0,/imu_data_acquisition2,28397.0,-0.0504760742188,0.101501464844,0.692626953125,0.712341308594,7.4375,12.6875,-1.0625,-1.35,0.08,9.91
1542407572520627975,424,0,/imu_data_acquisition2,28409.0,-0.0507202148438,0.102783203125,0.6923828125,0.712341308594,8.5625,12.9375,-0.9375,-1.64,0.69,9.81
1542407572530251979,425,0,/imu_data_acquisition2,28418.0,-0.0509643554688,0.104125976562,0.692260742188,0.712280273438,9.125,13.125,-0.9375,-1.69,1.04,9.92
1542407572538603067,426,0,/imu_data_acquisition2,28427.0,-0.05126953125,0.105407714844,0.692016601562,0.712280273438,8.5,14.0625,-1.5,-1.86,0.7,9.97
1542407572550884962,427,0,/imu_data_acquisition2,28439.0,-0.0516357421875,0.106750488281,0.691772460938,0.712341308594,8.25,13.5625,-2.1875,-1.77,0.94,9.78
1542407572559875965,428,0,/imu_data_acquisition2,28448.0,-0.0519409179688,0.10791015625,0.69140625,0.712463378906,7.625,12.9375,-3.625,-1.95,0.7,9.87
1542407572570179939,429,0,/imu_data_acquisition2,28459.0,-0.05224609375,0.109069824219,0.691040039062,0.712585449219,7.3125,11.875,-4.125,-1.99,0.72,9.77
1542407572578588008,430,0,/imu_data_acquisition2,28467.0,-0.05224609375,0.109069824219,0.691040039062,0.712585449219,6.75,11.8125,-4.1875,-2.05,0.79,9.99
1542407572590112924,431,0,/imu_data_acquisition2,28478.0,-0.052978515625,0.111083984375,0.690612792969,0.712707519531,5.5,11.0,-3.875,-1.92,0.29,9.82
1542407572599495887,432,0,/imu_data_acquisition2,28488.0,-0.0533447265625,0.112060546875,0.690307617188,0.712768554688,5.3125,11.3125,-3.0625,-2.35,0.83,9.96
1542407572609972000,433,0,/imu_data_acquisition2,28498.0,-0.00677490234375,-6.103515625e-05,-6.103515625e-05,0.712829589844,4.75,10.25,-2.125,-1.97,0.67,9.9
1542407572618963003,434,0,/imu_data_acquisition2,28508.0,-0.0536499023438,0.112976074219,0.690124511719,0.712829589844,4.0,9.8125,-1.25,-2.25,1.0,9.92
1542407572629633903,435,0,/imu_data_acquisition2,28518.0,-0.0540161132812,0.113830566406,0.68994140625,0.712829589844,2.4375,8.3125,-1.625,-2.11,0.9,9.99
1542407572639923095,436,0,/imu_data_acquisition2,28528.0,-0.054443359375,0.114379882812,0.690307617188,0.712341308594,1.0625,7.5625,-2.6875,-2.24,0.99,10.03
1542407572649199962,437,0,/imu_data_acquisition2,28538.0,-0.0548095703125,0.114929199219,0.690124511719,0.71240234375,0.4375,6.3125,-3.25,-2.31,-0.01,-0.01
1542407572660382032,438,0,/imu_data_acquisition2,28549.0,-0.0552368164062,0.115295410156,0.689880371094,0.712524414062,0.1875,4.6875,-2.9375,-1.71,0.7,9.85
1542407572669998884,439,0,/imu_data_acquisition2,28559.0,-0.0553588867188,0.115295410156,0.689697265625,0.712707519531,-0.375,4.4375,-2.8125,-2.15,0.8,9.71
1542407572679721117,440,0,/imu_data_acquisition2,28568.0,-0.0555419921875,0.115417480469,0.689575195312,0.712829589844,-1.0,4.5625,-2.25,-2.11,0.78,9.75
1542407572688679933,441,0,/imu_data_acquisition2,28577.0,-0.0557861328125,0.115478515625,0.689392089844,0.712890625,-1.1875,4.625,-2.125,-2.3,0.91,9.65
1542407572700422048,442,0,/imu_data_acquisition2,28589.0,-0.0560913085938,0.115661621094,0.689270019531,0.713012695312,-1.1875,3.8125,-2.0,-2.11,0.89,9.81
1542407572712301015,443,0,/imu_data_acquisition2,28599.0,-0.0563354492188,0.11572265625,0.689147949219,0.713073730469,-1.375,3.0625,-1.625,-2.11,0.84,9.66
1542407572719548940,444,0,/imu_data_acquisition2,28608.0,-0.0567016601562,0.115783691406,0.689025878906,0.713195800781,-1.5625,2.6875,-1.6875,-2.29,0.8,9.73
1542407572730478048,445,0,/imu_data_acquisition2,28619.0,-0.0568237304688,0.115661621094,0.688903808594,0.713256835938,-2.0,1.625,-1.6875,-2.09,0.81,9.81
1542407572740473985,446,0,/imu_data_acquisition2,28629.0,-0.0568237304688,0.115661621094,0.688903808594,0.713256835938,-2.25,2.375,-2.5625,-2.49,0.97,9.72
1542407572748718023,447,0,/imu_data_acquisition2,28637.0,-0.0570678710938,0.115661621094,0.688781738281,0.71337890625,-2.5625,1.4375,-2.5625,-2.05,0.68,9.65
1542407572760173082,448,0,/imu_data_acquisition2,28649.0,-0.0572509765625,0.115539550781,0.688659667969,0.713500976562,-2.5,1.875,-2.8125,-2.34,0.7,9.8
1542407572771589040,449,0,/imu_data_acquisition2,28659.0,-0.0576782226562,0.115356445312,0.688415527344,0.713745117188,-2.5625,1.9375,-1.625,-2.01,0.92,9.72
1542407572778558969,450,0,/imu_data_acquisition2,28667.0,-0.0576782226562,0.115356445312,0.688415527344,0.713745117188,-2.5625,1.9375,-1.625,-2.4,0.64,9.47
1542407572791059017,451,0,/imu_data_acquisition2,28679.0,-0.05810546875,0.115234375,0.68896484375,0.713195800781,-2.4375,2.6875,-1.625,-2.2,0.55,9.53
1542407572801601886,452,0,/imu_data_acquisition2,28690.0,-0.0584106445312,0.115173339844,0.688903808594,0.713256835938,-2.3125,4.0625,-1.75,-2.37,0.86,9.62
1542407572810602903,453,0,/imu_data_acquisition2,28698.0,-0.0119018554688,-6.103515625e-05,-6.103515625e-05,0.713317871094,-2.625,4.0,-2.0625,-2.02,0.8,9.56
1542407572823328971,454,0,/imu_data_acquisition2,28710.0,-0.0595703125,0.115417480469,0.688537597656,0.713500976562,-2.5625,5.125,-2.6875,-2.35,0.71,9.67
1542407572833200931,455,0,/imu_data_acquisition2,28722.0,-0.06005859375,0.115417480469,0.688903808594,0.713073730469,-2.8125,5.375,-2.875,-2.07,0.81,9.8
1542407572841203927,456,0,/imu_data_acquisition2,28730.0,-0.06005859375,0.115417480469,0.688903808594,0.713073730469,-2.9375,6.0,-2.875,-2.29,0.84,9.7
1542407572853384017,457,0,/imu_data_acquisition2,28739.0,-0.060546875,0.115600585938,0.688781738281,0.713134765625,-3.5,6.5,-3.1875,-2.06,0.75,9.56
1542407572864955902,458,0,/imu_data_acquisition2,28753.0,-0.061767578125,0.115905761719,0.688415527344,0.713317871094,-3.875,8.0625,-3.0,-2.53,0.66,9.51
1542407572871856927,459,0,/imu_data_acquisition2,28759.0,-0.061767578125,0.115905761719,0.688415527344,0.713317871094,-4.0625,8.5625,-4.0625,-2.39,0.87,9.69
1542407572880899906,460,0,/imu_data_acquisition2,28769.0,-0.0625,0.116149902344,0.688171386719,0.713500976562,-4.0625,8.3125,-4.125,-2.01,0.9,9.68
1542407572901072978,461,0,/imu_data_acquisition2,28789.0,-0.06396484375,0.116516113281,0.68798828125,0.713439941406,-4.8125,10.375,-4.8125,-2.0,0.6,9.56
1542407572908680915,462,0,/imu_data_acquisition2,28797.0,-0.0648193359375,0.116760253906,0.687744140625,0.713562011719,-5.0,10.875,-4.8125,-2.0,0.6,9.56
1542407572912116050,463,0,/imu_data_acquisition2,28801.0,-0.0657958984375,0.117065429688,0.687377929688,0.713745117188,-5.25,12.1875,-5.3125,-2.42,0.58,9.64
1542407572933509111,465,0,/imu_data_acquisition2,28818.0,-0.0668334960938,0.117370605469,0.687072753906,0.7138671875,-5.125,13.0,-5.0,-2.52,0.61,9.71
1542407572939718961,466,0,/imu_data_acquisition2,28829.0,-0.0679321289062,0.117858886719,-6.103515625e-05,0.714111328125,-5.375,14.5,-5.75,-2.18,0.84,9.7
1542407572950978040,467,0,/imu_data_acquisition2,28839.0,-0.0689697265625,0.118286132812,0.686340332031,0.714233398438,-5.9375,15.75,-6.375,-2.41,0.77,9.59
1542407572961267948,468,0,/imu_data_acquisition2,28850.0,-0.0701904296875,0.118774414062,0.685974121094,0.714416503906,-6.375,17.75,-6.4375,-2.49,0.71,9.63
