%time,field.header.seq,field.header.stamp,field.header.frame_id,field.time_stamp,field.quat_x,field.quat_y,field.quat_z,field.quat_w,field.gyro_x,field.gyro_y,field.gyro_z,field.accel_x,field.accel_y,field.accel_z
1541793260847184896,1,0,/imu_data_acquisition2,93741.0,-0.247009277344,0.08154296875,0.350158691406,0.899841308594,87.5,-124.9375,61.0625,1.68,0.57,12.44
1541793260857322931,2,0,/imu_data_acquisition2,93751.0,-0.235778808594,0.075439453125,0.359069824219,0.89990234375,86.0625,-137.875,87.5625,0.2,-0.21,12.78
1541793260866811990,3,0,/imu_data_acquisition2,93761.0,-0.227233886719,0.0672607421875,0.370300292969,0.898193359375,41.25,-152.5,111.625,-3.35,-6.67,16.29
1541793260881725072,4,0,/imu_data_acquisition2,93776.0,-0.0131225585938,-6.103515625e-05,-6.103515625e-05,0.897277832031,65.875,-173.9375,95.4375,-1.51,2.1,8.1
1541793260885909080,5,0,/imu_data_acquisition2,93780.0,-0.206115722656,0.049560546875,0.39111328125,0.895568847656,57.8125,-161.4375,106.8125,-3.54,3.59,10.85
1541793260895282030,6,0,/imu_data_acquisition2,93790.0,-0.200622558594,0.0393676757812,0.405151367188,0.89111328125,-7.8125,-164.9375,147.75,-3.91,-3.92,10.16
1541793260905325889,7,0,/imu_data_acquisition2,93800.0,-0.192321777344,0.0311889648438,0.419006347656,0.886840820312,31.125,-156.8125,151.3125,-5.75,2.63,11.22
1541793260915324926,8,0,/imu_data_acquisition2,93810.0,-0.185363769531,0.0226440429688,0.434875488281,0.880920410156,11.75,-158.5,178.875,-5.8,0.12,10.05
1541793260925384998,9,0,/imu_data_acquisition2,93820.0,-0.177551269531,0.01513671875,0.451416015625,0.874328613281,24.0625,-153.125,191.875,-6.34,2.08,10.12
1541793260935354948,10,0,/imu_data_acquisition2,93830.0,-0.17041015625,0.00811767578125,0.468811035156,0.866638183594,16.75,-145.4375,207.8125,-7.07,0.0,9.93
1541793260945297956,11,0,/imu_data_acquisition2,93840.0,-0.163879394531,0.0018310546875,0.486450195312,0.858215332031,13.125,-135.625,215.875,-7.25,-0.22,9.9
1541793260955297946,12,0,/imu_data_acquisition2,93850.0,-0.157531738281,-0.00360107421875,0.503601074219,0.849426269531,16.125,-125.0625,214.25,-7.29,-0.51,9.68
1541793260965270042,13,0,/imu_data_acquisition2,93860.0,-0.151733398438,-0.00836181640625,0.520080566406,0.840515136719,14.0,-113.6875,210.125,-7.19,-1.58,9.23
1541793260980415105,14,0,/imu_data_acquisition2,93872.0,-0.00531005859375,-6.103515625e-05,-6.103515625e-05,0.831787109375,20.5,-100.5625,199.0625,-6.67,-1.77,8.43
1541793260986639976,15,0,/imu_data_acquisition2,93881.0,-0.0155639648438,-6.103515625e-05,-6.103515625e-05,0.823364257812,24.5625,-85.0,187.9375,-6.39,-2.21,8.22
1541793260997873067,16,0,/imu_data_acquisition2,93892.0,-0.135559082031,-0.015869140625,0.562622070312,0.815368652344,29.125,-67.875,176.1875,-6.13,-2.51,8.41
1541793261008444070,17,0,/imu_data_acquisition2,93901.0,-0.131042480469,-0.0160522460938,0.574462890625,0.807800292969,33.0,-52.1875,163.3125,-5.54,-3.32,9.16
1541793261016472101,18,0,/imu_data_acquisition2,93911.0,-0.127075195312,-0.0155029296875,0.585083007812,0.80078125,32.5625,-39.3125,149.625,-2.54,-0.01,-0.01
1541793261028914928,19,0,/imu_data_acquisition2,93922.0,-0.123718261719,-0.0144653320312,0.594421386719,0.79443359375,30.9375,-29.1875,133.1875,-4.73,-4.5,9.72
1541793261040462970,20,0,/imu_data_acquisition2,93931.0,-0.120849609375,-0.0133056640625,0.602355957031,0.788940429688,28.5,-21.625,114.3125,-3.68,-5.61,10.08
1541793261046654939,21,0,/imu_data_acquisition2,93941.0,-0.118103027344,-0.0118408203125,0.608642578125,0.784545898438,30.8125,-15.6875,91.9375,-3.21,-5.5,10.06
1541793261058598041,22,0,/imu_data_acquisition2,93952.0,-0.115356445312,-0.0101318359375,0.613342285156,0.781311035156,33.875,-10.5,68.8125,-2.79,-5.51,9.93
1541793261066996097,23,0,/imu_data_acquisition2,93961.0,-0.112609863281,-0.00799560546875,0.616394042969,0.779296875,38.375,-5.0625,45.8125,-2.32,-5.0,10.54
1541793261079617023,24,0,/imu_data_acquisition2,93972.0,-0.109741210938,-0.005859375,0.618041992188,0.778381347656,40.9375,-3.25,24.0,-2.02,-4.5,10.87
1541793261086749076,25,0,/imu_data_acquisition2,93981.0,-0.106567382812,-0.0037841796875,0.618408203125,0.778564453125,44.625,-4.5,4.25,-1.79,-3.93,11.03
1541793261101780891,26,0,/imu_data_acquisition2,93993.0,-0.102966308594,-0.00189208984375,0.61767578125,0.779663085938,48.1875,-7.8125,-12.125,-1.41,-3.12,10.83
1541793261107614040,27,0,/imu_data_acquisition2,94001.0,-0.098876953125,-0.0001220703125,0.6162109375,0.781372070312,52.8125,-11.625,-23.8125,-0.86,-0.67,10.88
1541793261116507053,28,0,/imu_data_acquisition2,94011.0,-0.094482421875,0.0013427734375,0.614562988281,0.783203125,53.625,-16.625,-27.3125,-0.54,0.51,10.69
1541793261127567052,29,0,/imu_data_acquisition2,94022.0,-0.0897827148438,0.00244140625,0.613159179688,0.784851074219,53.5,-22.9375,-23.6875,-0.48,1.38,11.0
1541793261140993118,30,0,/imu_data_acquisition2,94032.0,-0.0848388671875,0.00286865234375,0.612426757812,0.785949707031,50.3125,-30.9375,-14.0,-0.41,1.95,11.33
1541793261146553993,31,0,/imu_data_acquisition2,94041.0,-0.0797729492188,0.00238037109375,0.612670898438,0.786315917969,43.9375,-41.5,-0.75,-0.42,1.93,11.29
1541793261158359050,32,0,/imu_data_acquisition2,94052.0,-0.0743408203125,0.00103759765625,0.613830566406,0.785888671875,40.3125,-52.5,13.0,-0.41,1.93,10.91
1541793261167468070,33,0,/imu_data_acquisition2,94061.0,-0.0687255859375,-0.00103759765625,0.616088867188,0.78466796875,36.0,-13.875,-0.0625,-0.54,1.4,10.04
1541793261176594018,34,0,/imu_data_acquisition2,94071.0,-0.0629272460938,-0.00360107421875,0.619262695312,0.782653808594,33.5625,-69.25,42.25,-0.75,1.27,9.78
1541793261189198970,35,0,/imu_data_acquisition2,94082.0,-0.0569458007812,-0.006591796875,0.623352050781,0.779846191406,31.6875,-74.5,55.3125,-0.96,1.15,9.47
1541793261198093891,36,0,/imu_data_acquisition2,94092.0,-6.103515625e-05,-6.103515625e-05,-6.103515625e-05,0.776306152344,27.5625,-78.375,68.0625,-1.13,0.91,9.22
1541793261207416057,37,0,/imu_data_acquisition2,94102.0,-0.0452880859375,-0.013671875,0.633728027344,0.772155761719,23.5625,-80.4375,79.125,-1.6,0.39,8.88
1541793261218555927,38,0,/imu_data_acquisition2,94112.0,-0.039794921875,-0.017578125,0.639770507812,0.767333984375,19.125,-81.3125,88.25,-1.85,0.04,8.77
1541793261227560043,39,0,/imu_data_acquisition2,94122.0,-0.0344848632812,-0.021728515625,0.646179199219,0.762084960938,15.4375,-81.6875,95.0,-2.06,-0.29,8.57
1541793261238270044,40,0,/imu_data_acquisition2,94131.0,-0.0294799804688,-0.0259399414062,0.652770996094,0.756530761719,12.5625,-80.25,98.9375,-2.57,-0.84,8.75
1541793261248163938,41,0,/imu_data_acquisition2,94142.0,-0.0294799804688,-0.0259399414062,0.652770996094,0.756530761719,9.875,-77.9375,100.5625,-2.87,-1.11,8.87
1541793261257535934,42,0,/imu_data_acquisition2,94151.0,-0.0247802734375,-0.0300903320312,0.659362792969,0.750793457031,7.125,-76.1875,99.9375,-3.11,-1.32,8.8
1541793261266890048,43,0,/imu_data_acquisition2,94161.0,-0.0161743164062,-0.03857421875,0.672058105469,0.739318847656,4.125,-74.0,97.375,-3.54,-1.87,8.7
1541793261278274059,44,0,/imu_data_acquisition2,94172.0,-0.0122680664062,-0.042724609375,0.677978515625,0.733764648438,2.875,-71.125,92.8125,-3.75,-2.07,8.74
1541793261287163019,45,0,/imu_data_acquisition2,94182.0,-0.00860595703125,-0.0467529296875,0.683410644531,0.728515625,1.5,-67.875,87.0625,-3.89,-2.27,8.73
1541793261297337055,46,0,/imu_data_acquisition2,94192.0,-0.00860595703125,-0.0467529296875,0.683410644531,0.728515625,1.0,-63.625,80.1875,-4.22,-2.88,8.87
1541793261307869911,47,0,/imu_data_acquisition2,94202.0,-0.00518798828125,-0.050537109375,0.688354492188,0.723571777344,2.5625,-58.875,71.375,-4.42,-3.18,8.82
1541793261317929983,48,0,/imu_data_acquisition2,94212.0,0.001220703125,-0.0569458007812,0.696472167969,0.715270996094,4.375,-0.0625,-0.0625,-4.6,-3.47,8.66
1541793261327971935,49,0,/imu_data_acquisition2,94222.0,0.00439453125,-0.0593872070312,0.699584960938,0.712036132812,8.625,-48.625,51.0625,-4.77,-3.59,8.52
1541793261340267896,50,0,/imu_data_acquisition2,94232.0,0.00439453125,-0.0593872070312,0.699584960938,0.712036132812,13.25,-42.4375,40.125,-5.11,-3.52,8.11
1541793261347709894,51,0,/imu_data_acquisition2,94242.0,0.00750732421875,-0.0611572265625,0.702087402344,0.70947265625,15.9375,-35.25,31.125,-5.2,-3.52,7.69
1541793261357847929,52,0,/imu_data_acquisition2,94252.0,0.0103759765625,-0.0623779296875,0.703979492188,0.707397460938,17.25,-26.375,22.9375,-5.36,-3.57,7.46
1541793261367820978,53,0,/imu_data_acquisition2,94261.0,0.0128784179688,-0.0629272460938,0.705444335938,0.705871582031,17.5625,-16.1875,16.1875,-5.54,-3.84,6.79
1541793261377800941,54,0,/imu_data_acquisition2,94272.0,0.0159912109375,-0.0621948242188,0.707214355469,0.7041015625,16.5625,-4.75,10.875,-5.69,-4.12,6.85
1541793261388446092,55,0,/imu_data_acquisition2,94282.0,0.0166625976562,-0.0607299804688,0.707641601562,0.703796386719,17.875,6.25,5.5625,-5.88,-4.26,7.17
1541793261397595882,56,0,/imu_data_acquisition2,94291.0,0.0166625976562,-0.0607299804688,0.707641601562,0.703796386719,18.875,16.4375,0.6875,-6.87,-2.26,8.92
1541793261407736063,57,0,/imu_data_acquisition2,94302.0,0.0167846679688,-0.0586547851562,0.707763671875,0.703796386719,-5.375,25.4375,-2.3125,-6.93,-5.61,10.0
1541793261418066978,58,0,/imu_data_acquisition2,94312.0,0.0089111328125,-0.0609130859375,0.70751953125,0.703979492188,-79.75,21.5,4.375,-5.96,-8.89,7.33
1541793261428277015,59,0,/imu_data_acquisition2,94322.0,0.0089111328125,-0.0609130859375,0.70751953125,0.703979492188,-79.75,44.9375,-15.375,-15.64,5.74,14.54
1541793261439579963,60,0,/imu_data_acquisition2,94332.0,0.00152587890625,-0.06298828125,0.706237792969,0.705200195312,-218.375,23.375,34.875,-3.45,-6.31,13.08
1541793261447791099,61,0,/imu_data_acquisition2,94342.0,-0.0130615234375,-0.0121459960938,-6.103515625e-05,0.703125,-177.875,-21.1875,35.4375,-1.99,2.52,9.05
1541793261457747936,62,0,/imu_data_acquisition2,94351.0,-0.0225219726562,-0.0864868164062,0.707946777344,0.700561523438,-177.875,-5.1875,-0.0625,8.9,0.92,8.79
1541793261467365026,63,0,/imu_data_acquisition2,94362.0,-0.0294799804688,-0.0965576171875,0.708190917969,0.698791503906,-213.9375,2.375,42.875,1.92,-15.63,12.28
1541793261478355884,64,0,/imu_data_acquisition2,94372.0,-0.0426025390625,-0.109069824219,0.708862304688,0.695556640625,-67.75,-23.75,-33.9375,-0.25,1.55,1.58
1541793261490714073,65,0,/imu_data_acquisition2,94383.0,-0.0448608398438,-0.114685058594,0.706298828125,0.697143554688,-11.75,16.75,-50.5625,-2.3,1.83,18.34
1541793261496887922,66,0,/imu_data_acquisition2,94391.0,-0.0460205078125,-0.114562988281,0.703125,0.700256347656,-88.5,-21.3125,-0.3125,2.16,-9.06,7.67
1541793261509015083,67,0,/imu_data_acquisition2,94403.0,-0.0499877929688,-0.12109375,0.702331542969,0.69970703125,-36.125,4.0625,-8.25,-0.71,-3.36,12.33
1541793261522289991,68,0,/imu_data_acquisition2,94416.0,-0.0523071289062,-0.123046875,0.701477050781,0.700073242188,7.625,2.625,-13.3125,-0.61,-3.15,10.07
1541793261527915954,69,0,/imu_data_acquisition2,94422.0,-0.0518798828125,-0.122497558594,0.700744628906,0.700927734375,-8.0,-8.875,7.75,0.98,-7.17,9.58
1541793261539702892,70,0,/imu_data_acquisition2,94434.0,-0.0518798828125,-0.0140380859375,-6.103515625e-05,0.700317382812,36.3125,-5.5625,-3.0625,1.23,-0.52,9.84
1541793261549956083,71,0,/imu_data_acquisition2,94444.0,-0.0493774414062,-0.121643066406,0.701354980469,0.700622558594,32.25,-9.4375,2.0625,1.49,-1.8,9.28
1541793261556988000,72,0,/imu_data_acquisition2,94452.0,-0.0469360351562,-0.120300292969,0.701843261719,0.700500488281,20.8125,-7.875,5.5625,1.65,-1.74,8.77
1541793261569416999,73,0,/imu_data_acquisition2,94464.0,-0.0452880859375,-0.119506835938,0.702392578125,0.7001953125,22.25,-2.5625,1.125,1.65,-0.65,9.21
1541793261582267045,74,0,/imu_data_acquisition2,94475.0,-0.0438232421875,-0.118286132812,0.702697753906,0.7001953125,10.875,1.125,1.1875,1.05,-0.87,9.6
1541793261587894916,75,0,/imu_data_acquisition2,94482.0,-0.0432739257812,-0.117614746094,0.702880859375,0.7001953125,-0.375,3.6875,1.25,0.83,-1.49,9.4
1541793261600224018,76,0,/imu_data_acquisition2,94494.0,-0.0435180664062,-0.117370605469,0.702941894531,0.700134277344,-5.9375,4.25,-0.0625,1.06,-1.53,9.94
1541793261612853050,77,0,/imu_data_acquisition2,94507.0,-0.0447998046875,-0.117858886719,0.702697753906,0.700256347656,-9.25,2.875,-1.375,0.68,-1.75,10.04
1541793261617471933,78,0,/imu_data_acquisition2,94512.0,-0.0447998046875,-0.117858886719,0.702697753906,0.700256347656,-14.3125,3.25,-1.25,0.57,-2.12,9.41
1541793261631202936,79,0,/imu_data_acquisition2,94525.0,-0.0458374023438,-0.118530273438,0.702453613281,0.700256347656,-13.5625,2.625,-1.9375,1.04,-2.01,9.42
1541793261644560098,80,0,/imu_data_acquisition2,94534.0,-0.0468139648438,-0.119140625,0.702209472656,0.700378417969,-9.25,3.375,-4.5,1.18,-2.13,9.89
1541793261648693084,81,0,/imu_data_acquisition2,94543.0,-0.0474853515625,-0.119506835938,0.701843261719,0.700622558594,-11.125,2.25,-3.8125,1.26,-2.34,9.24
1541793261659616947,82,0,/imu_data_acquisition2,94554.0,-0.0482788085938,-0.120056152344,0.701477050781,0.700866699219,-10.75,2.6875,-3.1875,0.7,-2.49,9.61
1541793261669393062,83,0,/imu_data_acquisition2,94562.0,-6.103515625e-05,-6.103515625e-05,-6.103515625e-05,0.700988769531,-9.375,1.75,-2.6875,1.09,-2.46,9.57
1541793261677411079,84,0,/imu_data_acquisition2,94572.0,-0.0496215820312,-0.121032714844,0.700927734375,0.701171875,-7.375,0.3125,-1.9375,0.88,-2.57,9.64
1541793261689948081,85,0,/imu_data_acquisition2,94583.0,-0.050048828125,-0.121459960938,0.70068359375,0.701232910156,-6.0625,-0.875,-0.25,0.89,-2.83,9.68
1541793261696094036,86,0,/imu_data_acquisition2,94591.0,-0.0503540039062,-0.121887207031,0.70068359375,0.701232910156,-6.0625,-0.875,-0.25,0.89,-2.83,9.68
1541793261707151889,87,0,/imu_data_acquisition2,94602.0,-0.0503540039062,-0.122131347656,0.700622558594,0.701171875,-1.6875,-1.875,-0.3125,0.94,-1.99,9.42
1541793261719582080,88,0,/imu_data_acquisition2,94613.0,-0.050048828125,-0.1220703125,0.700622558594,0.701232910156,3.625,-1.375,-0.375,0.57,-2.18,9.66
1541793261728724002,89,0,/imu_data_acquisition2,94622.0,-0.0497436523438,-0.121826171875,0.70068359375,0.701232910156,2.3125,-2.6875,0.4375,0.88,-1.8,9.73
1541793261738205909,90,0,/imu_data_acquisition2,94633.0,-0.0494995117188,-0.121826171875,0.700744628906,0.701232910156,5.375,-1.6875,-0.75,1.03,-1.88,9.64
1541793261748433113,91,0,/imu_data_acquisition2,94642.0,-0.049072265625,-0.121643066406,0.700744628906,0.701232910156,5.375,-1.6875,-0.75,1.17,-2.25,9.36
1541793261756321907,92,0,/imu_data_acquisition2,94651.0,-0.0488891601562,-0.121765136719,0.700744628906,0.701232910156,0.5,-2.6875,0.5625,1.17,-2.25,9.36
1541793261768470048,93,0,/imu_data_acquisition2,94663.0,-0.0486450195312,-0.121826171875,0.700805664062,0.701232910156,1.75,-2.9375,-0.875,1.05,-2.21,9.6
1541793261781213045,94,0,/imu_data_acquisition2,94673.0,-0.0482788085938,-0.121826171875,0.700744628906,0.701232910156,-0.125,-3.0625,-0.5,1.26,-2.14,9.44
1541793261787760019,95,0,/imu_data_acquisition2,94682.0,-0.0480346679688,-0.122009277344,0.700805664062,0.701232910156,0.3125,-2.375,-0.75,0.93,-2.19,9.87
1541793261797786951,96,0,/imu_data_acquisition2,94692.0,-0.0478515625,-0.122131347656,0.700744628906,0.701232910156,0.3125,-2.375,-0.75,1.23,-2.59,9.95
1541793261808188915,97,0,/imu_data_acquisition2,94702.0,-0.0477905273438,-0.0130004882812,-6.103515625e-05,0.701232910156,-1.75,-2.6875,0.125,1.25,-2.34,9.64
1541793261818967103,98,0,/imu_data_acquisition2,94713.0,-0.0476684570312,-0.122497558594,0.700744628906,0.701171875,1.6875,-1.5625,-0.1875,1.08,-2.31,9.58
1541793261829772949,99,0,/imu_data_acquisition2,94723.0,-0.0474853515625,-0.122497558594,0.700744628906,0.701171875,2.8125,-1.375,0.125,1.05,-2.0,9.76
1541793261838702917,100,0,/imu_data_acquisition2,94733.0,-0.0471801757812,-0.122375488281,0.700805664062,0.701171875,3.6875,0.25,-0.0625,0.84,-2.07,9.79
1541793261848021030,101,0,/imu_data_acquisition2,94741.0,-0.046875,-0.1220703125,0.700866699219,0.701232910156,3.6875,0.25,-0.0625,0.84,-2.07,9.79
1541793261856195926,102,0,/imu_data_acquisition2,94751.0,-0.0467529296875,-0.121887207031,0.700866699219,0.701232910156,1.5625,0.0625,0.375,1.27,-2.09,9.45
1541793261868717908,103,0,/imu_data_acquisition2,94763.0,-0.0465698242188,-0.121643066406,0.700866699219,0.701293945312,2.125,1.0625,0.0625,0.8,-2.09,-0.01
1541793261879934072,104,0,/imu_data_acquisition2,94773.0,-0.0464477539062,-0.121398925781,0.700927734375,0.701293945312,-1.75,0.375,0.25,0.97,-2.26,9.38
1541793261887774944,105,0,/imu_data_acquisition2,94783.0,-0.0465698242188,-0.121459960938,0.700927734375,0.701293945312,-1.0,0.0,-0.25,1.14,-2.08,9.66
1541793261899404048,106,0,/imu_data_acquisition2,94793.0,-0.0465698242188,-0.121459960938,0.700927734375,0.701293945312,-1.0,0.0,-0.25,0.8,-2.19,9.68
1541793261908396005,107,0,/imu_data_acquisition2,94802.0,-0.015380859375,-6.103515625e-05,-6.103515625e-05,0.701293945312,-0.625,0.6875,-0.0625,0.97,-2.27,9.49
1541793261918147087,108,0,/imu_data_acquisition2,94813.0,-0.046875,-0.121459960938,0.700866699219,0.701293945312,-2.3125,0.625,-0.0625,1.03,-2.15,9.46
1541793261930696010,109,0,/imu_data_acquisition2,94823.0,-0.0469970703125,-0.12158203125,0.700866699219,0.701293945312,-2.0,0.6875,-0.625,0.91,-2.07,9.58
1541793261938752889,110,0,/imu_data_acquisition2,94833.0,-0.047119140625,-0.12158203125,0.700805664062,0.701354980469,-3.0,0.4375,-0.3125,0.88,-2.18,-0.01
1541793261947495937,111,0,/imu_data_acquisition2,94841.0,-0.0473022460938,-0.121704101562,0.700744628906,0.701354980469,-3.0,0.4375,-0.3125,0.88,-2.18,9.43
1541793261957783937,112,0,/imu_data_acquisition2,94851.0,-0.0474853515625,-0.121887207031,0.700744628906,0.701354980469,-3.6875,0.25,-0.125,1.1,-2.27,-0.01
1541793261967848062,113,0,/imu_data_acquisition2,94862.0,-0.0476684570312,-0.1220703125,0.70068359375,0.701293945312,-3.0625,0.1875,-0.4375,0.96,-2.29,9.49
1541793261979957103,114,0,/imu_data_acquisition2,94873.0,-0.0479125976562,-0.122253417969,0.70068359375,0.701293945312,-3.5,-0.1875,-0.4375,1.06,-2.25,9.53
1541793261988394975,115,0,/imu_data_acquisition2,94883.0,-0.048095703125,-0.122436523438,0.700622558594,0.701293945312,-3.5,-0.1875,-0.4375,0.92,-2.13,9.53
1541793261997672080,116,0,/imu_data_acquisition2,94892.0,-0.0482788085938,-0.122619628906,0.700561523438,0.701293945312,-3.6875,-0.4375,-0.625,0.92,-2.13,9.53
1541793262006944894,117,0,/imu_data_acquisition2,94901.0,-0.0485229492188,-0.122924804688,0.700500488281,0.701293945312,-4.625,-0.0625,-0.0625,1.2,-2.21,-0.01
1541793262018421888,118,0,/imu_data_acquisition2,94911.0,-0.0487060546875,-0.123168945312,0.700439453125,0.701293945312,-4.4375,-1.125,-0.625,0.93,-2.13,9.59
1541793262029397010,119,0,/imu_data_acquisition2,94924.0,-0.0488891601562,-0.12353515625,0.700378417969,0.701293945312,-4.9375,-1.0625,-0.5,0.96,-2.37,9.57
1541793262039292097,120,0,/imu_data_acquisition2,94933.0,-0.0491333007812,-0.123840332031,0.700317382812,0.701232910156,-4.9375,-1.0625,-0.5,1.11,-2.32,9.57
1541793262048065900,121,0,/imu_data_acquisition2,94942.0,-0.04931640625,-0.124145507812,0.700317382812,0.701232910156,-4.25,-1.125,-0.4375,1.11,-2.32,9.57
1541793262061028003,122,0,/imu_data_acquisition2,94955.0,-0.0494384765625,-0.124389648438,0.700256347656,0.701232910156,-3.4375,-1.0,-0.625,1.13,-2.31,9.43
1541793262071980953,123,0,/imu_data_acquisition2,94962.0,-0.0496215820312,-0.124694824219,0.7001953125,0.701232910156,-3.9375,-0.875,-0.125,1.13,-2.31,9.43
1541793262080208063,124,0,/imu_data_acquisition2,94975.0,-0.0496826171875,-0.124877929688,0.7001953125,0.701232910156,-2.75,-0.375,-0.125,1.06,-2.37,9.4
1541793262092760086,125,0,/imu_data_acquisition2,94987.0,-0.0498657226562,-0.125061035156,0.700134277344,0.701171875,-2.0625,-0.1875,-0.0625,1.07,-2.43,9.69
1541793262101907014,126,0,/imu_data_acquisition2,94996.0,-0.0501098632812,-0.125244140625,0.700134277344,0.701171875,-1.6875,0.125,-0.25,1.02,-2.35,9.65
1541793262106637954,127,0,/imu_data_acquisition2,95000.0,-0.0501098632812,-0.125244140625,0.700134277344,0.701171875,-1.6875,0.125,-0.25,1.02,-2.35,9.65
1541793262117957115,128,0,/imu_data_acquisition2,95012.0,-6.103515625e-05,-6.103515625e-05,-6.103515625e-05,0.701171875,-2.1875,0.375,-0.0625,0.83,-2.34,9.6
1541793262129126071,129,0,/imu_data_acquisition2,95023.0,-0.0503540039062,-0.125549316406,0.700073242188,0.701171875,-2.6875,0.3125,0.0,0.91,-2.25,9.49
1541793262139239072,130,0,/imu_data_acquisition2,95033.0,-0.0504760742188,-0.125549316406,0.700012207031,0.701171875,-1.3125,0.9375,-0.375,0.84,-2.64,9.64
1541793262147495985,131,0,/imu_data_acquisition2,95041.0,-0.0507202148438,-0.125549316406,0.700012207031,0.701171875,-2.3125,1.4375,0.0,0.84,-2.64,9.64
1541793262158150911,132,0,/imu_data_acquisition2,95052.0,-0.051025390625,-0.125732421875,0.699951171875,0.701171875,-3.6875,1.5,0.5,1.07,-2.43,9.47
1541793262167115926,133,0,/imu_data_acquisition2,95061.0,-0.0512084960938,-0.125671386719,0.699890136719,0.701232910156,-1.125,1.5,-0.6875,1.21,-2.24,9.49
1541793262179955005,134,0,/imu_data_acquisition2,95073.0,-0.0513305664062,-0.125671386719,0.699890136719,0.701232910156,-1.875,1.375,-0.125,0.8,-2.36,9.73
1541793262189538002,135,0,/imu_data_acquisition2,95084.0,-0.0516357421875,-0.125549316406,0.699890136719,0.701232910156,-2.5,2.4375,-0.125,0.88,-2.23,9.59
1541793262197413921,136,0,/imu_data_acquisition2,95091.0,-0.0518798828125,-0.125549316406,0.699829101562,0.701293945312,-2.875,1.4375,0.0625,0.88,-2.23,9.59
1541793262208065986,137,0,/imu_data_acquisition2,95102.0,-0.0521240234375,-0.125610351562,0.699829101562,0.701293945312,-3.0,1.5625,-0.1875,1.09,-2.38,9.62
1541793262218624114,138,0,/imu_data_acquisition2,95113.0,-0.0523681640625,-0.125671386719,0.699768066406,0.701293945312,-3.75,0.9375,0.0,0.93,-2.19,9.34
1541793262229464054,139,0,/imu_data_acquisition2,95124.0,-0.0526733398438,-0.125793457031,0.69970703125,0.701293945312,-3.8125,1.25,-0.375,1.08,-2.3,9.54
1541793262240008115,140,0,/imu_data_acquisition2,95134.0,-0.0530395507812,-0.126037597656,0.699645996094,0.701232910156,-4.875,0.8125,-0.125,0.99,-2.38,9.52
1541793262248389959,141,0,/imu_data_acquisition2,95142.0,-0.0533447265625,-0.126159667969,0.699584960938,0.701293945312,-4.0,1.25,-0.6875,0.99,-2.38,9.52
1541793262257055044,142,0,/imu_data_acquisition2,95151.0,-0.0537109375,-0.12646484375,0.699523925781,0.701293945312,-5.875,1.0625,-0.25,1.0,-2.55,9.61
1541793262269397974,143,0,/imu_data_acquisition2,95163.0,-0.0541381835938,-0.126708984375,0.699462890625,0.701293945312,-5.8125,1.375,-0.4375,1.14,-2.43,9.52
1541793262280167102,144,0,/imu_data_acquisition2,95174.0,-0.0545654296875,-0.126953125,0.699401855469,0.701293945312,-5.75,1.6875,-0.5625,0.41,-2.05,-0.01
1541793262290472030,145,0,/imu_data_acquisition2,95184.0,-0.054931640625,-0.127075195312,0.69921875,0.701354980469,-4.125,2.0625,-1.25,0.13,-2.23,9.12
1541793262297696113,146,0,/imu_data_acquisition2,95191.0,-0.0557250976562,-0.127380371094,0.699157714844,0.701354980469,-8.75,3.875,0.375,0.13,-2.23,9.12
1541793262308902978,147,0,/imu_data_acquisition2,95202.0,-0.056396484375,-0.127624511719,0.699035644531,0.701354980469,-8.125,3.4375,-0.25,1.02,-2.98,9.12
1541793262319534063,148,0,/imu_data_acquisition2,95213.0,-0.0573120117188,-0.128051757812,0.698913574219,0.701354980469,-11.0625,4.0,0.375,1.94,-2.13,9.11
1541793262330621957,149,0,/imu_data_acquisition2,95224.0,-0.0579833984375,-0.127990722656,0.698669433594,0.701477050781,-5.375,6.625,-1.875,0.9,-1.68,9.91
1541793262341268062,150,0,/imu_data_acquisition2,95234.0,-0.0590209960938,-0.128356933594,0.698547363281,0.701477050781,-11.9375,5.8125,-0.125,1.31,-2.25,9.6
1541793262346268892,151,0,/imu_data_acquisition2,95241.0,-0.0599365234375,-0.128356933594,0.6982421875,0.70166015625,-8.0625,7.75,-2.3125,1.31,-2.25,-0.01
1541793262357382059,152,0,/imu_data_acquisition2,95251.0,-0.0613403320312,-0.128845214844,0.698059082031,0.70166015625,-15.625,7.875,0.5,1.04,-2.83,9.74
1541793262371635913,153,0,/imu_data_acquisition2,95264.0,-0.062744140625,-0.129089355469,0.697814941406,0.701782226562,-14.4375,9.625,-0.8125,1.41,-2.11,8.86
1541793262381520032,154,0,/imu_data_acquisition2,95274.0,-0.064453125,-0.129272460938,0.697448730469,0.701904296875,-16.0,13.0625,-1.3125,1.27,-2.06,9.53
1541793262390197038,155,0,/imu_data_acquisition2,95284.0,-0.0667724609375,-0.129455566406,0.697082519531,0.702026367188,-5.5625,-0.0625,-0.0625,1.37,-2.55,9.64
1541793262397711038,156,0,/imu_data_acquisition2,95292.0,-0.0695190429688,-0.129638671875,0.696533203125,0.702270507812,-24.375,22.3125,-2.625,1.37,-2.55,9.64
1541793262406234979,157,0,/imu_data_acquisition2,95301.0,-0.0731201171875,-0.1298828125,0.695983886719,0.702453613281,-32.6875,27.6875,-0.0625,2.53,-3.03,8.33
1541793262420229911,158,0,/imu_data_acquisition2,95314.0,-0.0770263671875,-0.129760742188,0.695251464844,0.702758789062,-32.25,34.25,-2.625,0.89,-1.04,10.42
1541793262430196046,159,0,/imu_data_acquisition2,95324.0,-0.081298828125,-0.128540039062,0.694091796875,0.70361328125,-26.8125,47.8125,-9.0,1.25,-2.65,9.66
1541793262441123962,160,0,/imu_data_acquisition2,95334.0,-0.0868530273438,-0.12841796875,0.69287109375,0.704162597656,-46.25,49.25,-5.9375,1.14,-2.6,9.86
1541793262447771072,161,0,/imu_data_acquisition2,95342.0,-0.0927124023438,-0.126586914062,0.691040039062,0.70556640625,-34.8125,66.8125,-16.1875,1.14,-2.6,9.86
1541793262458404064,162,0,/imu_data_acquisition2,95352.0,-0.09912109375,-0.0152587890625,-6.103515625e-05,0.707092285156,-39.3125,73.5625,-18.25,1.33,-3.42,9.5
1541793262467305898,163,0,/imu_data_acquisition2,95361.0,-0.106140136719,-0.122253417969,0.686401367188,0.708984375,-41.0625,82.8125,-22.9375,1.24,-3.16,9.28
1541793262479563951,164,0,/imu_data_acquisition2,95374.0,-0.00396728515625,-6.103515625e-05,-6.103515625e-05,0.71142578125,-35.6875,92.875,-31.9375,0.76,-3.58,9.94
1541793262489973068,165,0,/imu_data_acquisition2,95384.0,-0.120971679688,-0.115173339844,0.679626464844,0.714294433594,-34.375,103.4375,-0.0625,0.36,-2.57,9.55
1541793262496320009,166,0,/imu_data_acquisition2,95390.0,-0.128356933594,-0.110412597656,0.675354003906,0.717834472656,-24.75,110.5,-47.4375,0.36,-2.57,9.55
1541793262507051944,167,0,/imu_data_acquisition2,95402.0,-0.136169433594,-0.105041503906,0.670532226562,0.721618652344,-24.1875,120.25,-52.625,0.3,-3.51,9.37
1541793262519464969,168,0,/imu_data_acquisition2,95413.0,-0.144958496094,-0.0997924804688,0.665344238281,0.725463867188,-33.125,128.0,-55.3125,0.43,-4.1,9.69
1541793262530236959,169,0,/imu_data_acquisition2,95424.0,-0.153747558594,-0.0936279296875,0.659362792969,0.72998046875,-26.3125,137.5,-66.0625,0.5,-2.87,9.82
1541793262540622949,170,0,/imu_data_acquisition2,95434.0,-0.162475585938,-0.08642578125,0.652526855469,0.735046386719,-17.625,148.3125,-76.0625,-0.2,-2.35,10.63
1541793262547753095,171,0,/imu_data_acquisition2,95442.0,-0.172180175781,-0.0791625976562,0.645324707031,0.740051269531,-26.25,157.125,-77.5,0.04,-2.31,9.69
1541793262557077884,172,0,/imu_data_acquisition2,95451.0,-0.182495117188,-0.0718994140625,0.637573242188,0.744995117188,-31.6875,162.875,-80.875,-0.49,-3.46,9.93
1541793262567662954,173,0,/imu_data_acquisition2,95462.0,-0.193603515625,-0.0643920898438,0.629089355469,0.750061035156,-37.3125,172.8125,-87.5,-0.63,-3.22,9.39
1541793262579889059,174,0,/imu_data_acquisition2,95474.0,-0.204528808594,-0.0560913085938,0.619506835938,0.755798339844,-29.625,181.125,-100.1875,-0.78,-4.01,9.57
1541793262590246915,175,0,/imu_data_acquisition2,95484.0,-0.2158203125,-0.0473022460938,0.608825683594,0.761901855469,-29.1875,191.375,-111.5,-0.91,-3.87,9.48
1541793262597160100,176,0,/imu_data_acquisition2,95492.0,-0.226684570312,-0.0375366210938,0.596801757812,0.768798828125,-16.625,201.5,-127.625,-1.49,-4.18,9.75
1541793262609409093,177,0,/imu_data_acquisition2,95502.0,-0.236572265625,-0.0260620117188,0.581970214844,0.777587890625,8.4375,218.0,-161.4375,-1.72,-4.52,9.36
1541793262616512060,178,0,/imu_data_acquisition2,95511.0,-0.246276855469,-0.0145263671875,0.56689453125,0.785949707031,8.4375,-0.0625,-0.0625,-2.5,-5.0,9.25
1541793262629895925,179,0,/imu_data_acquisition2,95524.0,-0.255187988281,-0.00213623046875,0.5498046875,0.795349121094,24.6875,226.625,-184.625,-2.72,-4.13,8.51
1541793262640374898,180,0,/imu_data_acquisition2,95535.0,-0.261779785156,0.0119018554688,0.528625488281,0.807373046875,65.3125,238.9375,-234.9375,-2.52,-4.84,8.3
1541793262645936012,181,0,/imu_data_acquisition2,95540.0,-0.266662597656,0.0264282226562,0.505187988281,0.8203125,87.5,240.875,-260.6875,-2.38,-6.06,8.6
1541793262657454013,182,0,/imu_data_acquisition2,95552.0,-0.268127441406,0.04150390625,0.478637695312,0.835021972656,130.8125,234.0625,-299.125,-2.71,-5.73,10.27
1541793262667572975,183,0,/imu_data_acquisition2,95561.0,-0.266479492188,0.0558471679688,-6.103515625e-05,0.850708007812,161.875,217.0,-328.625,-1.09,0.6,14.94
1541793262678747892,184,0,/imu_data_acquisition2,95573.0,-0.263610839844,0.0669555664062,0.420959472656,0.865356445312,153.5625,177.75,-330.4375,1.73,3.36,15.95
1541793262690351009,185,0,/imu_data_acquisition2,95584.0,-0.260681152344,0.0740356445312,0.394897460938,0.877868652344,124.9375,129.375,-305.125,2.25,9.47,-0.01
1541793262697382926,186,0,/imu_data_acquisition2,95591.0,-0.257507324219,0.0761108398438,0.374694824219,0.887390136719,89.625,60.1875,-245.75,4.78,12.82,19.06
1541793262707541942,187,0,/imu_data_acquisition2,95602.0,-6.103515625e-05,-6.103515625e-05,-6.103515625e-05,0.894775390625,84.375,2.4375,-178.3125,6.2,15.41,16.51
1541793262718308925,188,0,/imu_data_acquisition2,95611.0,-0.246887207031,0.0719604492188,0.353820800781,0.899230957031,64.125,-39.1875,-96.0625,7.58,14.77,13.72
1541793262730391979,189,0,/imu_data_acquisition2,95625.0,-0.240051269531,0.0686645507812,0.35302734375,0.901672363281,66.5625,-63.5625,-22.625,7.72,10.45,11.48
1541793262740737915,190,0,/imu_data_acquisition2,95635.0,-0.231018066406,0.0657958984375,0.357238769531,0.902587890625,84.0,-81.25,40.375,6.8,8.94,11.29
1541793262745867013,191,0,/imu_data_acquisition2,95640.0,-0.220031738281,0.0631713867188,0.365905761719,0.902038574219,98.125,-98.1875,95.9375,5.32,5.83,12.74
1541793262757349014,192,0,/imu_data_acquisition2,95651.0,-0.206481933594,0.0603637695312,0.377746582031,0.900573730469,119.8125,-117.6875,135.8125,4.11,4.01,12.78
1541793262769510030,193,0,/imu_data_acquisition2,95663.0,-0.192626953125,0.0568237304688,0.392639160156,0.8974609375,113.5,-0.0625,-0.0625,0.85,0.97,13.28
1541793262776863098,194,0,/imu_data_acquisition2,95671.0,-0.178894042969,0.0523681640625,0.409790039062,0.892944335938,103.25,-147.9375,202.25,-0.57,-0.32,13.52
1541793262789994955,195,0,/imu_data_acquisition2,95684.0,-0.166076660156,0.046630859375,0.4287109375,0.886779785156,82.9375,-159.0,225.9375,-1.84,-0.68,12.6
1541793262799537897,196,0,/imu_data_acquisition2,95693.0,-0.154968261719,0.0396728515625,0.449035644531,0.879089355469,55.0625,-165.0,244.9375,-4.44,-2.91,12.07
1541793262806071996,197,0,/imu_data_acquisition2,95701.0,-6.103515625e-05,-6.103515625e-05,-6.103515625e-05,0.870300292969,42.3125,-169.125,253.1875,-5.37,-2.53,-0.01
1541793262817800045,198,0,/imu_data_acquisition2,95712.0,-0.134704589844,0.0241088867188,0.490600585938,0.860595703125,32.25,-7.9375,-0.0625,-6.11,-1.4,10.31
1541793262829890012,199,0,/imu_data_acquisition2,95724.0,-0.126159667969,0.0162353515625,0.511352539062,0.849914550781,18.3125,-160.125,263.4375,-7.33,-1.85,9.48
1541793262841200113,200,0,/imu_data_acquisition2,95733.0,-0.118408203125,0.0087890625,0.531555175781,0.838623046875,12.0,-150.0,261.8125,-7.67,-1.24,9.05
1541793262847547054,201,0,/imu_data_acquisition2,95742.0,-0.11181640625,0.00152587890625,0.551025390625,0.826965332031,1.75,-139.25,257.125,-8.06,-1.43,8.9
1541793262857834100,202,0,/imu_data_acquisition2,95752.0,-0.106079101562,-0.005126953125,0.569091796875,0.815368652344,-2.8125,-126.5625,243.75,-7.98,-2.3,8.41
1541793262867069959,203,0,/imu_data_acquisition2,95761.0,-6.103515625e-05,-6.103515625e-05,-6.103515625e-05,0.804321289062,-5.6875,-111.3125,224.375,-7.78,-2.68,8.17
1541793262881282091,204,0,/imu_data_acquisition2,95775.0,-0.09716796875,-0.0161743164062,0.599792480469,0.794067382812,-8.0,-95.25,201.5,-7.54,-3.53,8.03
1541793262889908075,205,0,/imu_data_acquisition2,95784.0,-0.0935668945312,-0.02001953125,0.612060546875,0.785034179688,-0.875,-77.375,174.5,-7.23,-3.75,7.98
1541793262896929979,206,0,/imu_data_acquisition2,95791.0,-0.09033203125,-0.0223999023438,0.622375488281,0.777160644531,5.875,-58.9375,148.9375,-6.41,-3.62,7.96
1541793262911122083,207,0,/imu_data_acquisition2,95802.0,-0.0875244140625,-0.0233154296875,0.630859375,0.770629882812,14.375,-40.125,124.75,-6.0,-3.37,8.11
1541793262919307947,208,0,/imu_data_acquisition2,95813.0,-0.0850830078125,-0.02294921875,0.637756347656,0.76513671875,21.4375,-7.375,-0.0625,-5.69,-3.06,8.54
1541793262929600000,209,0,/imu_data_acquisition2,95822.0,-0.083251953125,-0.0216674804688,0.643371582031,0.7607421875,23.8125,-9.125,84.8125,-4.93,-3.45,9.31
1541793262940460920,210,0,/imu_data_acquisition2,95832.0,-0.0819702148438,-0.019775390625,0.647521972656,0.75732421875,23.3125,2.3125,64.9375,-4.45,-3.89,9.77
1541793262948015928,211,0,/imu_data_acquisition2,95842.0,-0.0811767578125,-0.017578125,0.650268554688,0.755126953125,22.0625,10.5,43.25,-3.91,-4.68,10.12
1541793262959666967,212,0,/imu_data_acquisition2,95851.0,-6.103515625e-05,-6.103515625e-05,-6.103515625e-05,0.75439453125,26.0,16.3125,17.3125,-2.84,-4.97,10.9
1541793262970427989,213,0,/imu_data_acquisition2,95861.0,-0.07958984375,-0.0122680664062,0.650634765625,0.755126953125,29.4375,18.5625,-9.125,-2.34,-4.83,10.9
1541793262979345083,214,0,/imu_data_acquisition2,95873.0,-0.0783081054688,-0.0093994140625,0.648315429688,0.757263183594,35.25,18.4375,-34.875,-1.86,-4.18,10.77
1541793262989567041,215,0,/imu_data_acquisition2,95881.0,-0.0765380859375,-0.00634765625,0.644592285156,0.760620117188,42.25,17.25,-56.375,-1.28,-3.08,10.57
1541793263000842094,216,0,/imu_data_acquisition2,95891.0,-0.0742797851562,-0.0032958984375,0.639953613281,0.764770507812,46.9375,-0.0625,-0.0625,-0.36,-0.83,10.47
1541793263009174108,217,0,/imu_data_acquisition2,95902.0,-0.0716552734375,-0.000244140625,0.634826660156,0.769287109375,50.4375,11.9375,-78.1875,0.05,0.52,10.58
1541793263017019033,218,0,/imu_data_acquisition2,95911.0,-0.0687866210938,0.0023193359375,0.629821777344,0.773681640625,48.75,6.0625,-76.625,0.45,1.49,10.93
1541793263027928113,219,0,/imu_data_acquisition2,95922.0,-0.0655517578125,0.00433349609375,0.625305175781,0.777587890625,48.3125,-2.1875,-68.6875,1.1,3.28,11.29
1541793263039289951,220,0,/imu_data_acquisition2,95932.0,-0.061767578125,0.005615234375,0.621826171875,0.780700683594,46.75,-13.1875,-53.625,1.23,3.88,11.62
1541793263045898914,221,0,/imu_data_acquisition2,95941.0,-0.0576171875,0.00592041015625,0.619750976562,0.782653808594,42.5,-26.4375,-32.6875,1.42,4.0,11.48
1541793263060831069,222,0,/imu_data_acquisition2,95952.0,-0.0529174804688,0.00537109375,0.619323730469,0.783325195312,39.5625,-7.0625,-0.0625,1.25,4.83,10.93
1541793263070878982,223,0,/imu_data_acquisition2,95962.0,-0.0482788085938,0.00372314453125,0.620849609375,0.782470703125,30.3125,-50.25,19.375,1.0,4.63,10.61
1541793263077109098,224,0,/imu_data_acquisition2,95971.0,-0.0438232421875,0.00103759765625,0.624267578125,0.779968261719,20.25,-59.5625,48.3125,0.61,4.17,10.26
1541793263088241100,225,0,/imu_data_acquisition2,95983.0,-0.0393676757812,-0.00238037109375,0.62939453125,0.776062011719,13.3125,-67.1875,75.0,-0.3,3.35,9.96
1541793263100230932,226,0,/imu_data_acquisition2,95992.0,-0.0350952148438,-0.0064697265625,0.636108398438,0.770751953125,6.6875,-72.875,98.875,-0.76,2.92,9.76
1541793263106511116,227,0,/imu_data_acquisition2,96001.0,-0.031005859375,-0.0111694335938,0.64404296875,0.764282226562,0.4375,-77.125,119.375,-1.28,-0.01,-0.01
1541793263116998910,228,0,/imu_data_acquisition2,96011.0,-0.0269775390625,-0.0161743164062,0.652893066406,0.756774902344,-3.1875,-80.3125,134.8125,-1.68,1.89,9.58
1541793263129614114,229,0,/imu_data_acquisition2,96022.0,-0.0230712890625,-0.0215454101562,0.662475585938,0.748413085938,-7.875,-83.0625,147.4375,-2.41,0.97,9.36
1541793263140111923,230,0,/imu_data_acquisition2,96031.0,-0.019287109375,-0.0272827148438,0.67236328125,0.739440917969,-11.5,-85.3125,155.6875,-2.71,0.33,9.3
1541793263147335052,231,0,/imu_data_acquisition2,96041.0,-0.0155639648438,-0.0330810546875,0.682373046875,0.730102539062,-11.875,-85.75,159.1875,-2.97,-0.06,9.31
1541793263159065008,232,0,/imu_data_acquisition2,96052.0,-0.0118408203125,-6.103515625e-05,-6.103515625e-05,0.720581054688,-12.375,-85.375,159.875,-3.4,-0.89,9.09
1541793263166182041,233,0,/imu_data_acquisition2,96061.0,-0.0081787109375,-0.04443359375,0.701721191406,0.710998535156,-11.8125,-83.625,157.0625,-3.66,-1.25,9.0
1541793263177544116,234,0,/imu_data_acquisition2,96072.0,-0.004638671875,-0.0498046875,0.710815429688,0.701599121094,-10.6875,-80.4375,151.75,-3.84,-1.67,8.76
1541793263192352056,235,0,/imu_data_acquisition2,96087.0,-0.001220703125,-0.0547485351562,0.71923828125,0.692565917969,-8.6875,-75.5625,144.0625,-4.12,-2.36,8.94
1541793263198564052,236,0,/imu_data_acquisition2,96093.0,0.0020751953125,-0.0592651367188,0.72705078125,0.684020996094,-6.4375,-70.25,134.6875,-4.22,-2.82,9.13
1541793263210104942,237,0,/imu_data_acquisition2,96104.0,0.00531005859375,-0.0631713867188,0.734130859375,0.676025390625,-2.6875,-65.25,123.75,-4.33,-3.3,9.07
1541793263220279932,238,0,/imu_data_acquisition2,96113.0,0.00860595703125,-6.103515625e-05,-6.103515625e-05,0.668823242188,2.25,-60.5,110.25,-4.6,-3.75,9.3
1541793263227163076,239,0,/imu_data_acquisition2,96122.0,0.0120239257812,-0.0693359375,0.745666503906,0.66259765625,7.4375,-56.5625,94.5,-5.24,-4.08,9.08
1541793263240637063,240,0,/imu_data_acquisition2,96134.0,0.0153198242188,-0.0717163085938,0.75,0.657348632812,9.375,-51.75,78.1875,-5.41,-4.29,8.52
1541793263249792098,241,0,/imu_data_acquisition2,96143.0,0.0184326171875,-0.0735473632812,0.75341796875,0.653137207031,11.3125,-12.625,-0.0625,-5.6,-4.4,8.06
1541793263257282972,242,0,/imu_data_acquisition2,96152.0,0.02099609375,-0.0747680664062,0.755981445312,0.649963378906,11.9375,-34.5,46.0,-0.76,-0.01,-0.01
1541793263268817901,243,0,/imu_data_acquisition2,96163.0,0.0230102539062,-0.0752563476562,0.757690429688,0.647827148438,13.375,-22.9375,30.5625,-5.98,-5.1,6.76
1541793263276835918,244,0,/imu_data_acquisition2,96171.0,0.0244140625,-0.0747680664062,0.758666992188,0.646728515625,16.0,-9.6875,15.625,-6.12,-5.51,6.62
1541793263291326045,245,0,/imu_data_acquisition2,96184.0,0.0252685546875,-0.0732421875,0.758850097656,0.646606445312,21.0,3.9375,1.625,-6.29,-6.02,6.64
1541793263298269987,246,0,/imu_data_acquisition2,96192.0,0.0257568359375,-0.0704345703125,0.758422851562,0.6474609375,28.375,17.6875,-12.125,-6.53,-5.06,7.02
1541793263306698083,247,0,/imu_data_acquisition2,96201.0,0.0244140625,-0.0679321289062,0.75732421875,0.648986816406,10.3125,32.0625,-21.9375,-2.37,-0.01,-0.01
1541793263317913055,248,0,/imu_data_acquisition2,96212.0,0.01904296875,-0.0700073242188,0.755981445312,0.650573730469,-61.0625,33.375,-19.8125,-7.23,-6.97,9.06
1541793263328090906,249,0,/imu_data_acquisition2,96222.0,0.0110473632812,-0.072021484375,0.753540039062,0.653381347656,-82.0,57.5,-36.75,-11.88,4.08,23.27
1541793263336688041,250,0,/imu_data_acquisition2,96231.0,-0.002197265625,-0.08544921875,0.752319335938,0.653259277344,-224.0625,14.0,4.875,-3.95,-4.42,10.04
1541793263347244977,251,0,/imu_data_acquisition2,96242.0,-0.0123291015625,-6.103515625e-05,-6.103515625e-05,0.653991699219,-168.9375,14.0,-11.25,-2.89,2.61,7.07
1541793263357959985,252,0,/imu_data_acquisition2,96252.0,-0.0228271484375,-0.106079101562,0.749206542969,0.653381347656,-177.0625,9.9375,6.75,3.09,-4.85,21.12
1541793263365894079,253,0,/imu_data_acquisition2,96260.0,-0.0350341796875,-0.120666503906,0.748840332031,0.650756835938,-225.0,-7.3125,31.1875,-2.07,-23.77,24.89
1541793263377276897,254,0,/imu_data_acquisition2,96272.0,-0.0331420898438,-0.125183105469,0.745361328125,0.653991699219,-29.3125,-45.875,-59.9375,5.26,-3.95,-7.6
1541793263388006925,255,0,/imu_data_acquisition2,96282.0,-0.035400390625,-0.126159667969,0.742309570312,0.657104492188,-29.25,18.3125,-48.0625,1.48,-2.29,7.87
1541793263396699905,256,0,/imu_data_acquisition2,96291.0,-0.0400390625,-0.134216308594,0.741455078125,0.65625,-12.875,-0.0625,-0.0625,1.31,-10.91,7.94
1541793263407778978,257,0,/imu_data_acquisition2,96302.0,-0.0423583984375,-0.136352539062,0.740356445312,0.656921386719,-37.875,5.125,-11.6875,0.63,-7.3,10.89
1541793263418581008,258,0,/imu_data_acquisition2,96312.0,-0.0423583984375,-0.136169433594,0.739685058594,0.657653808594,1.0625,2.75,-11.4375,-0.2,-6.16,10.86
1541793263426413059,259,0,/imu_data_acquisition2,96321.0,-0.0420532226562,-0.136535644531,0.739990234375,0.6572265625,-0.9375,-6.0625,5.375,0.88,-6.28,9.58
1541793263438721895,260,0,/imu_data_acquisition2,96332.0,-0.03955078125,-0.134216308594,0.740295410156,0.657531738281,40.5625,-4.0,-3.4375,0.65,-1.99,9.76
1541793263448218107,261,0,/imu_data_acquisition2,96341.0,-0.0369873046875,-0.132568359375,0.741027832031,0.6572265625,35.6875,-9.9375,5.0625,0.47,-2.31,10.06
1541793263456434965,262,0,/imu_data_acquisition2,96351.0,-0.033935546875,-0.130798339844,0.741760253906,0.656860351562,39.875,-13.625,5.1875,1.73,-0.7,8.94
1541793263467850923,263,0,/imu_data_acquisition2,96362.0,-0.0311279296875,-0.12890625,0.742370605469,0.65673828125,39.5,-10.4375,1.75,2.15,0.24,8.73
1541793263478252887,264,0,/imu_data_acquisition2,96371.0,-0.030029296875,-0.128051757812,0.742797851562,0.656494140625,16.6875,-3.75,4.1875,1.97,-0.48,8.96
1541793263486607074,265,0,/imu_data_acquisition2,96381.0,-0.0298461914062,-0.127502441406,0.742919921875,0.656494140625,6.1875,2.6875,1.0625,0.93,-0.58,10.1
1541793263498600959,266,0,/imu_data_acquisition2,96393.0,-0.0303955078125,-0.127624511719,0.742797851562,0.656494140625,-5.625,3.8125,-0.125,1.11,-1.27,9.81
1541793263507647037,267,0,/imu_data_acquisition2,96401.0,-0.0314331054688,-0.128234863281,0.742614746094,0.656616210938,-13.75,4.375,-1.125,0.83,-1.66,10.03
1541793263516659021,268,0,/imu_data_acquisition2,96411.0,-0.03271484375,-0.129150390625,0.742309570312,0.656677246094,-18.375,4.5,-1.125,0.6,-2.52,9.67
1541793263529068946,269,0,/imu_data_acquisition2,96422.0,-0.033935546875,-0.130126953125,0.742004394531,0.65673828125,-17.875,3.4375,-1.875,0.85,-2.57,9.62
1541793263540616035,270,0,/imu_data_acquisition2,96431.0,-0.0347900390625,-0.130737304688,0.74169921875,0.656982421875,-12.3125,3.1875,-3.5625,1.05,-2.3,9.45
1541793263547463893,271,0,/imu_data_acquisition2,96442.0,-0.0355834960938,-0.131225585938,0.741333007812,0.6572265625,-11.125,3.4375,-3.875,0.7,-2.43,-0.01
1541793263559056997,272,0,/imu_data_acquisition2,96452.0,-0.0360717773438,-0.00665283203125,-6.103515625e-05,0.657470703125,-8.3125,1.6875,-3.6875,1.11,-2.51,9.68
1541793263566204071,273,0,/imu_data_acquisition2,96461.0,-0.00506591796875,-6.103515625e-05,-6.103515625e-05,0.657653808594,-4.875,-0.0625,-3.1875,0.81,-2.42,9.57
1541793263577440977,274,0,/imu_data_acquisition2,96472.0,-0.0364990234375,-0.132446289062,0.740661621094,0.657653808594,-5.5625,-1.9375,-1.0,0.94,-2.83,9.44
1541793263588807106,275,0,/imu_data_acquisition2,96481.0,-0.0363159179688,-0.132629394531,0.740661621094,0.657653808594,-0.5,-3.0,-0.625,0.96,-2.54,9.59
1541793263596384048,276,0,/imu_data_acquisition2,96491.0,-0.0359497070312,-0.132629394531,0.740661621094,0.657653808594,2.875,-0.0625,-0.0625,1.26,-2.53,9.61
1541793263607623100,277,0,/imu_data_acquisition2,96502.0,-0.0355834960938,-0.132507324219,0.740783691406,0.657592773438,4.5625,-0.0625,-0.0625,1.05,-2.61,9.35
1541793263618419885,278,0,/imu_data_acquisition2,96511.0,-0.034912109375,-0.132080078125,0.740905761719,0.657592773438,9.0,-2.3125,0.0625,1.25,-1.84,9.3
1541793263626250028,279,0,/imu_data_acquisition2,96521.0,-0.0343017578125,-0.131591796875,0.741027832031,0.657592773438,9.8125,-1.9375,-0.0625,0.87,-1.84,9.77
1541793263638557910,280,0,/imu_data_acquisition2,96531.0,-0.0338745117188,-0.131286621094,0.741149902344,0.657531738281,5.5625,-1.5625,1.0,1.01,-1.86,9.69
1541793263647536039,281,0,/imu_data_acquisition2,96541.0,-0.0335083007812,-0.131103515625,0.7412109375,0.657531738281,4.4375,-1.8125,0.375,1.18,-1.73,9.81
1541793263656404018,282,0,/imu_data_acquisition2,96551.0,-0.0335083007812,-0.131103515625,0.7412109375,0.657531738281,2.375,-1.6875,0.0625,1.14,-1.88,9.68
1541793263667582035,283,0,/imu_data_acquisition2,96561.0,-0.03369140625,-0.130981445312,0.738159179688,0.660949707031,0.9375,-1.8125,-0.5625,0.96,-2.03,-0.01
1541793263676630020,284,0,/imu_data_acquisition2,96571.0,-0.0335693359375,-0.131103515625,0.738159179688,0.660949707031,-0.4375,-2.0625,-0.6875,0.89,-2.36,9.53
1541793263686981916,285,0,/imu_data_acquisition2,96581.0,-0.0333862304688,-0.006103515625,-6.103515625e-05,0.661010742188,1.5625,-1.625,-1.3125,0.99,-2.35,9.65
1541793263698165893,286,0,/imu_data_acquisition2,96592.0,-0.0330810546875,-0.130920410156,0.738037109375,0.661071777344,3.1875,-1.0625,-1.25,1.2,-2.34,9.75
1541793263706290006,287,0,/imu_data_acquisition2,96601.0,-0.0330810546875,-0.00592041015625,-6.103515625e-05,0.661071777344,3.9375,-1.0625,-0.25,1.48,-2.24,9.71
1541793263717490911,288,0,/imu_data_acquisition2,96612.0,-0.0332641601562,-0.13037109375,0.735046386719,0.66455078125,3.1875,0.0,0.3125,1.12,-2.07,9.76
1541793263728599071,289,0,/imu_data_acquisition2,96622.0,-0.0330810546875,-0.130187988281,0.735046386719,0.66455078125,3.5625,0.1875,0.25,1.04,-2.12,9.59
1541793263736970901,290,0,/imu_data_acquisition2,96631.0,-0.0330200195312,-0.129943847656,0.735168457031,0.664489746094,1.8125,1.0,1.1875,1.12,-2.4,9.73
1541793263747313976,291,0,/imu_data_acquisition2,96642.0,-0.0328369140625,-0.129577636719,0.735168457031,0.66455078125,4.875,1.5625,-0.25,0.63,-1.92,9.85
1541793263757888078,292,0,/imu_data_acquisition2,96652.0,-0.0328369140625,-0.129577636719,0.735168457031,0.66455078125,1.5625,1.5,0.6875,1.17,-2.17,9.45
1541793263767654895,293,0,/imu_data_acquisition2,96661.0,-0.0332641601562,-0.129272460938,0.733093261719,0.666931152344,3.5,1.375,-0.5625,0.8,-1.72,9.74
1541793263777661085,294,0,/imu_data_acquisition2,96672.0,-0.033203125,-0.128845214844,0.733093261719,0.6669921875,1.125,1.1875,-0.5,0.8,-1.81,9.54
1541793263790468931,295,0,/imu_data_acquisition2,96682.0,-0.0332641601562,-0.128784179688,0.733093261719,0.6669921875,-0.5,0.875,-0.25,0.92,-2.09,9.54
1541793263796963930,296,0,/imu_data_acquisition2,96691.0,-0.0333251953125,-0.128784179688,0.733093261719,0.6669921875,-0.9375,0.625,-0.0625,0.74,-2.2,9.73
1541793263807535886,297,0,/imu_data_acquisition2,96702.0,-0.033447265625,-0.128601074219,0.733093261719,0.6669921875,-0.75,0.0625,-0.5,0.94,-2.13,9.33
1541793263819365978,298,0,/imu_data_acquisition2,96713.0,-0.0335083007812,-0.128723144531,0.733093261719,0.6669921875,-1.1875,0.3125,-0.1875,0.93,-2.25,9.52
1541793263826723098,299,0,/imu_data_acquisition2,96721.0,-0.0335083007812,-0.128723144531,0.733093261719,0.6669921875,0.125,-0.1875,-0.6875,0.91,-2.04,9.45
1541793263838496923,300,0,/imu_data_acquisition2,96732.0,-0.0335693359375,-0.128784179688,0.733032226562,0.667053222656,-0.875,0.0625,-0.25,0.69,-2.18,9.66
1541793263848990917,301,0,/imu_data_acquisition2,96743.0,-0.0335693359375,-0.128784179688,0.733032226562,0.667053222656,-0.875,-0.9375,-0.5625,0.8,-2.08,9.7
1541793263856745958,302,0,/imu_data_acquisition2,96751.0,-0.03369140625,-0.128540039062,0.733093261719,0.6669921875,-0.875,-0.8125,-0.6875,0.9,-2.07,-0.01
1541793263867862939,303,0,/imu_data_acquisition2,96762.0,-0.0337524414062,-0.128356933594,0.733093261719,0.667053222656,-1.125,-1.25,-0.6875,0.9,-1.98,9.55
1541793263879115104,304,0,/imu_data_acquisition2,96772.0,-0.0338134765625,-0.128234863281,0.733093261719,0.667114257812,-2.6875,-1.5,-0.3125,0.83,-2.21,9.56
1541793263886981964,305,0,/imu_data_acquisition2,96782.0,-0.033935546875,-0.128234863281,0.733093261719,0.667053222656,-3.1875,-1.8125,-0.3125,0.92,-2.09,9.55
1541793263899173021,306,0,/imu_data_acquisition2,96793.0,-0.0340576171875,-0.128295898438,0.733093261719,0.667053222656,-2.9375,-1.8125,-0.4375,0.9,-2.16,9.65
1541793263908673048,307,0,/imu_data_acquisition2,96802.0,-0.0341796875,-0.128356933594,0.733093261719,0.667053222656,-3.1875,-1.6875,-0.1875,1.03,-2.18,9.54
1541793263916821002,308,0,/imu_data_acquisition2,96811.0,-0.0343017578125,-0.128540039062,0.733093261719,0.6669921875,-2.625,-1.375,-0.4375,1.31,-2.09,9.46
1541793263930071115,309,0,/imu_data_acquisition2,96825.0,-0.034423828125,-0.129028320312,0.733032226562,0.666931152344,-2.75,-1.5,-0.5,1.08,-2.17,-0.01
1541793263941015958,310,0,/imu_data_acquisition2,96832.0,-0.034423828125,-0.129028320312,0.733032226562,0.666931152344,-3.5,-1.0,-0.3125,0.82,-2.27,9.6
1541793263947959899,311,0,/imu_data_acquisition2,96842.0,-0.0345458984375,-0.129272460938,0.732971191406,0.666931152344,-2.625,-1.25,-0.5625,1.29,-2.33,-0.01
1541793263958822965,312,0,/imu_data_acquisition2,96852.0,-0.0346069335938,-0.129516601562,0.732971191406,0.666931152344,-2.9375,-0.75,-0.125,1.1,-2.31,9.54
1541793263965924978,313,0,/imu_data_acquisition2,96861.0,-0.0347290039062,-0.129699707031,0.732971191406,0.666931152344,-2.9375,-0.75,-0.125,1.0,-2.2,9.79
1541793263978140115,314,0,/imu_data_acquisition2,96872.0,-0.0348510742188,-0.129760742188,0.73291015625,0.666870117188,-2.1875,-0.5,0.0625,1.31,-2.29,9.49
1541793263988967895,315,0,/imu_data_acquisition2,96882.0,-0.0349731445312,-0.1298828125,0.73291015625,0.666870117188,-0.75,-0.3125,-0.3125,1.05,-2.07,9.64
1541793263996925115,316,0,/imu_data_acquisition2,96892.0,-0.0350341796875,-0.1298828125,0.73291015625,0.666870117188,-1.0625,0.25,-0.0625,0.98,-2.2,9.64
1541793264008039951,317,0,/imu_data_acquisition2,96902.0,-0.0350952148438,-0.129821777344,0.73291015625,0.666931152344,-1.25,-0.0625,0.0625,1.06,-2.18,9.52
1541793264018616914,318,0,/imu_data_acquisition2,96912.0,-0.03515625,-0.129821777344,0.73291015625,0.666931152344,-0.5625,0.1875,-0.375,1.06,-1.8,9.52
1541793264026892900,319,0,/imu_data_acquisition2,96922.0,-0.03515625,-0.129821777344,0.73291015625,0.666931152344,-1.4375,0.5,-0.25,0.88,-2.1,9.69
1541793264040050983,320,0,/imu_data_acquisition2,96935.0,-0.0352172851562,-0.1298828125,0.73291015625,0.666870117188,-3.25,0.0,0.25,1.16,-2.19,9.42
1541793264051594972,321,0,/imu_data_acquisition2,96943.0,-0.0355834960938,-0.130065917969,0.732849121094,0.666870117188,-2.3125,0.75,-0.4375,0.83,-2.26,-0.01
1541793264057137012,322,0,/imu_data_acquisition2,96952.0,-0.0355834960938,-0.130065917969,0.732849121094,0.666870117188,-3.4375,0.9375,-0.0625,1.08,-2.26,9.52
1541793264070760965,323,0,/imu_data_acquisition2,96965.0,-0.0361328125,-0.130126953125,0.732788085938,0.666931152344,-2.875,0.8125,-0.25,0.91,-2.3,9.67
1541793264081465959,324,0,/imu_data_acquisition2,96973.0,-0.0361328125,-0.130126953125,0.732788085938,0.666931152344,-3.0,0.625,-0.1875,0.86,-2.19,9.51
1541793264087699890,325,0,/imu_data_acquisition2,96982.0,-0.0366821289062,-0.130249023438,0.732788085938,0.666931152344,-3.125,1.125,-0.3125,1.0,-2.42,9.57
1541793264100533962,326,0,/imu_data_acquisition2,96993.0,-0.0366821289062,-0.0052490234375,-6.103515625e-05,0.666931152344,-3.1875,0.75,-0.125,1.04,-2.15,9.48
1541793264111212968,327,0,/imu_data_acquisition2,97001.0,-0.0369262695312,-0.130310058594,0.732727050781,0.666931152344,-3.1875,0.75,-0.125,0.74,-2.31,9.81
1541793264117779016,328,0,/imu_data_acquisition2,97012.0,-6.103515625e-05,-6.103515625e-05,-6.103515625e-05,0.666931152344,-3.1875,1.8125,-0.125,1.3,-2.05,9.56
1541793264130865097,329,0,/imu_data_acquisition2,97022.0,-0.0374755859375,-0.130310058594,0.732666015625,0.666931152344,-2.3125,1.6875,-0.5,0.72,-2.17,9.72
1541793264141834974,330,0,/imu_data_acquisition2,97033.0,-0.0377807617188,-0.005126953125,-6.103515625e-05,0.666931152344,-4.25,1.0625,0.0,1.1,-2.21,9.32
1541793264148416996,331,0,/imu_data_acquisition2,97043.0,-6.103515625e-05,-6.103515625e-05,-6.103515625e-05,0.666931152344,-3.9375,2.1875,-0.375,1.19,-2.28,9.38
1541793264157634019,332,0,/imu_data_acquisition2,97051.0,-0.0383911132812,-0.130310058594,0.732604980469,0.6669921875,-3.9375,2.1875,-0.375,1.19,-2.28,9.38
1541793264167498111,333,0,/imu_data_acquisition2,97062.0,-0.038818359375,-0.130432128906,0.732543945312,0.6669921875,-5.0,1.5,-0.3125,0.98,-2.14,9.52
1541793264178044080,334,0,/imu_data_acquisition2,97072.0,-0.0391845703125,-0.130554199219,0.732482910156,0.667053222656,-6.4375,2.1875,-0.6875,0.97,-2.54,9.66
1541793264189548015,335,0,/imu_data_acquisition2,97083.0,-0.0397338867188,-0.130737304688,0.732360839844,0.667053222656,-7.4375,2.4375,-0.1875,0.97,-2.31,9.33
1541793264198259115,336,0,/imu_data_acquisition2,97093.0,-0.0403442382812,-0.131042480469,0.732238769531,0.667053222656,-6.375,2.1875,-0.0625,1.14,-2.3,9.52
1541793264208280086,337,0,/imu_data_acquisition2,97102.0,-0.040771484375,-0.131286621094,0.732116699219,0.667175292969,-6.375,2.1875,-1.0,0.48,-3.18,9.81
1541793264216720104,338,0,/imu_data_acquisition2,97111.0,-0.0414428710938,-0.131713867188,0.731994628906,0.667114257812,-9.25,2.125,-0.125,0.48,-3.18,9.81
1541793264228713035,339,0,/imu_data_acquisition2,97123.0,-0.0422973632812,-0.131958007812,0.731872558594,0.667175292969,-2.25,5.1875,-1.8125,0.79,-2.2,10.56
1541793264239763021,340,0,/imu_data_acquisition2,97133.0,-0.042724609375,-0.131774902344,0.731750488281,0.667358398438,-11.75,3.125,0.75,1.21,-2.26,9.36
1541793264249515056,341,0,/imu_data_acquisition2,97143.0,-0.0435791015625,-0.13232421875,0.731628417969,0.667297363281,-8.6875,5.8125,-1.3125,0.74,-2.98,10.79
1541793264257261037,342,0,/imu_data_acquisition2,97152.0,-0.04443359375,-0.132568359375,0.7314453125,0.667419433594,-8.6875,5.8125,-1.3125,1.3,-2.5,8.88
1541793264271002054,343,0,/imu_data_acquisition2,97166.0,-0.0462646484375,-0.13330078125,0.731140136719,0.66748046875,-7.0625,5.4375,-2.125,1.04,-1.86,9.42
1541793264281837940,344,0,/imu_data_acquisition2,97176.0,-0.0462646484375,-0.13330078125,0.731140136719,0.66748046875,-11.5625,8.25,-0.3125,1.38,-2.39,9.07
1541793264288275957,345,0,/imu_data_acquisition2,97183.0,-0.0474243164062,-0.133544921875,0.73095703125,0.667541503906,-14.1875,11.875,0.1875,1.37,-2.18,-0.01
1541793264301067113,346,0,/imu_data_acquisition2,97196.0,-0.0507202148438,-0.133850097656,0.730407714844,0.667846679688,-15.4375,-0.0625,-0.0625,1.92,-1.82,9.36
1541793264311099052,347,0,/imu_data_acquisition2,97203.0,-0.0507202148438,-0.133850097656,0.730407714844,0.667846679688,-15.4375,14.5625,-1.5625,1.69,-2.15,9.16
1541793264318237066,348,0,/imu_data_acquisition2,97213.0,-0.052978515625,-0.134094238281,0.72998046875,0.668090820312,-27.4375,25.75,-2.0,1.27,-1.98,10.47
1541793264340209960,349,0,/imu_data_acquisition2,97228.0,-0.059814453125,-0.134155273438,0.728759765625,0.668823242188,-12.125,-0.0625,-0.0625,1.97,-2.27,8.94
1541793264348973989,350,0,/imu_data_acquisition2,97240.0,-0.059814453125,-0.134155273438,0.728759765625,0.668823242188,-33.1875,40.125,-3.0625,2.3,-2.66,7.86
1541793264351026058,351,0,/imu_data_acquisition2,97244.0,-0.0695190429688,-0.132873535156,0.726928710938,0.670104980469,-34.875,57.25,-0.0625,1.36,-0.91,9.76
1541793264359992027,352,0,/imu_data_acquisition2,97255.0,-0.0748291015625,-0.130859375,0.7255859375,0.671447753906,-25.4375,64.625,-12.125,1.95,-2.69,9.25
1541793264365822076,353,0,/imu_data_acquisition2,97261.0,-0.0123291015625,-6.103515625e-05,-6.103515625e-05,0.671447753906,-25.4375,64.625,-12.125,1.95,-2.69,9.25
1541793264378065109,354,0,/imu_data_acquisition2,97273.0,-0.081787109375,-0.129516601562,0.724182128906,0.67236328125,-29.3125,86.125,-18.1875,0.81,-3.05,10.1
1541793264389703035,355,0,/imu_data_acquisition2,97284.0,-0.0885009765625,-0.126525878906,0.722229003906,0.674194335938,-37.875,96.0,-18.6875,1.22,-3.68,9.49
1541793264399523973,356,0,/imu_data_acquisition2,97293.0,-0.0963134765625,-0.123474121094,0.720031738281,0.676086425781,-37.875,96.0,-18.6875,0.92,-0.01,-0.01
1541793264407407999,357,0,/imu_data_acquisition2,97302.0,-0.104187011719,-0.119750976562,0.717468261719,0.678283691406,-31.9375,103.0,-0.0625,0.72,-3.47,9.63
1541793264421714067,358,0,/imu_data_acquisition2,97313.0,-0.112182617188,-0.115112304688,0.714538574219,0.680908203125,-25.5,112.5625,-28.9375,0.8,-3.32,9.19
1541793264429941892,359,0,/imu_data_acquisition2,97324.0,-0.120666503906,-0.110046386719,0.711181640625,0.683776855469,-21.875,131.0625,-44.1875,0.35,-2.64,9.78
1541793264441390991,360,0,/imu_data_acquisition2,97336.0,-0.12939453125,-0.104248046875,0.70703125,0.687377929688,-22.5,142.625,-51.8125,0.38,-2.48,10.05
1541793264452131032,361,0,/imu_data_acquisition2,97344.0,-0.138732910156,-0.0978393554688,0.702209472656,0.691467285156,-24.9375,151.4375,-54.875,-0.05,-2.48,9.85
1541793264456413984,362,0,/imu_data_acquisition2,97351.0,-0.148742675781,-0.0911254882812,0.696960449219,0.695617675781,-24.9375,151.4375,-54.875,-0.05,-2.48,9.85
1541793264467509984,363,0,/imu_data_acquisition2,97361.0,-0.159301757812,-0.0841064453125,0.691162109375,0.699890136719,-27.4375,159.875,-58.875,-0.1,-3.07,9.6
1541793264482194900,364,0,/imu_data_acquisition2,97374.0,-0.170532226562,-0.0767211914062,0.684753417969,0.704406738281,-26.3125,178.5,-75.4375,-1.0,-3.91,9.9
1541793264488629102,365,0,/imu_data_acquisition2,97383.0,-0.181945800781,-0.0686645507812,0.677429199219,0.709411621094,-24.4375,188.125,-86.8125,-1.02,-4.0,9.65
1541793264499284029,366,0,/imu_data_acquisition2,97394.0,-0.193603515625,-0.0601196289062,0.669067382812,0.714965820312,-24.4375,188.125,-0.0625,-1.02,-3.64,9.6
1541793264510960102,367,0,/imu_data_acquisition2,97403.0,-6.103515625e-05,-6.103515625e-05,-6.103515625e-05,0.721496582031,-11.125,195.0625,-102.8125,-1.59,-4.71,9.12
1541793264516746044,368,0,/imu_data_acquisition2,97411.0,-0.215270996094,-0.0402221679688,0.648620605469,0.728942871094,3.1875,201.9375,-119.6875,-1.59,-4.71,9.12
1541793264529658079,369,0,/imu_data_acquisition2,97423.0,-0.224975585938,-0.0287475585938,0.636108398438,0.737487792969,19.875,209.375,-139.5625,-2.28,-5.53,8.76
1541793264542608976,370,0,/imu_data_acquisition2,97435.0,-0.233276367188,-0.0160522460938,0.621765136719,0.747436523438,70.9375,218.6875,-189.125,-2.7,-3.63,9.51
1541793264548697948,371,0,/imu_data_acquisition2,97443.0,-0.239990234375,-0.00225830078125,0.60546875,0.758850097656,104.8125,222.1875,-215.9375,-2.81,-3.03,9.89
1541793264557867050,372,0,/imu_data_acquisition2,97452.0,-0.244506835938,0.012939453125,0.5869140625,0.771789550781,104.8125,222.1875,-215.9375,-2.81,-3.03,9.89
1541793264567019939,373,0,/imu_data_acquisition2,97461.0,-0.247802734375,0.0281372070312,0.566650390625,0.785278320312,117.3125,218.75,-235.4375,-2.21,-2.75,9.55
1541793264578447103,374,0,/imu_data_acquisition2,97473.0,-0.250427246094,0.0427856445312,0.544982910156,0.799072265625,121.6875,212.1875,-252.125,-1.6,-5.0,10.91
1541793264589842081,375,0,/imu_data_acquisition2,97484.0,-0.252685546875,0.056396484375,0.52197265625,0.812744140625,118.125,205.0,-266.5625,-0.65,-0.01,-0.01
1541793264599556922,376,0,/imu_data_acquisition2,97493.0,-0.25341796875,0.0697021484375,0.496826171875,0.827087402344,135.25,198.25,-291.9375,2.07,0.74,14.34
1541793264606965065,377,0,/imu_data_acquisition2,97501.0,-0.250671386719,0.08154296875,0.469177246094,0.842834472656,166.625,170.125,-0.0625,2.07,0.74,14.34
1541793264618096113,378,0,/imu_data_acquisition2,97512.0,-0.245788574219,0.0904541015625,0.441345214844,0.858276367188,170.75,129.4375,-332.125,5.54,9.32,15.43
1541793264628896951,379,0,/imu_data_acquisition2,97523.0,-0.242797851562,0.0945434570312,0.417175292969,0.870666503906,114.5,83.0,-295.25,4.28,9.11,19.16
1541793264640228033,380,0,/imu_data_acquisition2,97534.0,-0.241088867188,0.0948486328125,0.398376464844,0.8798828125,66.5625,38.375,-236.5625,7.97,-0.01,-0.01
