%time,field.header.seq,field.header.stamp,field.header.frame_id,field.time_stamp,field.quat_x,field.quat_y,field.quat_z,field.quat_w,field.gyro_x,field.gyro_y,field.gyro_z,field.accel_x,field.accel_y,field.accel_z
1541792717058304071,1281,0,/imu_data_acquisition2,57189.0,-0.0331420898438,-0.0896606445312,0.750061035156,0.654418945312,-393.875,7.6875,-0.0625,10.1,-0.01,-0.01
1541792717068288087,1282,0,/imu_data_acquisition2,57199.0,-0.0387573242188,-0.0965576171875,0.749145507812,0.654235839844,-105.3125,-3.4375,-2.1875,1.19,-8.05,5.32
1541792717080631017,1283,0,/imu_data_acquisition2,57211.0,-0.0391235351562,-0.0928344726562,0.745727539062,0.658569335938,28.25,38.5625,-63.125,0.43,3.08,10.84
1541792717090677022,1284,0,/imu_data_acquisition2,57221.0,-0.0558471679688,-0.106201171875,0.746459960938,0.654541015625,-249.1875,38.625,53.8125,-1.87,-23.72,31.09
1541792717098166942,1285,0,/imu_data_acquisition2,57229.0,-0.0654907226562,-0.118041992188,0.745544433594,0.652648925781,-182.4375,-8.4375,13.6875,-1.19,-18.13,2.92
1541792717108120918,1286,0,/imu_data_acquisition2,57239.0,-0.062255859375,-0.115600585938,0.7421875,0.6572265625,45.5625,-0.75,-69.125,-0.5,0.18,15.8
1541792717118947982,1287,0,/imu_data_acquisition2,57250.0,-0.0652465820312,-0.119140625,0.741149902344,0.657470703125,-55.375,-0.375,-8.5625,1.99,-10.65,5.23
1541792717132268905,1288,0,/imu_data_acquisition2,57263.0,-0.0682373046875,-0.122314453125,0.740905761719,0.656860351562,-51.6875,0.875,5.3125,-0.61,-7.9,12.78
1541792717140064001,1289,0,/imu_data_acquisition2,57271.0,-0.06689453125,-0.121032714844,0.740295410156,0.657897949219,21.1875,0.1875,-14.875,0.66,-1.28,9.57
1541792717150254964,1290,0,/imu_data_acquisition2,57279.0,-0.066650390625,-0.121337890625,0.740478515625,0.657653808594,-0.9375,-4.5625,3.1875,1.07,-4.0,9.2
1541792717158698081,1291,0,/imu_data_acquisition2,57289.0,-0.0654296875,-0.120422363281,0.740661621094,0.657775878906,17.75,-3.6875,-0.6875,1.04,-1.69,9.85
1541792717168288946,1292,0,/imu_data_acquisition2,57299.0,-0.0645751953125,-0.11962890625,0.740844726562,0.657775878906,14.3125,-1.75,0.6875,1.12,-2.33,9.26
1541792717180788993,1293,0,/imu_data_acquisition2,57310.0,-0.063720703125,-0.118713378906,0.741027832031,0.657836914062,14.875,0.375,-0.5,0.92,-1.43,9.33
1541792717192821025,1294,0,/imu_data_acquisition2,57322.0,-0.0630493164062,-0.117736816406,0.740966796875,0.658081054688,13.8125,2.0,-2.5,0.94,-1.46,9.82
1541792717198797941,1295,0,/imu_data_acquisition2,57329.0,-0.0631713867188,-0.11767578125,0.740966796875,0.658142089844,0.5,1.375,-0.0625,0.71,-1.96,9.63
1541792717215861082,1296,0,/imu_data_acquisition2,57340.0,-0.0634765625,-0.117858886719,0.740844726562,0.658203125,-4.5,1.5,-1.125,0.75,-2.49,9.77
1541792717221615076,1297,0,/imu_data_acquisition2,57351.0,-0.0637817382812,-0.117980957031,0.740600585938,0.658386230469,-3.8125,2.1875,-3.1875,0.84,-2.16,-0.01
1541792717232353925,1298,0,/imu_data_acquisition2,57361.0,-0.0641479492188,-0.118225097656,0.740295410156,0.65869140625,-4.4375,1.875,-4.0625,0.66,-2.18,9.45
1541792717252868890,1300,0,/imu_data_acquisition2,57383.0,-0.0652465820312,-0.119140625,0.73974609375,0.659057617188,-8.0,1.875,-4.375,1.13,-2.36,9.43
1541792717259474992,1301,0,/imu_data_acquisition2,57389.0,-0.0657348632812,-0.119445800781,0.739318847656,0.659362792969,-7.0625,2.9375,-5.375,0.94,-2.26,9.47
1541792717270060062,1302,0,/imu_data_acquisition2,57400.0,-0.06640625,-0.119934082031,0.739013671875,0.659606933594,-9.625,2.4375,-4.125,0.67,-2.55,9.27
1541792717280999898,1303,0,/imu_data_acquisition2,57411.0,-0.0670166015625,-0.120483398438,0.738708496094,0.659790039062,-10.1875,1.75,-3.1875,0.77,-2.89,9.24
1541792717290020942,1304,0,/imu_data_acquisition2,57419.0,-0.0675048828125,-0.121032714844,0.738464355469,0.659851074219,-8.625,0.5,-2.4375,0.77,-3.02,9.63
1541792717301273107,1305,0,/imu_data_acquisition2,57431.0,-0.00518798828125,-6.103515625e-05,-6.103515625e-05,0.659973144531,-4.8125,-0.875,-1.9375,0.89,-2.84,9.52
1541792717311491012,1306,0,/imu_data_acquisition2,57442.0,-0.0677490234375,-0.121643066406,0.738159179688,0.660034179688,-2.9375,-1.625,-1.1875,0.87,-3.0,9.52
1541792717320442914,1307,0,/imu_data_acquisition2,57450.0,-6.103515625e-05,-6.103515625e-05,-6.103515625e-05,0.66015625,1.8125,-2.75,-1.375,1.26,-2.72,9.22
1541792717331113100,1308,0,/imu_data_acquisition2,57459.0,-0.004638671875,-6.103515625e-05,-6.103515625e-05,0.660217285156,2.9375,-2.125,-1.3125,0.99,-2.95,9.81
1541792717346682071,1309,0,/imu_data_acquisition2,57477.0,-6.103515625e-05,-6.103515625e-05,-6.103515625e-05,0.660339355469,3.25,-1.0,-0.5,0.94,-2.78,9.37
1541792717351794004,1310,0,/imu_data_acquisition2,57482.0,-0.0663452148438,-0.121398925781,0.738098144531,0.660339355469,3.25,-1.0,-0.5,0.94,-0.01,-0.01
1541792717359678030,1311,0,/imu_data_acquisition2,57490.0,-0.0661010742188,-0.121398925781,0.738098144531,0.660339355469,2.125,-1.125,-0.4375,0.9,-2.65,9.69
1541792717372221946,1312,0,/imu_data_acquisition2,57502.0,-0.0657348632812,-0.121154785156,0.738098144531,0.660461425781,5.1875,-0.875,-1.6875,1.05,-2.11,9.49
1541792717382565975,1313,0,/imu_data_acquisition2,57513.0,-0.0655517578125,-0.120971679688,0.738037109375,0.660583496094,2.9375,-0.6875,-1.125,0.77,-2.6,9.58
1541792717388881921,1314,0,/imu_data_acquisition2,57519.0,-0.0654907226562,-0.120971679688,0.738037109375,0.66064453125,0.875,-0.4375,-0.875,0.84,-2.47,9.62
1541792717403110980,1315,0,/imu_data_acquisition2,57532.0,-0.0652465820312,-0.12109375,0.737976074219,0.660705566406,0.5625,-0.5,-0.75,1.26,-2.72,9.38
1541792717415235042,1316,0,/imu_data_acquisition2,57545.0,-0.0650024414062,-0.12109375,0.737854003906,0.660827636719,1.0625,0.4375,-0.9375,0.78,-2.75,9.78
1541792717424536943,1317,0,/imu_data_acquisition2,57554.0,-0.0648193359375,-0.120971679688,0.73779296875,0.660949707031,2.125,0.6875,-1.3125,0.78,-2.75,9.78
1541792717436599969,1318,0,/imu_data_acquisition2,57565.0,-0.0648803710938,-0.121032714844,0.73779296875,0.660949707031,-0.9375,0.25,0.0,1.04,-2.95,9.34
1541792717443893909,1319,0,/imu_data_acquisition2,57574.0,-0.0648193359375,-0.120849609375,0.737731933594,0.661010742188,2.3125,1.0625,-0.75,1.09,-2.49,9.38
1541792717451911926,1320,0,/imu_data_acquisition2,57581.0,-0.0647583007812,-0.120666503906,0.73779296875,0.661010742188,2.4375,0.875,-0.375,0.85,-2.74,9.61
1541792717463063001,1321,0,/imu_data_acquisition2,57591.0,-0.0646362304688,-0.120483398438,0.737487792969,0.661376953125,2.125,1.25,-0.125,0.87,-2.46,9.58
1541792717472456932,1322,0,/imu_data_acquisition2,57603.0,-0.0645141601562,-0.120239257812,0.737487792969,0.661437988281,2.9375,1.125,-0.625,0.71,-2.34,9.57
1541792717481878995,1323,0,/imu_data_acquisition2,57611.0,-0.0645751953125,-0.120178222656,0.737487792969,0.661437988281,0.6875,0.6875,0.1875,0.65,-2.3,9.3
1541792717493132114,1324,0,/imu_data_acquisition2,57623.0,-0.064453125,-0.120056152344,0.737487792969,0.661499023438,2.0,0.5625,-0.6875,0.86,-2.43,9.7
1541792717502278089,1325,0,/imu_data_acquisition2,57633.0,-0.0643920898438,-0.119995117188,0.737487792969,0.661499023438,0.875,-0.125,-0.25,0.93,-2.31,9.17
1541792717511059999,1326,0,/imu_data_acquisition2,57640.0,-0.0643920898438,-0.119934082031,0.737487792969,0.661499023438,-0.25,0.625,-0.5,0.76,-2.58,9.39
1541792717519879102,1327,0,/imu_data_acquisition2,57651.0,-0.0643310546875,-0.120056152344,0.737426757812,0.661499023438,-0.8125,-0.6875,-0.4375,0.77,-2.42,9.45
1541792717536237001,1328,0,/imu_data_acquisition2,57667.0,-0.064453125,-0.120178222656,0.737426757812,0.661499023438,-1.6875,0.0,-0.4375,0.38,-2.46,9.73
1541792717544260978,1329,0,/imu_data_acquisition2,57674.0,-0.064453125,-0.120300292969,0.737365722656,0.661560058594,-1.1875,-1.125,-0.9375,0.38,-2.46,9.73
1541792717552265882,1330,0,/imu_data_acquisition2,57682.0,-0.0645751953125,-0.120422363281,0.737365722656,0.661560058594,-2.25,-0.5,-0.5625,0.93,-2.78,9.33
1541792717563044071,1331,0,/imu_data_acquisition2,57693.0,-0.0646362304688,-0.120666503906,0.7373046875,0.661560058594,-2.6875,-1.375,-0.75,0.75,-2.43,9.52
1541792717570643901,1332,0,/imu_data_acquisition2,57700.0,-0.064697265625,-0.120910644531,0.737243652344,0.661560058594,-2.75,-1.0,-0.75,0.78,-2.67,9.51
1541792717581224918,1333,0,/imu_data_acquisition2,57711.0,-0.0647583007812,-0.121215820312,0.737182617188,0.66162109375,-3.1875,-1.25,-0.75,0.75,-2.39,9.34
1541792717592658042,1334,0,/imu_data_acquisition2,57722.0,-0.0647583007812,-0.121459960938,0.737060546875,0.66162109375,-2.5,-1.125,-0.9375,0.7,-2.68,9.54
1541792717599961996,1335,0,/imu_data_acquisition2,57729.0,-0.0648803710938,-0.121765136719,0.737060546875,0.66162109375,-3.75,-1.375,-0.1875,0.78,-2.75,9.53
1541792717611358880,1336,0,/imu_data_acquisition2,57741.0,-0.06494140625,-0.122009277344,0.736999511719,0.66162109375,-2.1875,-1.1875,-0.8125,0.86,-2.81,9.59
1541792717622946023,1337,0,/imu_data_acquisition2,57752.0,-0.06494140625,-0.122375488281,0.736938476562,0.66162109375,-3.0,-1.25,-0.3125,1.03,-2.62,9.39
1541792717628860950,1338,0,/imu_data_acquisition2,57759.0,-0.06494140625,-0.12255859375,0.736877441406,0.66162109375,-1.5,-0.625,-0.6875,0.82,-2.58,9.55
1541792717641556978,1339,0,/imu_data_acquisition2,57771.0,-0.0650024414062,-0.122802734375,0.736877441406,0.66162109375,-2.6875,-0.625,-0.3125,0.75,-2.66,9.6
1541792717652996063,1340,0,/imu_data_acquisition2,57782.0,-0.0651245117188,-0.0135498046875,-6.103515625e-05,0.66162109375,-2.1875,-0.375,-0.5,0.71,-2.53,9.42
1541792717660753965,1341,0,/imu_data_acquisition2,57790.0,-0.0652465820312,-0.0137329101562,-6.103515625e-05,0.66162109375,-2.4375,-0.4375,-0.4375,0.96,-2.72,9.52
1541792717672178030,1342,0,/imu_data_acquisition2,57803.0,-0.0653076171875,-0.123291015625,0.736755371094,0.66162109375,-2.5625,-0.4375,-0.4375,0.88,-2.67,9.41
1541792717683634042,1343,0,/imu_data_acquisition2,57812.0,-0.0654296875,-0.123474121094,0.736755371094,0.661560058594,-1.9375,-0.0625,-0.5,0.83,-0.01,-0.01
1541792717693701028,1344,0,/imu_data_acquisition2,57822.0,-0.0654907226562,-0.123596191406,0.736694335938,0.661560058594,-1.75,0.375,-0.0625,0.73,-2.73,9.54
1541792717702373981,1345,0,/imu_data_acquisition2,57833.0,-0.0655517578125,-0.123718261719,0.736694335938,0.661560058594,-1.875,0.1875,-0.5,0.64,-2.62,9.6
1541792717712732076,1346,0,/imu_data_acquisition2,57841.0,-0.065673828125,-0.123840332031,0.736694335938,0.661560058594,-1.4375,0.0,-0.1875,0.78,-2.72,9.66
1541792717719851970,1347,0,/imu_data_acquisition2,57850.0,-0.0657958984375,-0.123840332031,0.736633300781,0.661560058594,-1.3125,1.0,0.0625,0.79,-2.54,9.43
1541792717733942031,1348,0,/imu_data_acquisition2,57864.0,-0.0657958984375,-0.123779296875,0.736633300781,0.661560058594,-0.5,0.75,-0.375,0.68,-2.55,9.47
1541792717744199991,1349,0,/imu_data_acquisition2,57872.0,-0.0658569335938,-0.123901367188,0.736633300781,0.661560058594,-1.875,0.9375,0.0625,1.01,-2.55,9.43
1541792717749762058,1350,0,/imu_data_acquisition2,57880.0,-0.0658569335938,-0.1240234375,0.736633300781,0.66162109375,-1.1875,0.375,-0.4375,0.85,-2.54,9.46
1541792717762552022,1351,0,/imu_data_acquisition2,57893.0,-0.0659790039062,-0.124145507812,0.736572265625,0.66162109375,-2.25,0.6875,-0.1875,0.87,-2.67,9.48
1541792717771418094,1352,0,/imu_data_acquisition2,57901.0,-0.066162109375,-0.014892578125,-6.103515625e-05,0.66162109375,-2.625,1.1875,-0.375,0.62,-2.77,9.48
1541792717779752969,1353,0,/imu_data_acquisition2,57910.0,-0.0664672851562,-0.124389648438,0.736511230469,0.661560058594,-3.6875,1.4375,-0.0625,0.82,-2.68,9.25
1541792717792309999,1354,0,/imu_data_acquisition2,57923.0,-0.066650390625,-0.12451171875,0.736389160156,0.66162109375,-2.625,1.1875,-0.625,0.76,-2.62,9.55
1541792717800348997,1355,0,/imu_data_acquisition2,57930.0,-0.0668334960938,-0.124694824219,0.736328125,0.661682128906,-3.0625,1.0625,-0.625,0.84,-2.59,9.34
1541792717809469938,1356,0,/imu_data_acquisition2,57940.0,-0.00457763671875,-6.103515625e-05,-6.103515625e-05,0.661682128906,-4.25,1.625,-0.0625,1.02,-2.6,9.36
1541792717822706937,1357,0,/imu_data_acquisition2,57953.0,-0.0672607421875,-0.125122070312,0.736145019531,0.661743164062,-3.5625,1.125,-0.875,0.86,-2.55,9.49
1541792717830241918,1358,0,/imu_data_acquisition2,57960.0,-0.0675048828125,-0.125305175781,0.736083984375,0.661743164062,-4.0625,1.8125,-0.625,0.73,-2.66,9.51
1541792717839773893,1359,0,/imu_data_acquisition2,57970.0,-0.06787109375,-0.125549316406,0.735961914062,0.661804199219,-5.125,1.6875,-0.0625,0.85,-2.7,9.51
1541792717853728055,1360,0,/imu_data_acquisition2,57984.0,-0.0682373046875,-0.125732421875,0.73583984375,0.661865234375,-4.6875,1.875,-0.0625,1.51,-2.21,8.47
1541792717863373041,1361,0,/imu_data_acquisition2,57990.0,-0.00616455078125,-6.103515625e-05,-6.103515625e-05,0.661926269531,-4.125,2.9375,-1.0625,0.45,-0.01,-0.01
1541792717869215011,1362,0,/imu_data_acquisition2,58000.0,-0.0692138671875,-0.126159667969,0.735656738281,0.661926269531,-7.5,-0.0625,-0.0625,0.79,-2.83,8.66
1541792717880840063,1363,0,/imu_data_acquisition2,58011.0,-0.0698852539062,-0.126403808594,0.735534667969,0.661926269531,-7.6875,3.8125,-0.5625,1.47,-2.65,9.43
1541792717892280101,1364,0,/imu_data_acquisition2,58019.0,-0.0706176757812,-0.12646484375,0.735412597656,0.661987304688,-6.0,6.0625,-0.75,0.79,-2.95,10.6
1541792717900737047,1365,0,/imu_data_acquisition2,58031.0,-0.0712890625,-0.126586914062,0.735229492188,0.662048339844,-6.5625,5.25,-1.0,0.89,-2.43,10.16
1541792717911156892,1366,0,/imu_data_acquisition2,58041.0,-0.0718994140625,-0.126647949219,0.735046386719,0.662231445312,-5.625,4.875,-2.0,0.8,-3.06,10.24
1541792717919554948,1367,0,/imu_data_acquisition2,58050.0,-0.072998046875,-0.126953125,0.73486328125,0.662231445312,-11.25,7.0625,0.25,1.33,-2.86,9.4
1541792717930047988,1368,0,/imu_data_acquisition2,58060.0,-0.0739135742188,-0.127014160156,0.734680175781,0.662353515625,-7.9375,8.125,-1.4375,1.27,-2.18,8.84
1541792717943952083,1369,0,/imu_data_acquisition2,58074.0,-0.0751953125,-0.127014160156,0.734375,0.662475585938,-10.375,11.3125,-1.375,1.21,-2.77,8.73
1541792717950143098,1370,0,/imu_data_acquisition2,58080.0,-0.0770263671875,-0.127075195312,0.734130859375,0.662536621094,-15.25,16.0625,-0.0625,1.27,-3.01,9.92
1541792717960146903,1371,0,/imu_data_acquisition2,58091.0,-0.0792236328125,-0.126953125,0.733764648438,0.662719726562,-16.625,20.25,-0.0625,2.29,-2.9,8.14
1541792717969243049,1372,0,/imu_data_acquisition2,58099.0,-0.08154296875,-0.126159667969,0.733154296875,0.663208007812,-11.5,27.875,-4.6875,0.57,-2.4,10.37
1541792717980293035,1373,0,/imu_data_acquisition2,58111.0,-0.0849609375,-0.125305175781,0.732666015625,0.66357421875,-19.5,37.5,-1.125,1.27,-4.25,9.43
1541792717990134954,1374,0,/imu_data_acquisition2,58121.0,-0.0886840820312,-0.124633789062,0.732177734375,0.663696289062,-24.25,38.4375,1.3125,2.33,-2.7,7.89
1541792717999351024,1375,0,/imu_data_acquisition2,58129.0,-0.0927124023438,-0.122619628906,0.731506347656,0.664245605469,-14.9375,52.0,-1.8125,0.9,-2.74,9.17
1541792718010314941,1376,0,/imu_data_acquisition2,58141.0,-0.09716796875,-0.120483398438,0.73095703125,0.664672851562,-16.75,56.5,0.625,1.24,-2.93,8.9
1541792718020123958,1377,0,/imu_data_acquisition2,58151.0,-0.102111816406,-0.117919921875,0.730407714844,0.664978027344,-17.0625,64.1875,2.6875,1.13,-3.51,9.17
1541792718029333114,1378,0,/imu_data_acquisition2,58159.0,-0.107604980469,-0.114624023438,0.729675292969,0.665466308594,-14.75,74.6875,2.1875,1.33,-2.64,9.85
1541792718044444084,1379,0,/imu_data_acquisition2,58174.0,-0.113220214844,-0.110656738281,0.728881835938,0.666076660156,-10.625,81.4375,1.0625,0.99,-3.04,9.06
1541792718051673889,1380,0,/imu_data_acquisition2,58182.0,-0.119750976562,-0.107177734375,0.728210449219,0.666259765625,-21.5625,85.125,6.3125,0.49,-3.5,9.48
1541792718058643102,1381,0,/imu_data_acquisition2,58189.0,-0.119750976562,-0.107177734375,0.728210449219,0.666259765625,-19.5,93.125,6.0,0.0,-0.01,-0.01
1541792718070005893,1382,0,/imu_data_acquisition2,58200.0,-0.126586914062,-0.10302734375,0.727416992188,0.66650390625,-16.625,97.875,3.875,0.26,-3.34,9.12
1541792718080774068,1383,0,/imu_data_acquisition2,58210.0,-0.140869140625,-0.0935668945312,0.725158691406,0.66748046875,-15.4375,104.3125,1.8125,0.23,-2.93,9.01
1541792718088713884,1384,0,/imu_data_acquisition2,58219.0,-0.148559570312,-0.0880737304688,0.7236328125,0.668212890625,-13.9375,112.5,-1.1875,-0.27,-2.87,10.88
1541792718100507974,1385,0,/imu_data_acquisition2,58231.0,-0.156677246094,-0.0823364257812,0.721801757812,0.669067382812,-15.875,119.375,-2.625,-0.01,-3.06,9.3
1541792718110857963,1386,0,/imu_data_acquisition2,58240.0,-0.156677246094,-0.0823364257812,0.721801757812,0.669067382812,-24.1875,122.4375,-0.625,-0.82,-3.68,9.53
1541792718118607044,1387,0,/imu_data_acquisition2,58249.0,-0.16552734375,-0.076904296875,0.719970703125,0.669555664062,-27.0,131.3125,-2.0625,-1.08,-3.45,10.29
1541792718130225896,1388,0,/imu_data_acquisition2,58260.0,-0.184631347656,-0.064697265625,0.715148925781,0.671081542969,-21.875,138.75,-7.625,-0.79,-3.31,9.97
1541792718144475936,1389,0,/imu_data_acquisition2,58274.0,-0.194580078125,-0.0579833984375,0.712158203125,0.672058105469,-22.25,145.25,-9.625,-0.96,-3.58,9.62
1541792718149142980,1390,0,/imu_data_acquisition2,58280.0,-0.204711914062,-0.050537109375,0.708740234375,0.673217773438,-17.5625,153.0625,-13.125,-1.26,-3.48,9.56
1541792718160383939,1391,0,/imu_data_acquisition2,58290.0,-0.204711914062,-0.050537109375,0.708740234375,0.673217773438,-12.125,160.75,-18.125,-1.46,-3.89,9.31
1541792718170339107,1392,0,/imu_data_acquisition2,58300.0,-0.0117797851562,-6.103515625e-05,-6.103515625e-05,0.674743652344,-5.0,168.75,-25.875,-1.81,-4.66,9.27
1541792718179034948,1393,0,/imu_data_acquisition2,58310.0,-0.234802246094,-0.0078125,-6.103515625e-05,0.679809570312,12.9375,178.125,-40.6875,-2.08,-4.59,9.26
1541792718190484046,1394,0,/imu_data_acquisition2,58321.0,-0.243469238281,-0.0117797851562,0.687255859375,0.684326171875,36.75,186.0625,-60.0,-2.26,-2.44,-0.01
1541792718200567007,1395,0,/imu_data_acquisition2,58331.0,-0.251037597656,0.00115966796875,0.678527832031,0.690307617188,59.625,192.6875,-81.0,-2.14,-4.71,9.91
1541792718209034919,1396,0,/imu_data_acquisition2,58340.0,-0.251037597656,0.00115966796875,0.678527832031,0.690307617188,86.9375,198.6875,-105.375,-2.37,-0.01,-0.01
1541792718220144033,1397,0,/imu_data_acquisition2,58351.0,-0.25732421875,0.0155029296875,0.668029785156,0.698059082031,113.625,200.9375,-130.1875,-2.67,-4.81,9.81
1541792718230057954,1398,0,/imu_data_acquisition2,58360.0,-0.265319824219,0.0470581054688,0.641479492188,0.71826171875,137.0,200.0625,-154.25,-2.77,-4.11,9.92
1541792718240709066,1399,0,/imu_data_acquisition2,58371.0,-0.265319824219,0.0470581054688,0.641479492188,0.71826171875,164.75,193.9375,-0.0625,-2.83,-2.34,9.59
1541792718251209020,1400,0,/imu_data_acquisition2,58381.0,-0.2666015625,0.0795288085938,0.607482910156,0.744018554688,171.1875,184.8125,-202.5,-2.33,-2.26,9.67
1541792718260201930,1401,0,/imu_data_acquisition2,58390.0,-0.2666015625,0.0795288085938,0.607482910156,0.744018554688,155.25,162.1875,-240.625,-2.01,-3.6,9.34
1541792718269088983,1402,0,/imu_data_acquisition2,58400.0,-0.266723632812,0.0922241210938,0.58740234375,0.758483886719,155.25,162.1875,-240.625,-0.07,-5.72,10.14
1541792718280567884,1403,0,/imu_data_acquisition2,58411.0,-0.264770507812,0.116638183594,0.544067382812,0.78759765625,172.1875,148.75,-272.0,1.64,-3.46,11.19
1541792718290254116,1404,0,/imu_data_acquisition2,58421.0,-0.264770507812,0.116638183594,0.544067382812,0.78759765625,191.375,-0.0625,-0.0625,2.63,-0.53,12.83
1541792718299873113,1405,0,/imu_data_acquisition2,58431.0,-0.260559082031,0.126892089844,0.51904296875,0.804077148438,185.5,-0.0625,-0.0625,2.51,5.5,18.25
1541792718310941934,1406,0,/imu_data_acquisition2,58441.0,-0.255310058594,0.134460449219,0.493469238281,0.820495605469,114.9375,1.8125,-259.375,4.4,7.58,14.76
1541792718319736003,1407,0,/imu_data_acquisition2,58450.0,-6.103515625e-05,-6.103515625e-05,-6.103515625e-05,0.83349609375,78.3125,-37.1875,-204.6875,5.28,7.27,13.52
1541792718329904079,1408,0,/imu_data_acquisition2,58460.0,-0.245544433594,0.1298828125,0.459411621094,0.843627929688,68.875,-61.5,-150.9375,5.66,6.29,11.78
1541792718343825101,1409,0,/imu_data_acquisition2,58474.0,-0.232727050781,0.120056152344,0.442749023438,0.857543945312,72.1875,-79.0,-4.1875,4.92,6.54,12.18
1541792718350971937,1410,0,/imu_data_acquisition2,58481.0,-0.232727050781,0.120056152344,0.442749023438,0.857543945312,66.75,-97.125,-47.1875,3.99,5.76,12.9
1541792718360264062,1411,0,/imu_data_acquisition2,58491.0,-6.103515625e-05,-6.103515625e-05,-6.103515625e-05,0.861572265625,61.6875,-115.0625,0.6875,3.25,4.81,12.91
1541792718369904994,1412,0,/imu_data_acquisition2,58500.0,-0.215942382812,0.108520507812,0.442138671875,0.86376953125,61.6875,-115.0625,0.6875,1.24,3.35,12.8
1541792718380460977,1413,0,/imu_data_acquisition2,58511.0,-0.206909179688,0.101684570312,0.447265625,0.864196777344,36.6875,-142.25,81.4375,0.1,2.09,12.45
1541792718390563011,1414,0,/imu_data_acquisition2,58521.0,-0.198120117188,0.0941162109375,0.455322265625,0.862854003906,24.125,-150.625,109.1875,-0.92,1.2,12.35
1541792718402761936,1415,0,/imu_data_acquisition2,58531.0,-0.189697265625,0.0858764648438,0.465576171875,0.860168457031,10.375,-155.3125,129.5625,-2.79,0.22,11.73
1541792718410408973,1416,0,/imu_data_acquisition2,58541.0,-0.181884765625,0.0770874023438,0.477294921875,0.856262207031,-2.0625,-156.375,144.25,-3.32,-0.48,10.96
1541792718420275926,1417,0,/imu_data_acquisition2,58551.0,-0.174743652344,0.06787109375,0.490051269531,0.851257324219,0.4375,-152.5625,151.1875,-4.05,0.31,10.93
1541792718431142091,1418,0,/imu_data_acquisition2,58561.0,-0.167541503906,0.0591430664062,0.503112792969,0.845764160156,-6.6875,-148.0625,161.125,-5.15,1.39,10.18
1541792718443269014,1419,0,/imu_data_acquisition2,58573.0,-0.1552734375,0.0418701171875,0.530578613281,0.832214355469,-19.375,-142.5,169.0625,-5.3,0.71,9.8
1541792718451575040,1420,0,/imu_data_acquisition2,58582.0,-0.1552734375,0.0418701171875,0.530578613281,0.832214355469,-20.5,-134.375,169.0,-5.49,0.7,-0.01
1541792718458983898,1421,0,/imu_data_acquisition2,58590.0,-0.150085449219,0.0337524414062,0.544189453125,0.82470703125,-20.5,-134.375,169.0,-5.51,0.35,9.14
1541792718470439910,1422,0,/imu_data_acquisition2,58601.0,-0.145385742188,0.0263061523438,0.557250976562,0.817077636719,-17.875,-109.3125,157.0625,-5.43,0.03,8.78
1541792718482386112,1423,0,/imu_data_acquisition2,58612.0,-0.14111328125,0.0198364257812,0.569396972656,0.809631347656,-12.1875,-94.875,147.0,-5.49,-0.33,8.8
1541792718493355035,1424,0,/imu_data_acquisition2,58622.0,-0.137084960938,0.0144653320312,0.580505371094,0.802490234375,-2.125,-80.25,134.75,-5.43,-0.41,8.74
1541792718500863075,1425,0,/imu_data_acquisition2,58631.0,-0.133117675781,0.010498046875,0.590515136719,0.7958984375,7.9375,-66.1875,123.75,-5.24,-0.37,8.66
1541792718511106967,1426,0,/imu_data_acquisition2,58641.0,-0.00421142578125,-6.103515625e-05,-6.103515625e-05,0.789794921875,15.4375,-52.6875,115.3125,-5.07,-0.45,8.66
1541792718520709991,1427,0,/imu_data_acquisition2,58651.0,-0.125427246094,0.00634765625,0.607788085938,0.784118652344,20.625,-39.8125,108.125,-4.82,-0.56,8.8
1541792718531483888,1428,0,/imu_data_acquisition2,58661.0,-0.121948242188,0.00592041015625,0.615295410156,0.778747558594,23.25,-28.3125,101.6875,-4.24,-1.4,9.22
1541792718543360948,1429,0,/imu_data_acquisition2,58674.0,-0.116088867188,0.0074462890625,0.628540039062,0.768981933594,26.75,-18.75,94.0,-3.92,-1.83,9.57
1541792718552954912,1430,0,/imu_data_acquisition2,58683.0,-0.116088867188,0.0074462890625,0.628540039062,0.768981933594,30.1875,-11.3125,84.8125,-3.56,-2.19,-0.01
1541792718559005975,1431,0,/imu_data_acquisition2,58690.0,-0.00408935546875,-6.103515625e-05,-6.103515625e-05,0.764770507812,30.1875,-11.3125,84.8125,-3.56,-2.19,9.97
1541792718570539951,1432,0,/imu_data_acquisition2,58701.0,-0.11083984375,0.01123046875,0.638977050781,0.761108398438,33.5,-6.625,74.375,-2.48,-2.71,10.44
1541792718583353996,1433,0,/imu_data_acquisition2,58712.0,-0.108337402344,0.013427734375,0.643005371094,0.757995605469,33.625,-3.1875,51.8125,-2.07,-2.75,10.31
1541792718590646982,1434,0,/imu_data_acquisition2,58721.0,-0.10595703125,0.0155029296875,0.646362304688,0.755493164062,31.0,-3.5,41.0,-1.67,-2.68,10.34
1541792718602408885,1435,0,/imu_data_acquisition2,58733.0,-0.103698730469,0.017333984375,0.64892578125,0.753540039062,28.25,-4.375,31.3125,-0.92,-2.51,10.41
1541792718610129117,1436,0,/imu_data_acquisition2,58740.0,-0.101623535156,0.0189208984375,0.650939941406,0.752075195312,28.25,-4.375,31.3125,-0.92,-2.51,10.41
1541792718619606018,1437,0,/imu_data_acquisition2,58750.0,-0.0995483398438,0.0201416015625,0.652404785156,0.751037597656,26.4375,-6.4375,22.8125,-0.59,-2.18,10.38
1541792718632323026,1438,0,/imu_data_acquisition2,58762.0,-0.0975341796875,0.0209350585938,0.653503417969,0.750305175781,17.375,-14.0625,13.875,-0.04,-0.96,10.1
1541792718643438100,1439,0,/imu_data_acquisition2,58773.0,-0.0939331054688,0.0205688476562,0.655517578125,0.7490234375,9.75,-0.0625,-0.0625,0.0,-0.57,10.15
1541792718651362895,1440,0,/imu_data_acquisition2,58782.0,-0.0939331054688,0.0205688476562,0.655517578125,0.7490234375,0.6875,-25.375,19.1875,-0.07,-0.36,10.22
1541792718662914991,1441,0,/imu_data_acquisition2,58790.0,-0.0924072265625,0.0191040039062,0.656982421875,0.747985839844,0.6875,-25.375,19.1875,-0.39,0.19,10.22
1541792718670742034,1442,0,/imu_data_acquisition2,58800.0,-0.091064453125,0.0167236328125,0.658813476562,0.74658203125,-8.375,-33.4375,25.4375,-0.56,0.16,10.16
1541792718681453943,1443,0,/imu_data_acquisition2,58812.0,-0.0899047851562,0.0133056640625,0.661315917969,0.744567871094,-27.3125,-49.9375,42.8125,-0.79,-0.01,-0.01
1541792718693206071,1444,0,/imu_data_acquisition2,58823.0,-0.0888061523438,0.00897216796875,0.664428710938,0.742004394531,-31.5,-56.625,51.0625,-1.14,0.04,10.05
1541792718703726053,1445,0,/imu_data_acquisition2,58834.0,-0.0875244140625,0.0040283203125,-6.103515625e-05,0.738952636719,-35.3125,-62.625,58.5,-1.88,-0.14,10.15
1541792718709891080,1446,0,/imu_data_acquisition2,58841.0,-0.086181640625,-0.00140380859375,0.672119140625,0.735412597656,-35.3125,-62.625,58.5,-1.88,-0.14,10.15
1541792718720772981,1447,0,/imu_data_acquisition2,58850.0,-0.0845947265625,-0.00738525390625,0.676635742188,0.731384277344,-37.3125,-68.875,64.625,-2.24,-0.12,10.07
1541792718734113931,1448,0,/imu_data_acquisition2,58861.0,-0.0828247070312,-0.013671875,0.681396484375,0.72705078125,-39.4375,-78.5625,72.5,-3.02,-0.62,9.64
1541792718742166996,1449,0,/imu_data_acquisition2,58873.0,-0.07861328125,-0.0269165039062,0.691284179688,0.7177734375,-38.3125,-80.5625,73.5,-3.27,-0.84,9.73
1541792718753834962,1450,0,/imu_data_acquisition2,58884.0,-0.07861328125,-0.0269165039062,0.691284179688,0.7177734375,-35.4375,-82.6875,73.0625,-3.39,-1.31,9.38
1541792718758838891,1451,0,/imu_data_acquisition2,58890.0,-0.0761108398438,-0.0335083007812,0.696166992188,0.713073730469,-35.4375,-82.6875,73.0625,-3.39,-1.31,9.38
1541792718770308017,1452,0,/imu_data_acquisition2,58901.0,-0.0732421875,-0.0396728515625,0.700805664062,0.70849609375,-28.625,-81.25,70.25,-3.73,-1.66,9.34
1541792718785553932,1453,0,/imu_data_acquisition2,58915.0,-0.0701904296875,-0.04541015625,0.705200195312,0.7041015625,-16.0625,-77.125,62.25,-4.06,-2.71,9.27
1541792718793188095,1454,0,/imu_data_acquisition2,58923.0,-0.0668334960938,-0.0505981445312,0.709289550781,0.699951171875,-6.25,-75.3125,55.875,-4.19,-3.08,9.19
1541792718804614067,1455,0,/imu_data_acquisition2,58935.0,-0.0585327148438,-0.0120239257812,-6.103515625e-05,0.692993164062,3.5,-72.75,48.3125,-4.28,-3.62,8.69
1541792718810776948,1456,0,/imu_data_acquisition2,58939.0,-0.0585327148438,-0.0588989257812,0.716186523438,0.692993164062,3.5,-72.75,48.3125,-4.28,-3.62,8.69
1541792718819701910,1457,0,/imu_data_acquisition2,58950.0,-6.103515625e-05,-6.103515625e-05,-6.103515625e-05,0.690185546875,11.625,-68.8125,40.5625,-4.37,-3.8,8.33
1541792718838709115,1458,0,/imu_data_acquisition2,58962.0,-0.0491943359375,-0.0645751953125,0.721252441406,0.687927246094,20.75,-57.375,25.375,-4.45,-4.3,7.13
1541792718846800088,1459,0,/imu_data_acquisition2,58972.0,-0.044677734375,-0.0665283203125,0.723022460938,0.686157226562,20.75,-57.375,25.375,-4.59,-4.41,7.06
1541792718851171016,1460,0,/imu_data_acquisition2,58982.0,-0.0404663085938,-0.0679931640625,0.724365234375,0.684875488281,22.0625,-49.375,17.8125,-2.02,-0.01,-0.01
1541792718861641883,1461,0,/imu_data_acquisition2,58991.0,-0.0368041992188,-0.0689086914062,0.725280761719,0.684020996094,21.5625,-40.3125,11.375,-4.58,-4.56,6.77
1541792718870709896,1462,0,/imu_data_acquisition2,59000.0,-0.0337524414062,-0.0694580078125,0.725830078125,0.683532714844,20.3125,-30.625,5.1875,-4.75,-4.84,6.36
1541792718881432056,1463,0,/imu_data_acquisition2,59012.0,-0.031494140625,-0.0695190429688,0.725891113281,0.683532714844,18.0,-20.0,-0.8125,-5.11,-5.64,6.4
1541792718892421960,1464,0,/imu_data_acquisition2,59022.0,-0.0299682617188,-0.069091796875,0.725646972656,0.683898925781,15.75,-9.5,-6.1875,-5.52,-6.22,6.86
1541792718902281999,1465,0,/imu_data_acquisition2,59032.0,-0.0289306640625,-0.0679931640625,0.725036621094,0.684692382812,17.4375,0.625,-12.375,-5.71,-6.16,6.99
1541792718909847974,1466,0,/imu_data_acquisition2,59040.0,-0.0281982421875,-0.0662231445312,0.724060058594,0.685974121094,21.0,9.375,-0.0625,-5.71,-6.16,6.99
1541792718921617984,1467,0,/imu_data_acquisition2,59051.0,-0.0280151367188,-0.0640258789062,0.722534179688,0.687744140625,19.4375,18.4375,-26.5625,-6.37,-4.98,7.87
1541792718930967092,1468,0,/imu_data_acquisition2,59061.0,-0.0309448242188,-0.0643310546875,0.720764160156,0.689514160156,-26.5,24.5,-27.375,-13.38,8.61,24.47
1541792718942023038,1469,0,/imu_data_acquisition2,59072.0,-0.0363159179688,-0.0653686523438,0.718078613281,0.691955566406,-220.5625,0.4375,12.6875,-5.03,-8.82,14.65
1541792718952667951,1470,0,/imu_data_acquisition2,59083.0,-0.04931640625,-0.0787353515625,0.717468261719,0.690368652344,-220.5625,0.4375,12.6875,-4.84,1.2,2.76
1541792718962061882,1471,0,/imu_data_acquisition2,59092.0,-6.103515625e-05,-6.103515625e-05,-6.103515625e-05,0.690551757812,-117.9375,-25.9375,-14.75,-4.84,1.2,2.76
1541792718971097946,1472,0,/imu_data_acquisition2,59101.0,-0.063720703125,-0.0953369140625,0.715576171875,0.689025878906,-143.8125,12.375,14.9375,-2.08,-9.29,34.43
1541792718984499931,1473,0,/imu_data_acquisition2,59114.0,-0.072021484375,-0.107482910156,0.715087890625,0.686950683594,-39.0625,-22.875,-52.9375,2.14,0.55,5.81
1541792719000072956,1474,0,/imu_data_acquisition2,59122.0,-0.0724487304688,-0.111450195312,0.711791992188,0.689697265625,-39.0625,-22.875,-52.9375,2.01,-7.66,4.44
1541792719001992940,1475,0,/imu_data_acquisition2,59132.0,-0.076171875,-0.116760253906,0.709594726562,0.690673828125,-77.125,-8.0625,-25.8125,-0.78,-11.96,11.62
1541792719008917093,1476,0,/imu_data_acquisition2,59139.0,-0.081298828125,-0.1220703125,0.70849609375,0.690307617188,-88.25,0.0,-2.75,-0.78,-11.96,11.62
1541792719020478963,1477,0,/imu_data_acquisition2,59151.0,-0.08203125,-0.122863769531,0.707580566406,0.691040039062,-13.125,1.5625,-14.125,0.57,-6.43,9.46
1541792719032021999,1478,0,/imu_data_acquisition2,59163.0,-0.0811157226562,-0.122253417969,0.707397460938,0.69140625,12.75,-2.25,-5.1875,1.17,-3.48,9.33
1541792719043540954,1479,0,/imu_data_acquisition2,59173.0,-0.0790405273438,-0.12109375,0.707824707031,0.69140625,27.0,-8.5,2.0625,1.05,-0.83,-0.01
1541792719052896976,1480,0,/imu_data_acquisition2,59183.0,-0.0758056640625,-0.118713378906,0.708374023438,0.691650390625,47.5625,-7.5625,-0.5,1.64,-1.48,8.85
1541792719061583042,1481,0,/imu_data_acquisition2,59192.0,-0.0736694335938,-0.117614746094,0.709106445312,0.691284179688,27.5,-9.8125,6.5625,1.68,-0.63,9.46
1541792719070801973,1482,0,/imu_data_acquisition2,59201.0,-0.0722045898438,-0.116516113281,0.709533691406,0.691223144531,21.25,-4.0625,3.4375,1.68,-0.63,9.46
1541792719080255985,1483,0,/imu_data_acquisition2,59211.0,-0.0718383789062,-0.115844726562,0.709716796875,0.691162109375,9.0625,1.875,1.5625,1.18,-0.95,9.37
1541792719093545913,1484,0,/imu_data_acquisition2,59224.0,-0.0723266601562,-0.115905761719,0.709777832031,0.691101074219,-8.5625,3.875,0.1875,0.5,-2.06,9.94
1541792719105129957,1485,0,/imu_data_acquisition2,59236.0,-0.0731201171875,-0.1162109375,0.709655761719,0.691040039062,-8.875,4.875,-1.875,0.27,-2.17,9.8
1541792719109756946,1486,0,/imu_data_acquisition2,59240.0,-0.0739135742188,-0.116455078125,0.709411621094,0.691162109375,-8.875,4.875,-1.875,0.27,-2.17,9.8
1541792719123330116,1487,0,/imu_data_acquisition2,59254.0,-0.0748291015625,-0.117065429688,0.709167480469,0.691223144531,-12.1875,1.25,-2.25,0.8,-2.76,9.44
1541792719135502099,1488,0,/imu_data_acquisition2,59265.0,-0.0756225585938,-0.117736816406,0.708923339844,0.691284179688,-12.1875,1.25,-0.0625,0.88,-2.72,9.35
1541792719143472909,1489,0,/imu_data_acquisition2,59273.0,-0.0762939453125,-0.118225097656,0.708618164062,0.69140625,-5.875,1.5,-4.0,0.89,-2.38,9.57
1541792719154122114,1490,0,/imu_data_acquisition2,59284.0,-0.07666015625,-0.118530273438,0.708312988281,0.691650390625,-7.5625,0.75,-3.3125,0.9,-2.7,9.35
1541792719163048028,1491,0,/imu_data_acquisition2,59290.0,-0.0771484375,-0.118957519531,0.708068847656,0.691772460938,-7.5625,0.75,-3.3125,0.9,-2.7,9.35
1541792719170521020,1492,0,/imu_data_acquisition2,59300.0,-0.0779418945312,-0.119079589844,0.705261230469,0.694519042969,-6.8125,0.375,-2.6875,0.98,-2.88,9.42
1541792719183010101,1493,0,/imu_data_acquisition2,59313.0,-0.0781860351562,-0.119445800781,0.705078125,0.694641113281,-5.0625,-0.625,-2.1875,0.69,-3.17,9.44
1541792719194322109,1494,0,/imu_data_acquisition2,59324.0,-0.0783081054688,-0.119812011719,0.704956054688,0.694641113281,0.4375,-2.75,-0.8125,0.94,-2.95,9.49
1541792719202964067,1495,0,/imu_data_acquisition2,59333.0,-0.0781860351562,-0.119995117188,0.704956054688,0.694641113281,1.9375,-2.8125,-0.0625,1.24,-2.74,9.57
1541792719212714910,1496,0,/imu_data_acquisition2,59343.0,-0.077880859375,-0.120056152344,0.704956054688,0.694641113281,1.9375,-2.8125,-0.0625,1.24,-2.74,9.57
1541792719222131013,1497,0,/imu_data_acquisition2,59349.0,-0.07763671875,-0.119689941406,0.70361328125,0.696105957031,5.375,-1.9375,-0.9375,0.55,-2.36,9.72
1541792719232000112,1498,0,/imu_data_acquisition2,59363.0,-0.0772705078125,-0.119567871094,0.703674316406,0.696105957031,4.1875,-2.25,-0.0625,0.79,-2.44,9.63
1541792719245497941,1499,0,/imu_data_acquisition2,59376.0,-0.0765991210938,-0.119140625,0.703735351562,0.696228027344,3.9375,-0.9375,-0.625,0.87,-2.4,9.5
1541792719254291057,1500,0,/imu_data_acquisition2,59384.0,-0.0140991210938,-6.103515625e-05,-6.103515625e-05,0.696228027344,3.9375,-0.9375,-0.625,0.77,-2.33,9.43
1541792719260535955,1501,0,/imu_data_acquisition2,59391.0,-0.0763549804688,-0.119079589844,0.703735351562,0.6962890625,2.1875,-1.3125,-0.8125,0.77,-2.33,-0.01
1541792719275491952,1502,0,/imu_data_acquisition2,59405.0,-0.0767211914062,-0.118896484375,0.701110839844,0.698852539062,0.4375,-1.1875,-0.9375,0.87,-2.78,9.71
1541792719285375118,1503,0,/imu_data_acquisition2,59415.0,-0.0767822265625,-0.119018554688,0.701049804688,0.698913574219,-1.625,-0.6875,-0.8125,0.94,-2.77,9.43
1541792719303828954,1505,0,/imu_data_acquisition2,59434.0,-0.0767822265625,-0.119079589844,0.700927734375,0.699035644531,0.9375,-0.25,-0.75,0.96,-2.51,9.63
1541792719308758020,1506,0,/imu_data_acquisition2,59439.0,-0.0767211914062,-0.119018554688,0.700866699219,0.699096679688,0.9375,-0.25,-0.75,0.96,-2.51,9.63
1541792719326920032,1507,0,/imu_data_acquisition2,59453.0,-0.0770874023438,-0.118774414062,0.69873046875,0.701232910156,0.1875,0.1875,-0.25,1.06,-2.77,9.76
1541792719335319995,1508,0,/imu_data_acquisition2,59465.0,-0.076904296875,-0.11865234375,0.69873046875,0.701293945312,1.3125,1.0,-0.1875,0.82,-2.61,9.58
1541792719341049909,1509,0,/imu_data_acquisition2,59472.0,-0.076904296875,-0.11865234375,0.69873046875,0.701293945312,1.3125,1.0,-0.1875,0.82,-2.61,9.58
1541792719363399982,1511,0,/imu_data_acquisition2,59491.0,-0.0767211914062,-0.118469238281,0.698669433594,0.701354980469,0.8125,1.0,-0.0625,0.53,-2.5,9.68
1541792719374527931,1512,0,/imu_data_acquisition2,59504.0,-0.0769653320312,-0.118286132812,0.697326660156,0.702758789062,0.5,-0.125,-0.5,0.9,-2.59,9.59
1541792719387686967,1513,0,/imu_data_acquisition2,59513.0,-0.0770263671875,-0.118347167969,0.697265625,0.702758789062,-1.0625,0.0625,-0.25,0.68,-2.5,9.41
1541792719395879030,1514,0,/imu_data_acquisition2,59526.0,-0.0769653320312,-0.118530273438,0.697265625,0.702758789062,-2.8125,-1.0625,-0.5,0.54,-2.88,9.61
1541792719401133060,1515,0,/imu_data_acquisition2,59532.0,-0.0770263671875,-0.118774414062,0.697265625,0.702697753906,-2.8125,-1.0625,-0.5,0.54,-2.88,9.61
1541792719410676956,1516,0,/imu_data_acquisition2,59540.0,-0.0772094726562,-0.119018554688,0.697204589844,0.702697753906,-3.3125,-1.125,-0.1875,1.12,-2.68,9.48
1541792719424088954,1517,0,/imu_data_acquisition2,59552.0,-0.0775756835938,-0.118896484375,0.69482421875,0.705017089844,-0.75,-0.8125,-1.3125,0.74,-2.31,9.71
1541792719429569005,1518,0,/imu_data_acquisition2,59560.0,-0.0776977539062,-0.119201660156,0.69482421875,0.704956054688,-3.875,-1.25,0.0625,0.62,-2.61,9.36
1541792719442625045,1519,0,/imu_data_acquisition2,59572.0,-0.0776977539062,-0.119323730469,0.694763183594,0.705017089844,-1.6875,-0.75,-0.875,0.7,-2.52,-0.01
1541792719455738067,1520,0,/imu_data_acquisition2,59585.0,-0.0776977539062,-0.11962890625,0.694702148438,0.705017089844,-2.9375,-1.25,-0.4375,0.76,-2.36,9.36
1541792719460282087,1521,0,/imu_data_acquisition2,59591.0,-0.0775756835938,-0.119812011719,0.694641113281,0.705078125,-1.875,-1.1875,-0.75,0.76,-2.36,9.36
1541792719472618103,1522,0,/imu_data_acquisition2,59602.0,-0.077880859375,-0.120056152344,0.692993164062,0.706604003906,-4.625,-1.6875,0.0625,0.93,-2.84,9.4
1541792719491648912,1524,0,/imu_data_acquisition2,59622.0,-0.077880859375,-0.120788574219,0.692932128906,0.70654296875,-3.875,-2.1875,-0.125,0.96,-0.01,-0.01
1541792719502639055,1525,0,/imu_data_acquisition2,59632.0,-0.077880859375,-0.121032714844,0.69287109375,0.70654296875,-2.375,-1.4375,-0.3125,0.71,-0.01,-0.01
1541792719514728069,1526,0,/imu_data_acquisition2,59644.0,-0.0779418945312,-0.121337890625,0.69287109375,0.706481933594,-2.9375,-1.25,0.0,1.04,-2.54,9.56
1541792719520236968,1527,0,/imu_data_acquisition2,59651.0,-0.077880859375,-0.12158203125,0.692810058594,0.706481933594,-1.4375,-1.1875,-0.5625,1.04,-2.54,9.56
1541792719531311988,1528,0,/imu_data_acquisition2,59661.0,-0.0779418945312,-0.121826171875,0.692810058594,0.706481933594,-2.3125,-0.9375,-0.1875,0.65,-2.94,9.6
1541792719547080993,1529,0,/imu_data_acquisition2,59675.0,-0.0780029296875,-0.1220703125,0.692810058594,0.706481933594,-1.375,-0.5,-0.1875,0.81,-2.69,9.57
1541792719552403926,1530,0,/imu_data_acquisition2,59683.0,-0.0780639648438,-0.122131347656,0.692749023438,0.706420898438,-1.375,-0.5,-0.1875,0.81,-0.01,-0.01
1541792719561207056,1531,0,/imu_data_acquisition2,59691.0,-0.0780639648438,-0.122314453125,0.692749023438,0.706420898438,-1.9375,-0.875,0.125,0.71,-2.67,9.62
1541792719574116945,1532,0,/imu_data_acquisition2,59704.0,-0.078125,-0.122436523438,0.692749023438,0.706420898438,-1.6875,-0.5,0.25,0.96,-2.71,9.42
1541792719581512928,1533,0,/imu_data_acquisition2,59712.0,-0.0780639648438,-0.122619628906,0.692687988281,0.706420898438,-1.5,-0.6875,-0.1875,0.85,-2.56,9.59
1541792719590888023,1534,0,/imu_data_acquisition2,59721.0,-0.078125,-0.122802734375,0.692687988281,0.706420898438,-2.5,-0.625,0.25,0.62,-2.63,9.45
1541792719604451894,1535,0,/imu_data_acquisition2,59734.0,-0.078125,-0.122924804688,0.692687988281,0.706420898438,-2.375,-0.875,0.0625,0.68,-2.48,9.49
1541792719612103939,1536,0,/imu_data_acquisition2,59742.0,-0.0782470703125,-0.123168945312,0.692626953125,0.706359863281,-3.4375,-0.125,0.3125,0.95,-2.84,9.47
1541792719620939016,1537,0,/imu_data_acquisition2,59750.0,-0.0783081054688,-0.123352050781,0.692565917969,0.706359863281,-3.0625,-0.4375,-0.3125,0.93,-2.51,9.37
1541792719634429931,1538,0,/imu_data_acquisition2,59764.0,-0.0784912109375,-0.123596191406,0.692504882812,0.706359863281,-3.9375,0.1875,-0.0625,0.79,-2.77,9.37
1541792719642538070,1539,0,/imu_data_acquisition2,59773.0,-0.0787353515625,-0.123962402344,0.692504882812,0.706359863281,-5.0625,-0.125,-0.125,0.83,-2.67,9.32
1541792719651057958,1540,0,/imu_data_acquisition2,59780.0,-0.0789184570312,-0.124267578125,0.692443847656,0.706298828125,-4.8125,0.25,-0.375,0.92,-2.74,9.47
1541792719664149045,1541,0,/imu_data_acquisition2,59794.0,-6.103515625e-05,-6.103515625e-05,-6.103515625e-05,0.706298828125,-5.4375,0.375,-0.375,0.84,-2.74,9.51
1541792719671484947,1542,0,/imu_data_acquisition2,59801.0,-0.0795288085938,-0.124938964844,0.692260742188,0.706298828125,-5.5,0.875,-0.3125,0.83,-2.83,9.41
1541792719680980920,1543,0,/imu_data_acquisition2,59809.0,-0.079833984375,-0.125244140625,0.692199707031,0.706237792969,-5.75,0.875,-0.375,0.85,-2.79,9.48
1541792719695964097,1544,0,/imu_data_acquisition2,59825.0,-0.0801391601562,-0.125549316406,0.692077636719,0.706298828125,-5.3125,1.0625,-0.625,0.71,-2.65,9.38
1541792719702272891,1545,0,/imu_data_acquisition2,59832.0,-0.0805053710938,-0.125793457031,0.692016601562,0.706237792969,-5.8125,1.375,0.0,0.71,-2.65,9.38
1541792719709480047,1546,0,/imu_data_acquisition2,59839.0,-0.0808715820312,-0.126037597656,0.691955566406,0.706237792969,-5.25,1.4375,-0.4375,0.72,-2.72,9.48
1541792719719575881,1547,0,/imu_data_acquisition2,59850.0,-0.0811767578125,-0.126281738281,0.69189453125,0.706237792969,-5.8125,1.375,-0.3125,0.94,-2.7,9.43
1541792719731790065,1548,0,/imu_data_acquisition2,59861.0,-0.0816040039062,-0.126647949219,0.691772460938,0.706237792969,-6.875,1.4375,-0.1875,0.81,-2.9,9.33
1541792719742446899,1549,0,/imu_data_acquisition2,59871.0,-0.08203125,-0.127075195312,0.691711425781,0.706176757812,-7.25,1.625,-0.1875,1.03,-2.79,9.19
1541792719761557102,1551,0,/imu_data_acquisition2,59890.0,-0.0831909179688,-0.127563476562,0.691467285156,0.706176757812,-8.8125,4.3125,0.4375,0.65,-3.12,9.11
1541792719769035100,1552,0,/imu_data_acquisition2,59900.0,-0.083984375,-0.128051757812,0.691345214844,0.706115722656,-10.8125,2.1875,0.75,0.41,-3.11,9.11
1541792719779997110,1553,0,/imu_data_acquisition2,59910.0,-0.0846557617188,-0.12841796875,0.691223144531,0.7060546875,-9.0625,3.0625,-0.25,1.86,-2.53,8.89
1541792719793462991,1554,0,/imu_data_acquisition2,59922.0,-0.0855102539062,-0.128601074219,0.691101074219,0.7060546875,-8.75,5.0625,-0.3125,0.96,-2.9,10.33
1541792719799019098,1555,0,/imu_data_acquisition2,59930.0,-0.0863647460938,-0.128967285156,0.690979003906,0.7060546875,-10.1875,4.375,-0.5625,1.03,-2.18,9.13
1541792719810221910,1556,0,/imu_data_acquisition2,59940.0,-0.0872192382812,-0.129211425781,0.690734863281,0.706115722656,-9.6875,5.0,-1.25,0.65,-2.75,10.11
1541792719823700904,1557,0,/imu_data_acquisition2,59951.0,-0.0884399414062,-0.129699707031,0.690551757812,0.7060546875,-14.1875,6.0,0.5,1.36,-3.03,8.99
1541792719828931093,1558,0,/imu_data_acquisition2,59960.0,-0.0895385742188,-0.129821777344,0.690246582031,0.706176757812,-10.5625,8.3125,-1.4375,1.42,-2.65,8.67
1541792719840732097,1559,0,/imu_data_acquisition2,59970.0,-0.09130859375,-0.130310058594,0.690002441406,0.706115722656,-19.0625,10.6875,0.4375,2.0,-3.45,7.88
1541792719854382991,1560,0,/imu_data_acquisition2,59982.0,-0.0933227539062,-0.13037109375,0.689575195312,0.706237792969,-18.25,16.1875,-0.0625,1.13,-2.14,10.09
1541792719859078884,1561,0,/imu_data_acquisition2,59990.0,-0.0955200195312,-0.130004882812,0.689025878906,0.70654296875,-15.6875,22.125,-3.4375,2.64,-2.79,8.36
1541792719870189905,1562,0,/imu_data_acquisition2,60000.0,-6.103515625e-05,-6.103515625e-05,-6.103515625e-05,0.706359863281,-38.1875,22.125,2.0625,1.64,-2.92,8.44
1541792719884479999,1563,0,/imu_data_acquisition2,60012.0,-0.103759765625,-0.130859375,0.687683105469,0.70654296875,-39.875,39.6875,-1.1875,1.37,-3.59,10.93
1541792719889596939,1564,0,/imu_data_acquisition2,60020.0,-0.108276367188,-0.130065917969,0.686706542969,0.706970214844,-32.0625,45.625,-4.125,1.5,-2.85,8.73
1541792719900666952,1565,0,/imu_data_acquisition2,60031.0,-0.114013671875,-0.12890625,0.685546875,0.707397460938,-39.625,58.0625,-2.625,1.3,-4.31,9.29
1541792719914098024,1566,0,/imu_data_acquisition2,60043.0,-0.120361328125,-0.126892089844,0.68408203125,0.708129882812,-38.4375,71.1875,-5.75,1.93,-2.95,9.28
1541792719919708013,1567,0,/imu_data_acquisition2,60050.0,-0.126647949219,-0.123657226562,0.682189941406,0.709411621094,-27.1875,82.6875,-12.4375,1.43,-2.12,9.71
1541792719931271076,1568,0,/imu_data_acquisition2,60061.0,-0.134460449219,-0.120788574219,0.680236816406,0.710388183594,-43.8125,91.875,-8.3125,1.33,-4.63,9.11
1541792719950234889,1570,0,/imu_data_acquisition2,60081.0,-0.149658203125,-0.111511230469,0.675048828125,0.713745117188,-23.375,110.6875,-19.3125,0.78,-3.97,9.01
1541792719960738897,1571,0,/imu_data_acquisition2,60091.0,-0.157287597656,-0.105712890625,0.671875,0.716003417969,-18.375,118.625,-24.8125,0.28,-2.76,9.28
1541792719974345922,1572,0,/imu_data_acquisition2,60103.0,-0.165161132812,-0.0993041992188,0.668151855469,0.718627929688,-16.0,126.875,-30.0,0.16,-3.04,10.15
1541792719980160951,1573,0,/imu_data_acquisition2,60111.0,-0.173950195312,-0.0928955078125,0.664123535156,0.721130371094,-23.0,135.125,-31.625,0.36,-3.08,10.15
1541792719992978096,1574,0,/imu_data_acquisition2,60122.0,-0.18310546875,-0.086181640625,0.659729003906,0.723693847656,-25.0625,140.875,-33.75,-0.28,-3.28,9.16
1541792720010874986,1576,0,/imu_data_acquisition2,60141.0,-0.202819824219,-0.0719604492188,0.649597167969,0.729187011719,-28.8125,156.4375,-42.375,-1.1,-3.62,9.93
1541792720020198106,1577,0,/imu_data_acquisition2,60151.0,-0.213134765625,-0.0642700195312,0.6435546875,0.732360839844,-27.375,162.5,-49.0,-0.95,-3.48,9.95
1541792720041312932,1579,0,/imu_data_acquisition2,60172.0,-0.234191894531,-0.0477905273438,0.629333496094,0.739440917969,-19.0625,176.8125,-65.125,-1.27,-3.87,9.45
1541792720052310943,1580,0,/imu_data_acquisition2,60182.0,-0.244262695312,-0.00701904296875,-6.103515625e-05,0.744018554688,-9.1875,184.125,-77.4375,-1.45,-4.31,8.72
1541792720064095973,1581,0,/imu_data_acquisition2,60194.0,-0.25390625,-0.0281372070312,0.610961914062,0.749267578125,0.25,191.0625,-91.0625,-1.72,-4.9,8.93
1541792720071048021,1582,0,/imu_data_acquisition2,60201.0,-0.262451171875,-0.016845703125,0.599670410156,0.755798339844,21.875,198.4375,-110.4375,-2.12,-5.82,8.37
1541792720080888032,1583,0,/imu_data_acquisition2,60211.0,-0.0042724609375,-6.103515625e-05,-6.103515625e-05,0.763549804688,42.125,204.875,-131.5,-2.51,-5.6,8.31
1541792720096752882,1584,0,/imu_data_acquisition2,60226.0,-0.275573730469,0.0091552734375,0.571594238281,0.772827148438,73.0625,211.625,-156.5625,-3.21,-4.45,8.75
1541792720102200031,1585,0,/imu_data_acquisition2,60233.0,-0.279968261719,0.0233154296875,0.554870605469,0.783081054688,90.3125,212.8125,-176.8125,-3.28,-3.89,8.75
1541792720110750913,1586,0,/imu_data_acquisition2,60240.0,-0.283142089844,0.0375366210938,0.536499023438,0.794067382812,105.75,211.1875,-196.6875,-2.97,-3.57,8.51
1541792720124047040,1587,0,/imu_data_acquisition2,60254.0,-0.28564453125,0.05126953125,0.516723632812,0.805480957031,110.6875,206.0,-212.875,-2.39,-4.61,8.09
1541792720131302118,1588,0,/imu_data_acquisition2,60261.0,-0.00592041015625,-6.103515625e-05,-6.103515625e-05,0.817260742188,120.3125,202.5625,-231.0625,-2.24,-4.9,10.22
1541792720140607118,1589,0,/imu_data_acquisition2,60270.0,-0.286437988281,0.0779418945312,0.471801757812,0.830200195312,147.0625,194.1875,-259.3125,-1.37,-1.76,11.98
1541792720154552936,1590,0,/imu_data_acquisition2,60284.0,-0.2841796875,0.0894775390625,0.446838378906,0.843566894531,155.125,173.0,-278.3125,0.94,1.52,13.47
1541792720161900997,1591,0,/imu_data_acquisition2,60292.0,-0.281860351562,0.0977172851562,0.423095703125,0.855590820312,132.0625,137.125,-271.125,1.75,5.7,17.36
1541792720170264005,1592,0,/imu_data_acquisition2,60300.0,-0.281005859375,0.102294921875,0.402587890625,0.865173339844,87.625,99.6875,-238.9375,2.45,5.52,19.29
1541792720179485082,1593,0,/imu_data_acquisition2,60310.0,-0.279296875,0.103515625,0.386352539062,0.872924804688,68.6875,48.5625,-197.3125,3.95,8.31,17.11
1541792720191550970,1594,0,/imu_data_acquisition2,60321.0,-0.275695800781,0.102294921875,0.37451171875,0.879333496094,67.5,2.375,-151.5625,5.64,9.75,14.07
1541792720199929952,1595,0,/imu_data_acquisition2,60330.0,-0.272033691406,0.0989990234375,0.3681640625,0.883544921875,44.875,-34.8125,-90.625,5.72,7.93,13.6
1541792720209698915,1596,0,/imu_data_acquisition2,60340.0,-0.267395019531,0.0949096679688,0.366577148438,0.886047363281,40.5625,-61.0625,-35.5,5.45,6.9,13.3
1541792720222232103,1597,0,/imu_data_acquisition2,60350.0,-0.260864257812,0.0905151367188,0.368835449219,0.887512207031,51.6875,-82.9375,10.625,4.17,4.74,13.14
1541792720228890895,1598,0,/imu_data_acquisition2,60360.0,-0.252380371094,0.0859985351562,0.374389648438,0.888122558594,65.125,-102.3125,50.9375,3.12,4.03,13.26
1541792720240278005,1599,0,/imu_data_acquisition2,60370.0,-0.242309570312,0.0812377929688,0.3828125,0.887756347656,74.8125,-119.6875,86.375,1.97,2.77,13.24
1541792720252906084,1600,0,/imu_data_acquisition2,60380.0,-0.231506347656,0.0758666992188,0.393859863281,0.886291503906,74.375,-135.25,117.8125,0.94,1.65,13.13
1541792720259366035,1601,0,/imu_data_acquisition2,60390.0,-0.220153808594,0.0699462890625,0.406982421875,0.883728027344,72.5625,-149.375,143.4375,-0.83,0.01,12.51
1541792720270024061,1602,0,/imu_data_acquisition2,60400.0,-0.208801269531,0.0632934570312,0.421875,0.880004882812,65.1875,-159.8125,165.25,-1.63,-0.23,12.1
1541792720278584957,1603,0,/imu_data_acquisition2,60409.0,-0.197326660156,0.0562744140625,0.437866210938,0.875305175781,60.8125,-166.25,181.9375,-2.52,0.19,11.89
1541792720290863037,1604,0,/imu_data_acquisition2,60421.0,-0.186096191406,0.049072265625,0.454895019531,0.869506835938,53.625,-169.0,197.3125,-4.21,0.34,11.55
1541792720302638053,1605,0,/imu_data_acquisition2,60432.0,-0.175964355469,0.0413818359375,0.472900390625,0.862365722656,36.875,-169.375,212.625,-4.91,-0.31,11.45
1541792720309627056,1606,0,/imu_data_acquisition2,60439.0,-0.166931152344,0.033203125,0.491577148438,0.854064941406,20.3125,-169.125,224.4375,-5.58,-1.17,11.69
1541792720319430112,1607,0,/imu_data_acquisition2,60450.0,-0.158569335938,0.0245971679688,0.510192871094,0.844970703125,9.0,-168.9375,227.625,-6.04,-1.63,10.1
1541792720330718994,1608,0,/imu_data_acquisition2,60461.0,-0.15087890625,0.015625,0.528259277344,0.835388183594,-0.875,-167.125,223.875,-6.07,-2.22,9.22
1541792720342749118,1609,0,/imu_data_acquisition2,60472.0,-0.144287109375,0.0064697265625,0.545288085938,0.82568359375,-12.375,-160.4375,214.1875,-6.08,-2.63,8.65
1541792720349529981,1610,0,/imu_data_acquisition2,60480.0,-0.138610839844,-0.0023193359375,0.560729980469,0.816284179688,-18.125,-148.125,197.0625,-6.01,-2.72,8.43
1541792720360984086,1611,0,/imu_data_acquisition2,60491.0,-0.133666992188,-0.0103759765625,0.574340820312,0.807556152344,-19.75,-133.125,175.875,-5.81,-3.1,8.44
1541792720380964994,1613,0,/imu_data_acquisition2,60510.0,-0.124450683594,-0.022705078125,0.595336914062,0.79345703125,-2.25,-99.1875,125.625,-5.42,-2.44,8.05
1541792720392754077,1614,0,/imu_data_acquisition2,60521.0,-0.119934082031,-0.0265502929688,0.603088378906,0.788146972656,9.625,-80.625,103.25,-5.15,-1.53,7.76
1541792720401043891,1615,0,/imu_data_acquisition2,60530.0,-0.115600585938,-0.0286254882812,0.609436035156,0.783874511719,21.125,-61.0625,85.3125,-2.48,-0.01,-0.01
1541792720409827947,1616,0,/imu_data_acquisition2,60540.0,-0.111755371094,-0.0293579101562,0.614685058594,0.7802734375,27.8125,-43.0625,72.25,-4.89,-1.39,8.59
1541792720420773983,1617,0,/imu_data_acquisition2,60550.0,-0.108276367188,-0.0289306640625,0.619079589844,0.777282714844,32.125,-28.0625,61.6875,-4.43,-1.8,9.5
1541792720431190967,1618,0,/imu_data_acquisition2,60559.0,-0.105224609375,-0.0277709960938,0.622741699219,0.774841308594,35.0625,-16.75,52.1875,-4.13,-2.01,9.77
1541792720439543962,1619,0,/imu_data_acquisition2,60570.0,-0.102416992188,-0.02587890625,0.625671386719,0.772888183594,38.1875,-8.375,42.375,-3.84,-2.12,10.01
1541792720452307939,1620,0,/imu_data_acquisition2,60581.0,-0.0997314453125,-0.0236206054688,0.627868652344,0.771545410156,40.25,-1.75,31.75,-3.57,-2.27,10.21
1541792720458976030,1621,0,/imu_data_acquisition2,60589.0,-0.0972900390625,-0.0210571289062,0.629211425781,0.770812988281,41.3125,3.25,20.625,-2.89,-2.21,10.5
1541792720469651937,1622,0,/imu_data_acquisition2,60600.0,-0.0949096679688,-0.0182495117188,0.6298828125,0.770690917969,42.0,7.0625,9.4375,-2.57,-2.11,10.63
1541792720480722904,1623,0,/imu_data_acquisition2,60611.0,-0.0927124023438,-0.0154418945312,0.629821777344,0.771057128906,41.375,9.5,-0.8125,-2.26,-1.9,10.68
1541792720489151000,1624,0,/imu_data_acquisition2,60619.0,-0.0906372070312,-0.0126342773438,0.629150390625,0.771911621094,40.9375,10.4375,-9.8125,-1.74,-1.39,10.53
1541792720501152038,1625,0,/imu_data_acquisition2,60631.0,-0.0884399414062,-0.010009765625,0.627990722656,0.773132324219,40.75,9.6875,-17.0,-1.54,-0.93,10.47
1541792720512269020,1626,0,/imu_data_acquisition2,60642.0,-0.086181640625,-0.00738525390625,0.626525878906,0.774597167969,41.75,8.5625,-21.4375,-1.29,-0.26,10.23
1541792720519073009,1627,0,/imu_data_acquisition2,60649.0,-0.086181640625,-0.00738525390625,0.626525878906,0.774597167969,39.8125,6.0625,-22.125,-0.79,0.72,9.89
1541792720531114101,1628,0,/imu_data_acquisition2,60662.0,-0.0818481445312,-0.00323486328125,0.623901367188,0.777221679688,32.625,2.8125,-17.6875,-0.6,0.94,9.67
1541792720542547941,1629,0,/imu_data_acquisition2,60672.0,-0.080078125,-0.00201416015625,0.623229980469,0.777893066406,26.1875,-1.0625,-10.25,-0.46,1.22,9.43
1541792720549073934,1630,0,/imu_data_acquisition2,60680.0,-0.0784912109375,-0.00128173828125,0.623291015625,0.778076171875,19.75,-4.9375,-0.0625,-0.35,1.09,9.55
1541792720561137914,1631,0,/imu_data_acquisition2,60692.0,-0.0771484375,-0.00115966796875,0.624084472656,0.777526855469,13.375,-9.5625,11.125,-0.39,1.0,9.84
1541792720572487115,1632,0,/imu_data_acquisition2,60702.0,-0.0771484375,-0.00115966796875,0.624084472656,0.777526855469,9.9375,-15.0,22.125,-0.43,0.85,9.95
1541792720579036951,1633,0,/imu_data_acquisition2,60710.0,-0.07568359375,-0.00146484375,0.625610351562,0.776428222656,7.75,-21.625,32.6875,-0.46,0.71,10.0
1541792720591599941,1634,0,/imu_data_acquisition2,60722.0,-0.072021484375,-0.0035400390625,0.630859375,0.772583007812,6.6875,-29.5625,42.0625,-0.58,0.26,9.75
1541792720602731943,1635,0,/imu_data_acquisition2,60733.0,-0.072021484375,-0.0035400390625,0.630859375,0.772583007812,6.5,-37.5,51.1875,-0.68,0.02,9.73
1541792720609977960,1636,0,/imu_data_acquisition2,60740.0,-0.0667724609375,-0.00750732421875,-6.103515625e-05,0.766723632812,7.25,-44.5625,58.75,-0.83,-0.21,9.72
1541792720637085914,1638,0,/imu_data_acquisition2,60768.0,-0.0635375976562,-0.0100708007812,0.642944335938,0.76318359375,8.75,-57.0,69.0625,-1.42,-1.31,9.74
1541792720640362977,1639,0,/imu_data_acquisition2,60771.0,-0.0559692382812,-0.0159912109375,0.652648925781,0.755432128906,9.9375,-62.1875,72.125,-1.71,-1.66,9.72
1541792720649550914,1640,0,/imu_data_acquisition2,60780.0,-0.0559692382812,-0.0159912109375,0.652648925781,0.755432128906,14.8125,-66.25,72.75,-2.27,-2.07,9.9
1541792720659421920,1641,0,/imu_data_acquisition2,60790.0,-0.0514526367188,-0.01904296875,0.657592773438,0.751403808594,19.5625,-0.0625,-0.0625,-2.53,-2.22,9.83
1541792720669806003,1642,0,/imu_data_acquisition2,60799.0,-0.0464477539062,-0.0220947265625,0.662475585938,0.747314453125,23.25,-73.8125,70.3125,-2.81,-2.4,9.78
1541792720690684080,1644,0,/imu_data_acquisition2,60821.0,-0.03515625,-0.0282592773438,0.671813964844,0.739379882812,27.6875,-76.5625,66.125,-3.84,-2.82,9.52
1541792720702373981,1645,0,/imu_data_acquisition2,60830.0,-0.0136108398438,-6.103515625e-05,-6.103515625e-05,0.735473632812,28.875,-75.875,63.75,-4.16,-2.79,9.38
1541792720712414026,1646,0,/imu_data_acquisition2,60841.0,-0.0233154296875,-0.0341796875,0.680358886719,0.731689453125,29.5,-74.0625,61.25,-4.38,-2.77,9.13
1541792720722213983,1647,0,/imu_data_acquisition2,60853.0,-0.0118408203125,-0.03955078125,0.688232421875,0.724304199219,27.625,-69.8125,59.8125,-5.15,-3.16,8.94
1541792720729187965,1648,0,/imu_data_acquisition2,60859.0,-0.0118408203125,-0.03955078125,0.688232421875,0.724304199219,27.625,-69.8125,59.8125,-5.7,-1.01,-0.01
1541792720742651939,1649,0,/imu_data_acquisition2,60871.0,-0.00238037109375,-0.0442504882812,0.695556640625,0.717102050781,21.25,-57.875,57.4375,-6.2,-3.77,8.72
1541792720752485990,1650,0,/imu_data_acquisition2,60883.0,0.00177001953125,-0.0462036132812,0.699035644531,0.713623046875,21.1875,-4.75,-0.0625,-7.11,-3.73,7.87
1541792720763055086,1651,0,/imu_data_acquisition2,60891.0,0.00177001953125,-0.0462036132812,0.699035644531,0.713623046875,20.75,-47.5625,56.125,-7.55,-3.67,7.3
1541792720772356986,1652,0,/imu_data_acquisition2,60903.0,0.0081787109375,-0.0491333007812,0.706237792969,0.706237792969,13.0625,-33.625,62.3125,-7.92,-3.61,6.57
1541792720782757997,1653,0,/imu_data_acquisition2,60914.0,0.0106811523438,-0.0504150390625,0.7099609375,0.702392578125,13.0625,-33.625,62.3125,-8.13,-3.62,5.63
1541792720793570041,1654,0,/imu_data_acquisition2,60921.0,0.0106811523438,-0.0504150390625,0.7099609375,0.702392578125,4.75,-23.375,68.0625,-9.28,-2.3,-0.01
1541792720802158117,1655,0,/imu_data_acquisition2,60933.0,0.0068359375,-0.0542602539062,0.719055175781,0.692749023438,-62.25,19.5625,91.25,-9.43,-1.76,2.01
1541792720814446926,1656,0,/imu_data_acquisition2,60943.0,-0.0040283203125,-0.0591430664062,0.723999023438,0.687255859375,-126.8125,49.125,95.0625,-10.35,-6.41,2.5
1541792720818916082,1657,0,/imu_data_acquisition2,60950.0,-6.103515625e-05,-6.103515625e-05,-6.103515625e-05,0.687255859375,-126.8125,49.125,95.0625,-7.37,3.34,37.96
1541792720830763101,1658,0,/imu_data_acquisition2,60960.0,-0.023193359375,-0.0667724609375,0.728332519531,0.681579589844,-218.75,98.125,97.0,4.17,-23.72,13.14
1541792720841475963,1659,0,/imu_data_acquisition2,60972.0,-0.0416259765625,-0.09033203125,0.732666015625,0.673278808594,-64.3125,20.4375,-26.0625,5.0,-13.89,0.63
1541792720852361917,1660,0,/imu_data_acquisition2,60981.0,-0.04638671875,-0.09326171875,0.730590820312,0.6748046875,-133.9375,30.0,-0.9375,2.55,2.18,12.61
1541792720861521959,1661,0,/imu_data_acquisition2,60991.0,-0.0558471679688,-0.0997924804688,0.729309082031,0.674560546875,-300.4375,16.125,52.375,-4.06,-32.51,30.86
1541792720870310068,1662,0,/imu_data_acquisition2,61001.0,-0.0744018554688,-0.117126464844,0.729431152344,0.669799804688,16.0,-24.75,-73.75,0.89,-13.28,-5.27
1541792720880686044,1663,0,/imu_data_acquisition2,61011.0,-0.0712280273438,-0.117980957031,0.7255859375,0.674194335938,-4.5,24.1875,-42.9375,-0.39,-2.75,12.2
1541792720890876054,1664,0,/imu_data_acquisition2,61021.0,-0.072509765625,-0.117126464844,0.722961425781,0.677062988281,-115.75,-9.5625,24.3125,0.28,-17.54,6.36
1541792720901477098,1665,0,/imu_data_acquisition2,61032.0,-0.0765380859375,-0.121887207031,0.722229003906,0.676452636719,41.125,5.9375,-23.4375,-0.58,-7.03,12.16
1541792720912177085,1666,0,/imu_data_acquisition2,61042.0,-0.0765380859375,-0.121887207031,0.722229003906,0.676452636719,20.5625,-6.0625,-1.4375,0.31,0.98,10.39
1541792720919286966,1667,0,/imu_data_acquisition2,61050.0,-0.0750122070312,-0.121032714844,0.722412109375,0.676635742188,20.5625,-6.0625,-1.4375,0.31,0.98,10.39
1541792720930229902,1668,0,/imu_data_acquisition2,61061.0,-0.073486328125,-0.120178222656,0.722961425781,0.676391601562,20.0,-7.0625,4.5625,0.95,-0.39,9.9
