%time,field.header.seq,field.header.stamp,field.header.frame_id,field.time_stamp,field.quat_x,field.quat_y,field.quat_z,field.quat_w,field.gyro_x,field.gyro_y,field.gyro_z,field.accel_x,field.accel_y,field.accel_z
1455208145940759897,1,0,/imu_data_acquisition2,8529.0,-0.102294921875,-0.127319335938,0.860900878906,0.481872558594,83.8125,55.25,19.0,-14.16,-1.51,0.07
1455208145950970888,2,0,/imu_data_acquisition2,8539.0,-0.10546875,-0.118469238281,0.860900878906,0.4833984375,74.125,84.75,0.625,-14.33,-0.67,-0.05
1455208145960920095,3,0,/imu_data_acquisition2,8549.0,-0.111022949219,-0.109619140625,0.859985351562,0.485900878906,60.125,112.3125,-12.125,-0.56,-7.36,2.28
1455208145975720882,4,0,/imu_data_acquisition2,8564.0,-0.117919921875,-0.098388671875,0.858581542969,0.489135742188,77.375,141.3125,-17.5625,-0.82,-8.15,12.59
1455208145984519958,5,0,/imu_data_acquisition2,8572.0,-0.124267578125,-0.0845336914062,0.856262207031,0.494201660156,108.125,153.0,-37.75,-0.82,-8.15,12.59
1455208145990626096,6,0,/imu_data_acquisition2,8579.0,-6.103515625e-05,-6.103515625e-05,-6.103515625e-05,0.498413085938,110.375,143.9375,-29.1875,-0.06,-0.77,5.93
1455208146000770092,7,0,/imu_data_acquisition2,8589.0,-0.132873535156,-0.0507202148438,0.853515625,0.501220703125,189.5625,152.8125,0.8125,-3.33,-0.8,12.81
1455208146015053987,8,0,/imu_data_acquisition2,8603.0,-0.127563476562,-0.0165405273438,0.854125976562,0.503967285156,381.625,149.875,26.5,-20.3,-2.75,34.74
1455208146021848917,9,0,/imu_data_acquisition2,8610.0,-0.119689941406,0.0076904296875,0.8544921875,0.505432128906,294.75,65.125,22.5625,-4.06,6.41,11.84
1455208146030843019,10,0,/imu_data_acquisition2,8619.0,-0.114074707031,0.01123046875,0.857116699219,0.502197265625,64.0,-0.0625,-0.0625,0.03,3.7,8.89
1455208146042243957,11,0,/imu_data_acquisition2,8630.0,-0.110534667969,0.017822265625,0.858032226562,0.501281738281,86.625,1.625,24.4375,-4.31,-0.45,15.81
1455208146050851106,12,0,/imu_data_acquisition2,8639.0,-0.107604980469,0.0204467773438,0.859497070312,0.499328613281,41.1875,-15.6875,32.5625,-2.85,0.46,10.37
1455208146060821056,13,0,/imu_data_acquisition2,8649.0,-0.106018066406,0.024658203125,0.859985351562,0.498596191406,51.0,8.6875,16.125,-4.98,8.7,16.94
1455208146072757005,14,0,/imu_data_acquisition2,8660.0,-0.105224609375,0.025634765625,0.860534667969,0.497680664062,13.375,-2.625,13.6875,-2.25,0.98,10.35
1455208146081192016,15,0,/imu_data_acquisition2,8669.0,-0.104858398438,0.0255737304688,0.86083984375,0.497314453125,1.5,-4.5625,5.625,-2.26,-0.79,-0.01
1455208146090694904,16,0,/imu_data_acquisition2,8679.0,-0.105163574219,0.0263061523438,0.860534667969,0.497741699219,5.5625,7.6875,-5.4375,-2.1,-0.48,9.38
1455208146102442979,17,0,/imu_data_acquisition2,8689.0,-0.105712890625,0.0267944335938,0.859985351562,0.49853515625,3.375,8.9375,-10.3125,-2.79,0.11,10.96
1455208146111138105,18,0,/imu_data_acquisition2,8699.0,-0.106262207031,0.027099609375,0.859375,0.499450683594,1.25,7.625,-13.25,-2.31,-1.68,9.39
1455208146120754003,19,0,/imu_data_acquisition2,8709.0,-0.106750488281,0.027587890625,0.858642578125,0.500610351562,3.8125,8.6875,-15.1875,-2.72,-1.8,8.57
1455208146131685972,20,0,/imu_data_acquisition2,8719.0,-0.107177734375,0.0279541015625,0.858032226562,0.501586914062,2.625,6.8125,-13.1875,-2.98,-2.47,8.76
1455208146141416072,21,0,/imu_data_acquisition2,8730.0,-0.107299804688,0.0283203125,0.857360839844,0.502563476562,3.9375,4.125,-13.4375,-2.62,-2.72,8.43
1455208146151252031,22,0,/imu_data_acquisition2,8740.0,-0.107177734375,0.02880859375,0.857055664062,0.503173828125,7.0625,1.5,-7.4375,-2.8,-2.63,9.06
1455208146163389921,23,0,/imu_data_acquisition2,8750.0,-0.106628417969,0.029296875,0.85693359375,0.503356933594,8.375,-2.4375,-1.9375,-2.9,-1.47,9.28
1455208146172199964,24,0,/imu_data_acquisition2,8760.0,-0.105651855469,0.0296020507812,0.857116699219,0.503356933594,8.6875,-7.875,2.0625,-2.74,-2.15,8.94
1455208146180874109,25,0,/imu_data_acquisition2,8769.0,-0.104370117188,0.0299682617188,0.857360839844,0.503173828125,10.75,-11.5625,4.1875,-2.85,-1.26,9.38
1455208146191433906,26,0,/imu_data_acquisition2,8780.0,-0.102844238281,0.0300903320312,0.857727050781,0.502807617188,9.5625,-15.0,6.4375,-2.43,-0.8,9.62
1455208146200814962,27,0,/imu_data_acquisition2,8789.0,-0.101379394531,0.0302124023438,0.858154296875,0.50244140625,9.8125,-14.5,6.875,-2.11,-1.24,9.85
1455208146210771083,28,0,/imu_data_acquisition2,8799.0,-0.0999755859375,0.0304565429688,0.858520507812,0.502075195312,9.75,-13.0625,6.5625,-2.28,-0.76,10.15
1455208146224472045,29,0,/imu_data_acquisition2,8812.0,-0.0988159179688,0.030517578125,0.858825683594,0.501770019531,7.25,-11.6875,5.25,-2.11,-0.27,9.98
1455208146231137037,30,0,/imu_data_acquisition2,8819.0,-0.0979614257812,0.0305786132812,0.859008789062,0.501647949219,5.6875,-8.625,2.875,-2.55,-0.05,10.13
1455208146240720033,31,0,/imu_data_acquisition2,8829.0,-0.0972900390625,0.0307006835938,0.859008789062,0.501708984375,5.375,-5.75,-0.5,-1.47,-0.76,9.95
1455208146252052068,32,0,/imu_data_acquisition2,8840.0,-0.0969848632812,0.0308227539062,0.85888671875,0.501953125,3.5625,-2.4375,-3.3125,-2.76,-0.8,10.58
1455208146260809898,33,0,/imu_data_acquisition2,8849.0,-0.0968017578125,0.0311279296875,0.858642578125,0.502380371094,4.5,-0.0625,-5.125,-2.19,-1.63,9.3
1455208146270750045,34,0,/imu_data_acquisition2,8859.0,-0.0966186523438,0.0313720703125,0.858459472656,0.502746582031,3.5625,0.0,-4.8125,-2.67,-1.0,10.26
1455208146282294034,35,0,/imu_data_acquisition2,8870.0,-0.0964965820312,0.0316162109375,0.858276367188,0.503051757812,3.625,0.5625,-3.6875,-2.73,-1.06,10.4
1455208146290777921,36,0,/imu_data_acquisition2,8879.0,-0.0963745117188,0.0319213867188,0.858154296875,0.503295898438,4.4375,0.875,-2.5625,-2.08,-1.83,9.2
1455208146300789117,37,0,/imu_data_acquisition2,8889.0,-0.0962524414062,0.0321655273438,0.858093261719,0.503356933594,3.1875,0.25,-1.0625,-2.8,-0.81,10.04
1455208146312375068,38,0,/imu_data_acquisition2,8900.0,-0.09619140625,0.0324096679688,0.858093261719,0.50341796875,2.5625,0.75,-0.25,-2.29,-1.26,9.33
1455208146321022987,39,0,/imu_data_acquisition2,8909.0,-0.09619140625,0.0326538085938,0.858032226562,0.503479003906,3.0625,1.9375,-1.0,-2.41,-1.01,9.49
1455208146330857038,40,0,/imu_data_acquisition2,8919.0,-0.0963134765625,0.0328979492188,0.857971191406,0.503540039062,1.9375,2.5625,-0.875,-2.29,-1.27,9.77
1455208146342148065,41,0,/imu_data_acquisition2,8930.0,-0.0964965820312,0.033203125,0.857849121094,0.503662109375,2.1875,3.4375,-0.9375,-2.55,-0.95,9.72
1455208146350972890,42,0,/imu_data_acquisition2,8939.0,-0.0975341796875,0.0330810546875,0.857727050781,0.503662109375,1.125,3.3125,-0.25,-2.49,-1.03,9.63
1455208146361243963,43,0,/imu_data_acquisition2,8949.0,-0.0986938476562,0.0328369140625,-6.103515625e-05,0.503662109375,0.75,3.625,-0.0625,-2.47,-1.22,9.53
1455208146372468948,44,0,/imu_data_acquisition2,8959.0,-0.0997314453125,0.0326538085938,0.857482910156,0.503723144531,1.0625,3.375,0.125,-2.35,-1.13,9.28
1455208146384536981,45,0,/imu_data_acquisition2,8973.0,-0.0999145507812,0.0328369140625,0.857421875,0.503723144531,1.125,2.875,0.1875,-2.76,-1.14,9.29
1455208146391525983,46,0,/imu_data_acquisition2,8980.0,-0.0999755859375,0.032958984375,0.857421875,0.503723144531,1.0,1.6875,0.375,-2.46,-0.96,9.36
1455208146403218030,47,0,/imu_data_acquisition2,8991.0,-0.0999755859375,0.0331420898438,0.857421875,0.503723144531,2.125,0.875,0.0625,-2.55,-1.2,9.43
1455208146411828994,48,0,/imu_data_acquisition2,9000.0,-0.0997924804688,0.0333862304688,0.857421875,0.503784179688,3.3125,0.5,-0.375,-2.73,-0.87,9.45
1455208146421521902,49,0,/imu_data_acquisition2,9010.0,-0.100891113281,0.033447265625,0.857238769531,0.503845214844,3.75,-0.6875,-0.6875,-2.68,-0.92,9.32
1455208146432856082,50,0,/imu_data_acquisition2,9020.0,-0.10205078125,0.033447265625,0.857055664062,0.503967285156,3.8125,-0.875,-1.125,-2.79,-1.07,9.41
1455208146442526102,51,0,/imu_data_acquisition2,9031.0,-0.102661132812,0.033447265625,0.856872558594,0.504150390625,4.875,-0.9375,-1.625,-2.28,-1.04,9.37
1455208146451519966,52,0,/imu_data_acquisition2,9040.0,-0.102416992188,0.0338134765625,0.856750488281,0.504333496094,5.375,-0.5,-1.9375,-2.18,-1.03,9.32
1455208146461956024,53,0,/imu_data_acquisition2,9050.0,-0.102172851562,0.0343017578125,0.856628417969,0.504577636719,6.875,-0.375,-3.1875,-2.52,-0.74,9.63
1455208146472759962,54,0,/imu_data_acquisition2,9061.0,-0.101867675781,0.0347290039062,0.8564453125,0.5048828125,6.5,-0.0625,-2.75,-2.78,-1.2,9.43
1455208146481134891,55,0,/imu_data_acquisition2,9069.0,-0.102294921875,0.0348510742188,0.856262207031,0.505126953125,6.5,-0.3125,-2.5,-2.34,-1.02,9.54
1455208146491081953,56,0,/imu_data_acquisition2,9079.0,-0.102905273438,0.0350341796875,0.856018066406,0.50537109375,6.75,-0.1875,-2.5,-2.66,-1.03,9.53
1455208146502470016,57,0,/imu_data_acquisition2,9091.0,-0.103149414062,0.0353393554688,0.855834960938,0.505676269531,7.75,0.5625,-2.75,-2.37,-0.84,9.58
1455208146510757923,58,0,/imu_data_acquisition2,9099.0,-0.103759765625,0.0357055664062,0.855590820312,0.505920410156,8.1875,0.875,-2.75,-2.86,-1.0,9.67
1455208146523507118,59,0,/imu_data_acquisition2,9109.0,-0.104248046875,0.0360107421875,0.855346679688,0.506225585938,8.0625,1.375,-2.8125,-2.46,-0.01,-0.01
1455208146532778024,60,0,/imu_data_acquisition2,9121.0,-0.104553222656,0.0364379882812,0.855102539062,0.506469726562,7.75,2.25,-2.75,-2.44,-0.75,9.52
1455208146540673017,61,0,/imu_data_acquisition2,9129.0,-0.105102539062,0.036865234375,0.854858398438,0.506774902344,7.125,3.1875,-2.6875,-2.66,-1.0,9.71
1455208146550704956,62,0,/imu_data_acquisition2,9139.0,-0.105651855469,0.0372924804688,0.854614257812,0.507019042969,7.375,4.25,-2.75,-2.49,-0.95,9.77
1455208146562674045,63,0,/imu_data_acquisition2,9150.0,-0.106201171875,0.0377807617188,0.854370117188,0.507263183594,6.75,5.5,-2.8125,-2.54,-0.89,9.6
1455208146571098089,64,0,/imu_data_acquisition2,9159.0,-0.106811523438,0.0384521484375,0.854125976562,0.507568359375,6.8125,7.0,-3.0625,-2.54,-0.69,9.61
1455208146580776929,65,0,/imu_data_acquisition2,9169.0,-0.107727050781,0.0391235351562,0.853820800781,0.5078125,6.875,8.0625,-2.8125,-2.76,-0.84,9.33
1455208146592186927,66,0,/imu_data_acquisition2,9180.0,-0.108093261719,0.0399169921875,0.853637695312,0.507995605469,5.9375,8.5625,-2.375,-2.51,-2.16,8.67
1455208146600876092,67,0,/imu_data_acquisition2,9189.0,-0.108764648438,0.0409545898438,0.853393554688,0.508178710938,7.125,13.0625,-2.4375,-2.24,-0.14,9.3
1455208146610692024,68,0,/imu_data_acquisition2,9199.0,-0.109436035156,0.0423583984375,0.853088378906,0.508422851562,10.25,15.875,-2.5,-2.26,-0.91,9.99
1455208146622324943,69,0,/imu_data_acquisition2,9210.0,-0.110229492188,0.0435180664062,0.852905273438,0.508422851562,6.75,14.6875,-0.5625,-2.87,-1.46,10.34
1455208146631042003,70,0,/imu_data_acquisition2,9219.0,-0.111145019531,0.0444946289062,0.852844238281,0.508239746094,4.3125,15.1875,1.9375,-2.76,-1.38,9.67
1455208146643811941,71,0,/imu_data_acquisition2,9232.0,-0.112182617188,0.0454711914062,0.852844238281,0.507934570312,3.5,16.625,3.8125,-2.71,-1.13,9.5
1455208146656605958,72,0,/imu_data_acquisition2,9242.0,-0.113464355469,0.0468139648438,0.852722167969,0.507690429688,5.625,21.25,2.875,-1.47,-1.2,8.91
1455208146666460037,73,0,/imu_data_acquisition2,9253.0,-0.115234375,0.0481567382812,0.852661132812,0.507385253906,2.0,26.125,3.625,-2.41,-0.99,9.37
1455208146673574924,74,0,/imu_data_acquisition2,9261.0,-0.117431640625,0.0497436523438,0.852478027344,0.506896972656,2.6875,32.6875,4.6875,-2.46,-0.87,9.7
1455208146684628963,75,0,/imu_data_acquisition2,9271.0,-0.119873046875,0.0515747070312,0.852416992188,0.506286621094,3.0,35.6875,7.125,-1.8,-1.01,9.87
1455208146693948984,76,0,/imu_data_acquisition2,9281.0,-0.122680664062,0.0538330078125,0.852416992188,0.505432128906,4.4375,42.3125,9.5,-1.89,-1.63,9.6
1455208146702919006,77,0,/imu_data_acquisition2,9290.0,-0.126220703125,0.056396484375,0.852416992188,0.504272460938,3.25,51.8125,13.5625,-2.02,-1.0,9.97
1455208146714626073,78,0,/imu_data_acquisition2,9301.0,-0.130615234375,0.0594482421875,0.852416992188,0.502746582031,2.25,63.75,16.9375,-1.49,0.45,9.92
1455208146724143981,79,0,/imu_data_acquisition2,9311.0,-0.135864257812,0.0625610351562,0.852661132812,0.500549316406,-3.4375,73.0625,24.5625,-1.52,-0.42,9.74
1455208146733040094,80,0,/imu_data_acquisition2,9321.0,-0.142333984375,0.0652465820312,0.853332519531,0.497314453125,-16.8125,82.4375,36.125,-2.04,0.09,9.89
1455208146741805076,81,0,/imu_data_acquisition2,9330.0,-0.149963378906,0.0682373046875,0.853942871094,0.493591308594,-22.0625,96.0,40.75,-2.14,0.38,9.76
1455208146750817060,82,0,/imu_data_acquisition2,9339.0,-0.158935546875,0.0707397460938,0.8544921875,0.489440917969,-34.1875,107.75,41.75,-2.41,2.55,10.12
1455208146760905027,83,0,/imu_data_acquisition2,9349.0,-0.169311523438,0.0720825195312,0.854736328125,0.4853515625,-54.625,115.5,36.75,-2.54,1.2,10.01
1455208146771953105,84,0,/imu_data_acquisition2,9360.0,-0.181335449219,0.0718383789062,0.8544921875,0.481506347656,-79.0625,124.0625,26.8125,-2.78,0.31,9.79
1455208146780955076,85,0,/imu_data_acquisition2,9369.0,-0.1943359375,0.0711059570312,0.853698730469,0.477844238281,-89.0625,132.1875,19.6875,-3.15,-2.68,10.6
1455208146790739059,86,0,/imu_data_acquisition2,9379.0,-0.207824707031,0.070556640625,0.852722167969,0.473999023438,-89.5,138.9375,21.375,-3.26,-2.64,10.59
1455208146802083969,87,0,/imu_data_acquisition2,9390.0,-0.221862792969,0.0712280273438,0.851684570312,0.469421386719,-82.375,151.5,29.4375,-3.93,-1.93,10.41
1455208146810924053,88,0,/imu_data_acquisition2,9399.0,-0.221862792969,0.0712280273438,0.851684570312,0.469421386719,-85.8125,169.125,39.3125,-3.87,-2.31,11.18
1455208146820823907,89,0,/imu_data_acquisition2,9409.0,-0.253723144531,0.0745239257812,0.848999023438,0.45751953125,-86.9375,188.125,48.25,-3.31,-2.84,10.86
1455208146832285881,90,0,/imu_data_acquisition2,9420.0,-0.271179199219,0.0776977539062,0.84716796875,0.450256347656,-82.8125,204.3125,56.9375,-3.77,-3.44,10.48
1455208146840887069,91,0,/imu_data_acquisition2,9429.0,-0.289428710938,0.0821533203125,0.844909667969,0.442260742188,-76.5,221.5625,65.75,-4.85,-2.46,11.39
1455208146850781917,92,0,/imu_data_acquisition2,9439.0,-0.289428710938,0.0821533203125,0.844909667969,0.442260742188,-76.5,242.0,75.75,-6.31,-1.82,12.94
1455208146862978935,93,0,/imu_data_acquisition2,9451.0,-0.308959960938,0.0875854492188,0.842163085938,0.433166503906,-83.5,259.3125,87.375,-7.47,-2.75,12.88
1455208146871181011,94,0,/imu_data_acquisition2,9459.0,-0.350891113281,0.098388671875,0.835815429688,0.41064453125,-100.0625,261.1875,100.4375,-7.6,-3.56,13.28
1455208146881071090,95,0,/imu_data_acquisition2,9469.0,-0.01220703125,-6.103515625e-05,-6.103515625e-05,0.397338867188,-110.625,252.9375,110.875,-7.22,-3.41,12.13
1455208146892518997,96,0,/imu_data_acquisition2,9480.0,-0.390930175781,0.105590820312,0.830017089844,0.383483886719,-118.9375,233.9375,113.1875,-6.26,-2.84,12.39
1455208146901264905,97,0,/imu_data_acquisition2,9489.0,-0.390930175781,0.105590820312,0.830017089844,0.383483886719,-125.0,215.375,109.125,-3.22,-4.17,11.97
1455208146910933971,98,0,/imu_data_acquisition2,9499.0,-0.408996582031,0.107360839844,0.827331542969,0.369689941406,-142.8125,173.8125,105.1875,-10.54,-22.78,30.83
1455208146922667980,99,0,/imu_data_acquisition2,9509.0,-0.437255859375,0.106628417969,0.821411132812,0.350341796875,-72.8125,153.75,19.125,3.75,-19.9,17.8
1455208146931437969,100,0,/imu_data_acquisition2,9520.0,-0.0054931640625,-6.103515625e-05,-6.103515625e-05,0.353942871094,-43.0,53.8125,-81.625,6.11,-9.55,10.14
1455208146941343069,101,0,/imu_data_acquisition2,9530.0,-0.447021484375,0.0952758789062,-6.103515625e-05,0.362243652344,-34.625,26.3125,-143.0,6.17,-3.1,9.15
1455208146951883077,102,0,/imu_data_acquisition2,9539.0,-0.447021484375,0.0952758789062,0.812316894531,0.362243652344,-53.75,30.5625,-161.125,4.59,-5.15,11.35
1455208146961608886,103,0,/imu_data_acquisition2,9550.0,-0.452026367188,0.08642578125,0.806579589844,0.371032714844,-73.625,18.8125,-171.4375,4.29,-5.89,11.57
1455208146971160888,104,0,/imu_data_acquisition2,9559.0,-0.459411621094,0.0635986328125,0.795654296875,0.3896484375,-65.125,-8.875,-184.625,5.0,-3.86,9.57
1455208146981877088,105,0,/imu_data_acquisition2,9570.0,-0.459411621094,0.0635986328125,0.795654296875,0.3896484375,-40.9375,-30.625,-193.3125,3.86,0.78,9.29
1455208146992151021,106,0,/imu_data_acquisition2,9580.0,-0.458435058594,0.0416259765625,0.785949707031,0.412841796875,-27.5625,-44.75,-188.875,2.26,-0.02,10.46
1455208147001147985,107,0,/imu_data_acquisition2,9589.0,-0.458435058594,0.0416259765625,0.785949707031,0.412841796875,-27.5625,-44.75,-188.875,0.76,-1.26,11.01
1455208147011311054,108,0,/imu_data_acquisition2,9599.0,-0.455505371094,0.0313110351562,0.782165527344,0.423950195312,-19.8125,-62.625,-176.3125,-0.91,0.52,10.86
1455208147022361040,109,0,/imu_data_acquisition2,9610.0,-0.442016601562,0.014404296875,0.778076171875,0.446105957031,30.875,-109.5,-148.375,-1.73,-0.11,10.48
1455208147031547069,110,0,/imu_data_acquisition2,9620.0,-0.442016601562,0.014404296875,0.778076171875,0.446105957031,51.4375,-131.125,-125.125,-2.56,-1.05,10.4
1455208147041785001,111,0,/imu_data_acquisition2,9630.0,-0.431518554688,0.0081787109375,0.778076171875,0.456359863281,69.5625,-149.0,-102.875,-3.87,-2.42,10.07
1455208147052153110,112,0,/imu_data_acquisition2,9640.0,-0.419067382812,0.0032958984375,0.779418945312,0.465698242188,81.4375,-162.6875,-84.3125,-4.75,-3.34,10.08
1455208147061141014,113,0,/imu_data_acquisition2,9649.0,-0.405151367188,-0.000732421875,0.78173828125,0.47412109375,85.75,-172.0625,-69.0625,-5.27,-4.44,9.69
1455208147071574926,114,0,/imu_data_acquisition2,9660.0,-0.390258789062,-0.00433349609375,0.784729003906,0.481567382812,87.9375,-179.5,-57.75,-5.73,-5.65,8.51
1455208147082894086,115,0,/imu_data_acquisition2,9671.0,-0.374694824219,-0.0076904296875,0.788208007812,0.488159179688,88.9375,-0.0625,-0.0625,-5.98,-6.55,8.31
1455208147091692924,116,0,/imu_data_acquisition2,9680.0,-0.358825683594,-0.0108642578125,0.791870117188,0.494018554688,86.3125,-180.5,-42.5625,-6.34,-7.75,8.2
1455208147101052999,117,0,/imu_data_acquisition2,9689.0,-0.343078613281,-0.013916015625,0.795532226562,0.499267578125,82.4375,-176.9375,-39.25,-6.5,-8.66,8.15
1455208147112750053,118,0,/imu_data_acquisition2,9700.0,-0.327575683594,-0.0169677734375,0.798950195312,0.504028320312,79.125,-172.0,-41.0,-6.35,-9.84,7.6
1455208147121709108,119,0,/imu_data_acquisition2,9710.0,-0.3125,-0.0200805664062,0.802001953125,0.508666992188,74.625,-165.3125,-46.4375,-6.13,-10.17,7.18
1455208147131747961,120,0,/imu_data_acquisition2,9720.0,-0.297973632812,-0.0233764648438,0.804382324219,0.513427734375,71.125,-156.375,-55.0625,-5.84,-10.28,7.05
1455208147143110990,121,0,/imu_data_acquisition2,9731.0,-0.284118652344,-0.0266723632812,0.805969238281,0.518615722656,68.4375,-146.3125,-64.9375,-5.43,-10.01,7.27
1455208147151125907,122,0,/imu_data_acquisition2,9739.0,-0.27099609375,-0.0143432617188,-6.103515625e-05,0.524291992188,68.4375,-146.3125,-64.9375,-5.2,-9.8,7.55
1455208147161159038,123,0,/imu_data_acquisition2,9749.0,-0.259399414062,-0.033203125,0.805969238281,0.531066894531,63.125,-125.75,-83.9375,-5.32,-9.25,8.35
1455208147173842906,124,0,/imu_data_acquisition2,9760.0,-0.247741699219,-0.036376953125,0.805053710938,0.537780761719,57.125,-117.4375,-92.125,-5.15,-8.41,9.53
1455208147182792901,125,0,/imu_data_acquisition2,9771.0,-0.23681640625,-0.0397338867188,0.803405761719,0.544799804688,38.375,-109.8125,-103.1875,-5.27,-7.96,10.3
1455208147191975116,126,0,/imu_data_acquisition2,9780.0,-0.227233886719,-0.0442504882812,0.800964355469,0.552185058594,29.0,-111.625,-105.8125,-5.22,-7.37,10.34
1455208147202979087,127,0,/imu_data_acquisition2,9790.0,-0.217956542969,-0.0494995117188,0.798156738281,0.559448242188,29.0,-111.625,-105.8125,-5.04,-6.51,9.9
1455208147211153984,128,0,/imu_data_acquisition2,9799.0,-0.208862304688,-0.05517578125,0.79541015625,0.566284179688,22.5625,-112.25,-103.5,-5.04,-6.51,9.9
1455208147222064971,129,0,/imu_data_acquisition2,9810.0,-0.2001953125,-0.0609741210938,0.792724609375,0.572509765625,10.875,-105.75,-83.0625,-5.37,-2.85,8.78
1455208147233160972,130,0,/imu_data_acquisition2,9820.0,-0.192138671875,-0.0667724609375,0.79052734375,0.577697753906,4.625,-99.5,-65.0,-5.68,-1.83,8.6
1455208147242093086,131,0,/imu_data_acquisition2,9830.0,-0.184875488281,-0.0723876953125,0.788940429688,0.581481933594,-1.75,-92.1875,-43.3125,-7.01,-0.32,9.07
1455208147251085042,132,0,/imu_data_acquisition2,9839.0,-0.178527832031,-0.0776977539062,0.788208007812,0.583801269531,-1.75,-92.1875,-43.3125,-7.01,-0.32,9.07
1455208147262326002,133,0,/imu_data_acquisition2,9850.0,-0.173156738281,-0.0826416015625,0.78857421875,0.584228515625,-5.125,-77.6875,9.4375,-9.18,0.25,8.99
1455208147272138118,134,0,/imu_data_acquisition2,9860.0,-0.168273925781,-0.086669921875,0.790100097656,0.5830078125,-5.0625,-77.25,34.25,-11.71,0.09,10.75
1455208147281924009,135,0,/imu_data_acquisition2,9870.0,-0.163635253906,-0.01220703125,-6.103515625e-05,0.580078125,-8.625,-82.75,56.1875,-12.88,-0.15,11.02
1455208147293042898,136,0,/imu_data_acquisition2,9881.0,-0.158935546875,-0.0941772460938,0.796630859375,0.575500488281,-10.8125,-91.375,73.1875,-13.71,-0.06,10.65
1455208147301386117,137,0,/imu_data_acquisition2,9890.0,-0.153869628906,-0.0983276367188,0.801330566406,0.569702148438,-10.8125,-91.375,73.1875,-13.71,-0.06,10.65
1455208147311034917,138,0,/imu_data_acquisition2,9899.0,-0.148498535156,-0.102844238281,0.806640625,0.562805175781,-12.375,-98.8125,86.75,-14.79,-0.88,8.32
1455208147323395967,139,0,/imu_data_acquisition2,9911.0,-0.142944335938,-0.10693359375,0.812255859375,0.555297851562,-7.25,-102.5625,102.9375,-15.71,-1.8,6.11
1455208147332300901,140,0,/imu_data_acquisition2,9920.0,-0.137145996094,-0.111022949219,0.818237304688,0.547119140625,0.25,-100.4375,105.0,-15.82,-2.46,4.89
1455208147342312097,141,0,/imu_data_acquisition2,9931.0,-0.131225585938,-0.114440917969,0.824157714844,0.538879394531,10.25,-91.0,102.0625,-15.11,-3.4,1.09
1455208147353238105,142,0,/imu_data_acquisition2,9940.0,-0.125366210938,-0.11669921875,0.829895019531,0.531005859375,10.25,-91.0,102.0625,-15.11,-3.4,1.09
1455208147361702919,143,0,/imu_data_acquisition2,9950.0,-0.120300292969,-0.117248535156,0.8349609375,0.523986816406,23.5625,-70.1875,93.0625,-14.83,-3.19,-0.33
1455208147372626066,144,0,/imu_data_acquisition2,9961.0,-0.116760253906,-0.116027832031,0.839172363281,0.518310546875,35.8125,-4.5,61.1875,-14.05,-2.93,-3.58
1455208147384087085,145,0,/imu_data_acquisition2,9971.0,-0.115478515625,-0.113098144531,0.84228515625,0.514282226562,40.6875,37.375,40.125,-13.89,-2.82,-4.22
1455208147392700910,146,0,/imu_data_acquisition2,9981.0,-0.116760253906,-0.108154296875,0.843994140625,0.512145996094,45.6875,83.5625,19.125,-13.5,-1.52,-4.69
1455208147400880098,147,0,/imu_data_acquisition2,9989.0,-0.120910644531,-0.10107421875,0.844421386719,0.511962890625,45.6875,83.5625,19.125,-13.5,-1.52,-4.69
1455208147412132024,148,0,/imu_data_acquisition2,9999.0,-0.1279296875,-0.0908813476562,0.844055175781,0.512756347656,60.4375,133.625,-0.0625,0.51,-11.36,0.81
1455208147422518968,149,0,/imu_data_acquisition2,10011.0,-0.135864257812,-0.0758666992188,0.842468261719,0.515747070312,94.3125,179.125,-12.5625,0.93,-0.01,-0.01
1455208147432738065,150,0,/imu_data_acquisition2,10021.0,-0.144409179688,-0.0615234375,0.840393066406,0.518798828125,118.1875,190.625,1.375,-0.47,-1.1,6.66
1455208147445015907,151,0,/imu_data_acquisition2,10032.0,-0.152770996094,-0.0447387695312,0.838562011719,0.52099609375,274.5,191.4375,37.125,-19.25,-12.84,31.11
1455208147454461097,152,0,/imu_data_acquisition2,10041.0,-0.154296875,-0.016357421875,0.838439941406,0.5224609375,274.5,191.4375,37.125,-30.58,5.94,39.68
1455208147463768005,153,0,/imu_data_acquisition2,10051.0,-0.146179199219,0.0169067382812,0.836975097656,0.527038574219,388.9375,129.0,4.375,-10.0,19.19,23.89
1455208147475075960,154,0,/imu_data_acquisition2,10062.0,-0.139404296875,0.0159912109375,0.840454101562,0.5234375,93.9375,-18.625,32.0625,-3.7,-3.4,14.34
1455208147485510110,155,0,/imu_data_acquisition2,10072.0,-0.133911132812,0.022216796875,0.841918945312,0.522277832031,99.4375,18.9375,17.875,-6.07,2.8,17.95
1455208147495332956,156,0,/imu_data_acquisition2,10083.0,-0.130798339844,0.0303344726562,0.84228515625,0.522094726562,26.0,-14.0,26.75,-3.24,3.17,10.86
1455208147504031896,157,0,/imu_data_acquisition2,10091.0,-0.128601074219,0.0318603515625,0.843505859375,0.5205078125,26.0,-14.0,26.75,-1.84,0.76,10.03
1455208147514544010,158,0,/imu_data_acquisition2,10102.0,-0.127136230469,0.0320434570312,0.844177246094,0.519775390625,5.375,-9.0,1.5,-2.01,1.71,11.14
1455208147524566888,159,0,/imu_data_acquisition2,10112.0,-0.126281738281,0.0320434570312,0.844299316406,0.519775390625,3.3125,2.375,-7.0625,-2.22,0.48,11.1
1455208147536515951,160,0,/imu_data_acquisition2,10123.0,-0.126342773438,0.0323486328125,0.843994140625,0.520324707031,3.75,8.25,-12.625,-2.89,-0.58,10.94
1455208147543493986,161,0,/imu_data_acquisition2,10132.0,-0.126770019531,0.0328369140625,0.843322753906,0.521240234375,1.1875,6.75,-14.3125,-2.58,-1.83,9.92
1455208147550798892,162,0,/imu_data_acquisition2,10139.0,-0.127258300781,0.0330810546875,0.842590332031,0.522216796875,1.1875,6.75,-14.3125,-2.58,-1.83,9.92
1455208147560637950,163,0,/imu_data_acquisition2,10149.0,-0.127685546875,0.0333251953125,0.841918945312,0.523254394531,2.1875,6.5625,-14.1875,-2.31,-2.24,9.44
1455208147573609113,164,0,/imu_data_acquisition2,10162.0,-0.127990722656,0.0337524414062,0.84130859375,0.524108886719,3.1875,6.0,-11.6875,-2.55,-2.53,8.56
1455208147582829952,165,0,/imu_data_acquisition2,10171.0,-0.128173828125,0.0340576171875,0.840881347656,0.524719238281,3.4375,4.5625,-8.375,-2.47,-2.41,8.8
1455208147593410015,166,0,/imu_data_acquisition2,10181.0,-0.128112792969,0.034423828125,0.840637207031,0.525085449219,4.3125,1.75,-4.5625,-2.74,-1.67,9.27
1455208147602786064,167,0,/imu_data_acquisition2,10190.0,-0.127746582031,0.03466796875,0.840515136719,0.525329589844,5.25,-2.125,-2.4375,-2.74,-1.67,9.27
1455208147610841035,168,0,/imu_data_acquisition2,10199.0,-0.127075195312,0.0348510742188,0.840576171875,0.525390625,6.0625,-5.6875,-0.3125,-2.57,-1.46,9.43
1455208147624785900,169,0,/imu_data_acquisition2,10211.0,-0.126159667969,0.034912109375,0.8408203125,0.525268554688,5.5,-8.9375,3.0,-2.54,-1.27,9.46
1455208147634103059,170,0,/imu_data_acquisition2,10222.0,-0.125183105469,0.0350341796875,0.841064453125,0.525085449219,7.3125,-9.25,3.75,-2.22,-0.98,9.68
1455208147643167972,171,0,/imu_data_acquisition2,10231.0,-0.124145507812,0.03515625,0.84130859375,0.52490234375,7.0625,-9.625,4.0625,-2.65,-0.81,10.01
1455208147650640010,172,0,/imu_data_acquisition2,10239.0,-0.123229980469,0.035400390625,0.841491699219,0.524780273438,8.0,-7.625,3.25,-2.65,-0.81,10.01
1455208147661315917,173,0,/imu_data_acquisition2,10249.0,-0.122436523438,0.0357055664062,0.841613769531,0.524780273438,8.0,-6.6875,1.875,-1.99,-0.01,-0.01
1455208147673343896,174,0,/imu_data_acquisition2,10261.0,-0.121887207031,0.0359497070312,0.841674804688,0.524841308594,5.75,-4.125,-0.0625,-1.96,-1.31,9.2
1455208147683247089,175,0,/imu_data_acquisition2,10271.0,-0.121520996094,0.0360107421875,0.841613769531,0.524963378906,3.5,-3.0,-1.4375,-2.45,-0.62,10.19
1455208147694427013,176,0,/imu_data_acquisition2,10282.0,-0.121398925781,0.0363159179688,0.841491699219,0.525268554688,3.625,0.6875,-3.125,-2.29,-1.65,9.42
1455208147700993061,177,0,/imu_data_acquisition2,10289.0,-0.121398925781,0.0364379882812,0.84130859375,0.525451660156,2.125,1.0625,-2.8125,-2.29,-1.65,9.42
1455208147710769891,178,0,/imu_data_acquisition2,10299.0,-0.121398925781,0.0366821289062,0.841186523438,0.525695800781,2.125,1.8125,-2.5625,-2.27,-1.91,9.4
1455208147724828004,179,0,/imu_data_acquisition2,10312.0,-0.121459960938,0.0369262695312,0.841064453125,0.525817871094,2.4375,1.9375,-1.5,-2.41,-1.5,9.23
1455208147733547925,180,0,/imu_data_acquisition2,10322.0,-0.121520996094,0.0370483398438,0.841064453125,0.525817871094,1.0625,1.125,-0.0625,-2.32,-1.25,9.39
1455208147743908882,181,0,/imu_data_acquisition2,10332.0,-0.12158203125,0.0372314453125,0.841064453125,0.525817871094,1.5625,2.0625,0.125,-2.44,-0.93,9.88
1455208147752038955,182,0,/imu_data_acquisition2,10340.0,-0.121643066406,0.0375366210938,0.841003417969,0.525817871094,2.0625,2.6875,-0.1875,-2.44,-0.93,9.88
1455208147760891914,183,0,/imu_data_acquisition2,10349.0,-0.121826171875,0.0377197265625,0.841003417969,0.525817871094,1.375,2.6875,-0.25,-2.75,-1.05,9.65
1455208147773035049,184,0,/imu_data_acquisition2,10361.0,-0.121948242188,0.0379638671875,0.840881347656,0.525939941406,1.75,2.875,-1.0,-2.41,-0.85,9.43
1455208147786684036,185,0,/imu_data_acquisition2,10372.0,-0.1220703125,0.0382080078125,0.8408203125,0.526062011719,1.9375,2.8125,-1.5625,-2.7,-0.92,9.25
1455208147793786048,186,0,/imu_data_acquisition2,10382.0,-0.122131347656,0.0385131835938,0.840637207031,0.526184082031,2.5625,2.625,-0.0625,-2.41,-0.01,-0.01
1455208147800909042,187,0,/imu_data_acquisition2,10389.0,-0.122131347656,0.038818359375,0.840515136719,0.526428222656,3.3125,2.1875,-2.4375,-2.41,-1.14,9.17
1455208147812796115,188,0,/imu_data_acquisition2,10400.0,-0.1220703125,0.0391235351562,0.840393066406,0.526611328125,4.0,1.5,-2.0,-2.1,-1.35,9.34
1455208147823182106,189,0,/imu_data_acquisition2,10411.0,-0.121948242188,0.0394897460938,0.84033203125,0.526733398438,4.5,1.25,-1.3125,-2.77,-1.14,9.64
1455208147833942890,190,0,/imu_data_acquisition2,10422.0,-0.121826171875,0.039794921875,0.840270996094,0.526794433594,3.875,0.0,-0.6875,-2.4,-1.1,9.56
1455208147846153974,191,0,/imu_data_acquisition2,10433.0,-0.121643066406,0.0401000976562,0.840209960938,0.526916503906,4.875,0.1875,-1.375,-2.58,-1.06,9.6
1455208147851521015,192,0,/imu_data_acquisition2,10440.0,-0.121398925781,0.0404052734375,0.840148925781,0.527099609375,4.875,0.1875,-1.375,-2.58,-1.06,9.6
1455208147861228942,193,0,/imu_data_acquisition2,10449.0,-0.121398925781,0.0406494140625,0.839965820312,0.52734375,6.9375,0.875,-2.8125,-2.41,-0.93,9.46
1455208147872809886,194,0,/imu_data_acquisition2,10460.0,-0.121398925781,0.0407104492188,0.839782714844,0.527587890625,5.125,0.8125,-2.3125,-2.25,-1.04,9.36
1455208147884263038,195,0,/imu_data_acquisition2,10472.0,-0.121459960938,0.0408325195312,0.839538574219,0.527954101562,6.1875,1.625,-3.3125,-2.76,-1.02,9.47
1455208147894124031,196,0,/imu_data_acquisition2,10482.0,-0.12158203125,0.041015625,0.83935546875,0.528198242188,5.4375,1.6875,-2.75,-2.59,-1.21,9.49
1455208147900995969,197,0,/imu_data_acquisition2,10489.0,-0.121826171875,0.0411376953125,0.839172363281,0.528442382812,5.125,1.8125,-2.4375,-2.59,-1.21,9.49
1455208147911833047,198,0,/imu_data_acquisition2,10500.0,-0.1220703125,0.041259765625,0.838928222656,0.528747558594,6.125,2.125,-2.625,-2.49,-1.19,9.64
1455208147920727014,199,0,/imu_data_acquisition2,10509.0,-0.1220703125,0.0416259765625,0.838745117188,0.528991699219,6.3125,1.9375,-2.6875,-2.56,-0.77,9.51
1455208147934444904,200,0,/imu_data_acquisition2,10522.0,-0.122192382812,0.0419921875,0.838500976562,0.529296875,6.875,2.375,-3.0,-2.71,-1.03,9.48
1455208147943928956,201,0,/imu_data_acquisition2,10532.0,-0.122253417969,0.0423583984375,0.838256835938,0.529663085938,7.5625,2.6875,-3.4375,-2.29,-1.03,9.48
1455208147950721025,202,0,/imu_data_acquisition2,10539.0,-0.122314453125,0.042724609375,0.838012695312,0.530029296875,7.875,3.125,-3.625,-2.46,-1.0,9.62
1455208147961008071,203,0,/imu_data_acquisition2,10549.0,-0.122436523438,0.0430908203125,0.837768554688,0.530334472656,7.5,3.25,-3.4375,-2.62,-1.06,9.65
1455208147972285985,204,0,/imu_data_acquisition2,10561.0,-0.12255859375,0.0435180664062,0.837524414062,0.530639648438,7.1875,3.9375,-2.9375,-2.51,-0.92,9.54
1455208147982922077,205,0,/imu_data_acquisition2,10571.0,-0.122863769531,0.0439453125,0.837341308594,0.530883789062,6.6875,4.75,-2.4375,-2.66,-1.04,9.62
1455208147993252038,206,0,/imu_data_acquisition2,10581.0,-0.123107910156,0.04443359375,0.837097167969,0.531127929688,6.9375,5.3125,-2.5,-2.6,-0.93,9.55
1455208148002202987,207,0,/imu_data_acquisition2,10590.0,-0.123291015625,0.045166015625,0.836853027344,0.531433105469,7.625,6.5,-2.9375,-2.51,-0.59,9.72
1455208148010627031,208,0,/imu_data_acquisition2,10599.0,-0.12353515625,0.0460815429688,0.836608886719,0.53173828125,8.25,8.5625,-3.5,-2.57,-0.47,9.69
1455208148020699977,209,0,/imu_data_acquisition2,10609.0,-0.123962402344,0.0467529296875,0.83642578125,0.531860351562,4.4375,8.5,-1.5625,-3.01,-1.91,8.42
1455208148034616947,210,0,/imu_data_acquisition2,10623.0,-0.124572753906,0.0478515625,0.836120605469,0.532104492188,6.8125,13.25,-3.3125,-2.38,-1.47,10.39
1455208148043481111,211,0,/imu_data_acquisition2,10632.0,-0.125427246094,0.0488891601562,0.835815429688,0.5322265625,5.5625,15.1875,-2.0,-2.38,-1.47,10.39
1455208148051412105,212,0,/imu_data_acquisition2,10640.0,-0.126098632812,0.0498046875,0.835632324219,0.5322265625,4.75,12.75,-0.5625,-3.27,-1.91,10.84
1455208148063036918,213,0,/imu_data_acquisition2,10650.0,-0.126647949219,0.05078125,0.835571289062,0.532165527344,6.1875,11.1875,1.4375,-2.64,-1.67,9.75
1455208148071253061,214,0,/imu_data_acquisition2,10659.0,-0.127380371094,0.0519409179688,0.835510253906,0.531982421875,6.75,15.0,2.6875,-2.11,-1.49,9.2
1455208148086637973,215,0,/imu_data_acquisition2,10672.0,-0.12841796875,0.0530395507812,0.835510253906,0.531616210938,3.4375,17.8125,4.5,-1.77,-1.0,8.85
1455208148094690084,216,0,/imu_data_acquisition2,10683.0,-0.130004882812,0.0543212890625,0.83544921875,0.531188964844,1.875,23.875,4.5,-1.82,-0.96,8.94
1455208148100862979,217,0,/imu_data_acquisition2,10689.0,-0.132019042969,0.0557250976562,0.835388183594,0.530639648438,0.75,29.125,5.875,-2.3,-1.28,9.94
1455208148110738992,218,0,/imu_data_acquisition2,10699.0,-0.134216308594,0.0573120117188,0.835388183594,0.529968261719,0.6875,32.1875,8.0625,-1.93,-0.98,9.96
1455208148122299909,219,0,/imu_data_acquisition2,10710.0,-0.136779785156,0.0592651367188,0.835388183594,0.529052734375,1.875,38.375,10.3125,-1.5,-0.24,9.74
1455208148134695053,220,0,/imu_data_acquisition2,10723.0,-0.140075683594,0.0615844726562,0.83544921875,0.527770996094,-0.5625,47.75,14.5,-1.94,-1.6,9.36
1455208148141755104,221,0,/imu_data_acquisition2,10730.0,-0.144348144531,0.0645141601562,0.835388183594,0.526428222656,0.25,61.625,14.8125,-1.67,-0.25,9.81
1455208148151812076,222,0,/imu_data_acquisition2,10740.0,-0.149719238281,0.0671997070312,0.835571289062,0.524353027344,-10.3125,70.6875,21.9375,-1.29,0.42,9.97
1455208148161009073,223,0,/imu_data_acquisition2,10749.0,-0.156372070312,0.0695190429688,0.836059570312,0.521301269531,-24.125,82.0,31.6875,-1.43,-0.08,9.55
1455208148170799016,224,0,/imu_data_acquisition2,10759.0,-0.164428710938,0.0718994140625,0.83642578125,0.517883300781,-32.4375,96.5625,34.0,-2.74,0.01,10.08
1455208148185182094,225,0,/imu_data_acquisition2,10773.0,-0.173400878906,0.07421875,0.836608886719,0.514221191406,-39.8125,105.875,34.1875,-2.48,0.21,9.79
1455208148192996978,226,0,/imu_data_acquisition2,10781.0,-0.183776855469,0.0758666992188,0.836608886719,0.510437011719,-54.0625,116.0,31.9375,-2.57,0.83,9.91
1455208148200788021,227,0,/imu_data_acquisition2,10789.0,-0.1953125,0.0765991210938,0.836364746094,0.506469726562,-71.25,122.75,29.25,-3.03,1.44,9.51
1455208148211922883,228,0,/imu_data_acquisition2,10800.0,-0.207946777344,0.0762939453125,0.835754394531,0.502502441406,-87.0625,128.125,23.25,-3.23,-0.07,10.95
1455208148220794916,229,0,/imu_data_acquisition2,10809.0,-0.22119140625,0.0750122070312,0.834655761719,0.498718261719,-99.875,130.0,15.5625,-3.24,-1.01,-0.01
1455208148232739925,230,0,/imu_data_acquisition2,10821.0,-0.235046386719,0.073974609375,0.833190917969,0.495056152344,-100.5,137.125,12.4375,-3.72,-2.04,10.41
1455208148246992111,231,0,/imu_data_acquisition2,10832.0,-0.25,0.0736694335938,0.831237792969,0.491027832031,-99.9375,154.9375,14.25,-3.68,-2.45,9.7
1455208148253835916,232,0,/imu_data_acquisition2,10841.0,-0.266174316406,0.0743408203125,0.828979492188,0.486267089844,-99.8125,174.125,21.625,-3.82,-2.25,10.95
1455208148262670040,233,0,/imu_data_acquisition2,10850.0,-0.283386230469,0.075927734375,0.826416015625,0.480529785156,-99.375,191.125,31.6875,-3.38,-2.7,11.07
1455208148275566101,234,0,/imu_data_acquisition2,10860.0,-0.301635742188,0.0785522460938,0.823608398438,0.473876953125,-98.0,208.9375,41.25,-4.78,-3.12,11.38
1455208148287127971,235,0,/imu_data_acquisition2,10874.0,-0.32080078125,0.082275390625,0.820373535156,0.466186523438,-95.875,226.6875,52.5,-5.22,-2.97,11.06
1455208148300750970,236,0,/imu_data_acquisition2,10884.0,-0.340759277344,0.0872192382812,0.816650390625,0.45751953125,-91.125,243.1875,62.75,-6.65,-2.03,12.41
1455208148304775953,237,0,/imu_data_acquisition2,10891.0,-0.361389160156,0.0918579101562,0.812927246094,0.447265625,-104.4375,250.625,76.25,-7.84,-2.12,12.44
1455208148318121910,238,0,/imu_data_acquisition2,10902.0,-0.38330078125,0.09521484375,0.809265136719,0.434875488281,-132.5625,258.0,90.5,-8.06,-3.54,13.43
1455208148323230028,239,0,/imu_data_acquisition2,10911.0,-0.40478515625,0.09716796875,0.805847167969,0.421081542969,-150.8125,246.6875,99.5,-1.96,-0.01,-0.01
1455208148337527036,240,0,/imu_data_acquisition2,10923.0,-0.425537109375,0.0971069335938,0.802917480469,0.405944824219,-173.0625,229.0,105.4375,-5.37,-3.72,12.35
1455208148345732927,241,0,/imu_data_acquisition2,10933.0,-0.445007324219,0.0940551757812,0.800720214844,0.389831542969,-201.4375,200.375,104.5625,1.81,-17.81,14.85
1455208148351777076,242,0,/imu_data_acquisition2,10940.0,-0.460266113281,0.091064453125,0.798522949219,0.377136230469,-163.1875,156.5,78.125,-10.08,-27.82,25.6
1455208148363187074,243,0,/imu_data_acquisition2,10949.0,-0.468322753906,0.089599609375,0.794738769531,0.375610351562,-54.0,92.1875,-19.4375,-1.05,-16.37,26.55
1455208148371875047,244,0,/imu_data_acquisition2,10960.0,-0.470642089844,0.0845947265625,0.791748046875,0.380126953125,-29.125,11.3125,-0.0625,7.81,-0.71,-0.01
1455208148381000995,245,0,/imu_data_acquisition2,10969.0,-0.472229003906,0.0776977539062,0.78857421875,0.386169433594,-34.75,-4.875,-110.75,7.37,-3.03,8.6
1455208148392458915,246,0,/imu_data_acquisition2,10980.0,-0.473754882812,0.0697631835938,0.785400390625,0.392150878906,-44.875,-9.6875,-116.25,5.25,-4.14,11.73
1455208148401740074,247,0,/imu_data_acquisition2,10990.0,-0.473327636719,0.06103515625,0.782958984375,0.398986816406,-6.75,-0.0625,-0.0625,5.69,-3.19,10.73
1455208148410959959,248,0,/imu_data_acquisition2,10999.0,-0.470275878906,0.0524291992188,0.78125,0.407104492188,-18.8125,-65.6875,-129.4375,6.39,-0.67,8.71
1455208148421627998,249,0,/imu_data_acquisition2,11009.0,-0.465576171875,0.0440673828125,0.780151367188,0.41552734375,-7.125,-82.1875,-126.8125,5.64,0.4,8.3
1455208148436055898,250,0,/imu_data_acquisition2,11024.0,-0.4599609375,0.0358276367188,0.779663085938,0.42333984375,-4.6875,-94.1875,-117.3125,2.38,-2.52,9.69
1455208148441520929,251,0,/imu_data_acquisition2,11030.0,-0.452880859375,0.0279541015625,0.779968261719,0.431091308594,4.4375,-110.0,-109.9375,1.02,-3.74,10.04
1455208148452161073,252,0,/imu_data_acquisition2,11040.0,-0.443664550781,0.0208129882812,0.780822753906,0.439453125,25.8125,-128.5625,-107.9375,-0.12,-3.31,9.71
1455208148461777925,253,0,/imu_data_acquisition2,11050.0,-0.432434082031,0.0145874023438,0.782165527344,0.448364257812,47.125,-145.1875,-105.4375,-1.07,-2.64,7.9
1455208148470896959,254,0,/imu_data_acquisition2,11059.0,-0.419982910156,0.00909423828125,0.783935546875,0.457092285156,59.25,-155.375,-97.125,-1.84,-3.35,8.02
1455208148484708070,255,0,/imu_data_acquisition2,11071.0,-0.406860351562,0.0042724609375,0.786071777344,0.46533203125,67.0625,-159.25,-87.6875,-3.04,-4.6,8.93
1455208148495234012,256,0,/imu_data_acquisition2,11083.0,-0.39306640625,-0.0001220703125,0.788391113281,0.473205566406,73.25,-163.875,-81.125,-4.27,-5.74,10.04
1455208148501060009,257,0,/imu_data_acquisition2,11089.0,-0.378356933594,-0.00433349609375,0.790893554688,0.48095703125,78.9375,-172.625,-77.9375,-5.53,-5.72,10.13
1455208148511313915,258,0,/imu_data_acquisition2,11099.0,-0.362976074219,-0.0087890625,0.793518066406,0.48828125,79.375,-180.6875,-74.125,-5.85,-5.5,9.6
1455208148522501945,259,0,/imu_data_acquisition2,11110.0,-0.347534179688,-0.0134887695312,0.796325683594,0.494873046875,73.6875,-183.5625,-67.75,-6.23,-5.9,9.43
1455208148531183004,260,0,/imu_data_acquisition2,11120.0,-0.332275390625,-0.0184326171875,0.799133300781,0.500671386719,66.8125,-0.0625,-0.0625,-7.04,-7.65,9.21
1455208148540733098,261,0,/imu_data_acquisition2,11129.0,-0.004638671875,-6.103515625e-05,-6.103515625e-05,0.505798339844,63.25,-182.5625,-54.75,-7.12,-7.86,8.97
1455208148553405046,262,0,/imu_data_acquisition2,11140.0,-0.30224609375,-0.0283813476562,0.804504394531,0.510498046875,60.375,-180.125,-51.8125,-7.05,-7.97,8.56
1455208148560900926,263,0,/imu_data_acquisition2,11149.0,-0.287841796875,-0.0335083007812,0.806823730469,0.514831542969,54.8125,-175.0,-50.4375,-6.36,-8.22,6.98
1455208148570806026,264,0,/imu_data_acquisition2,11159.0,-0.274047851562,-0.0385131835938,0.808776855469,0.518920898438,50.8125,-0.0625,-0.0625,-5.82,-8.11,6.11
1455208148583470106,265,0,/imu_data_acquisition2,11172.0,-0.261108398438,-0.0429077148438,0.810302734375,0.522888183594,50.875,-154.0625,-49.0625,-5.66,-7.84,6.22
1455208148590706110,266,0,/imu_data_acquisition2,11179.0,-0.249145507812,-0.046630859375,0.811401367188,0.526672363281,50.4375,-139.6875,-46.4375,-5.62,-7.88,6.64
1455208148600805044,267,0,/imu_data_acquisition2,11189.0,-0.237976074219,-0.0499267578125,0.812316894531,0.530151367188,48.75,-128.3125,-44.0625,-5.51,-7.93,7.44
1455208148612663030,268,0,/imu_data_acquisition2,11200.0,-0.227478027344,-0.0529174804688,0.812927246094,0.533508300781,46.8125,-119.4375,-42.9375,-5.63,-7.47,8.15
1455208148620780944,269,0,/imu_data_acquisition2,11209.0,-0.217712402344,-0.055908203125,0.813293457031,0.536743164062,41.875,-112.1875,-42.9375,-5.63,-7.12,8.86
1455208148630835056,270,0,/imu_data_acquisition2,11219.0,-0.208618164062,-0.059326171875,0.813415527344,0.539672851562,32.8125,-107.375,-42.375,-6.1,-6.09,10.19
1455208148642204999,271,0,/imu_data_acquisition2,11230.0,-0.2001953125,-0.0635375976562,0.8134765625,0.542358398438,19.625,-105.9375,-41.875,-6.23,-5.55,10.41
1455208148650765895,272,0,/imu_data_acquisition2,11239.0,-0.1923828125,-0.0687255859375,0.813354492188,0.544677734375,6.0,-107.0,-41.0625,-6.27,-4.8,10.04
1455208148660810947,273,0,/imu_data_acquisition2,11249.0,-0.18505859375,-0.0745849609375,0.813293457031,0.546569824219,-5.125,-106.3125,-38.125,-7.11,-2.89,9.89
1455208148672863960,274,0,/imu_data_acquisition2,11260.0,-0.178405761719,-0.0808715820312,0.813293457031,0.5478515625,-14.875,-103.625,-31.8125,-7.62,-2.22,9.55
1455208148681050062,275,0,/imu_data_acquisition2,11269.0,-0.172424316406,-0.0875244140625,0.813598632812,0.548278808594,-23.8125,-101.375,-21.8125,-8.25,-1.49,9.3
1455208148690771102,276,0,/imu_data_acquisition2,11279.0,-0.166931152344,-0.0941772460938,0.814392089844,0.547790527344,-29.3125,-97.6875,-9.375,-9.47,-0.23,8.84
1455208148703407049,277,0,/imu_data_acquisition2,11290.0,-0.162109375,-0.100830078125,0.815673828125,0.546081542969,-34.1875,-94.25,6.375,-9.97,0.01,8.47
1455208148710984945,278,0,/imu_data_acquisition2,11299.0,-0.157836914062,-0.107055664062,0.817626953125,0.543212890625,-35.3125,-88.5,23.0,-10.85,0.04,8.51
1455208148720837116,279,0,/imu_data_acquisition2,11309.0,-0.153930664062,-0.11279296875,0.8203125,0.539184570312,-34.75,-84.875,40.4375,-11.5,-0.14,8.21
1455208148732852935,280,0,/imu_data_acquisition2,11320.0,-0.150207519531,-0.117797851562,0.823547363281,0.5341796875,-29.9375,-80.625,54.9375,-12.66,-0.73,7.32
1455208148741071939,281,0,/imu_data_acquisition2,11329.0,-0.146484375,-0.121948242188,0.827270507812,0.528503417969,-21.9375,-76.875,66.5625,-13.26,-0.94,7.15
1455208148750848054,282,0,/imu_data_acquisition2,11339.0,-0.142700195312,-0.125122070312,0.831298828125,0.522399902344,-11.875,-73.125,74.375,-13.48,-1.5,6.37
1455208148762480974,283,0,/imu_data_acquisition2,11349.0,-0.138793945312,-0.127258300781,0.835571289062,0.516052246094,-1.3125,-68.25,79.25,-14.01,-2.43,5.14
1455208148770988941,284,0,/imu_data_acquisition2,11359.0,-0.134887695312,-0.128356933594,0.83984375,0.509887695312,9.375,-61.875,79.6875,-13.98,-2.82,4.28
1455208148780908107,285,0,/imu_data_acquisition2,11369.0,-0.131042480469,-0.128479003906,0.843933105469,0.504089355469,19.375,-53.875,75.6875,-13.78,-3.09,3.27
1455208148791762113,286,0,/imu_data_acquisition2,11380.0,-0.127685546875,-0.127563476562,0.847534179688,0.499145507812,26.5,-41.1875,67.3125,-13.15,-2.93,1.8
1455208148800901889,287,0,/imu_data_acquisition2,11389.0,-0.125366210938,-0.1259765625,0.850402832031,0.495239257812,28.4375,-24.0,55.125,-12.97,-3.11,0.95
1455208148810853958,288,0,/imu_data_acquisition2,11399.0,-0.124633789062,-0.123962402344,0.852355957031,0.492492675781,23.0,-2.4375,40.875,-12.43,-3.7,-1.4
1455208148822105884,289,0,/imu_data_acquisition2,11410.0,-0.125671386719,-0.120300292969,0.853393554688,0.491333007812,30.875,28.6875,24.5625,-12.4,-3.46,-2.11
1455208148831108093,290,0,/imu_data_acquisition2,11419.0,-0.12841796875,-0.113830566406,0.853332519531,0.492248535156,50.3125,66.5,3.875,-12.44,-0.77,-2.28
1455208148840802907,291,0,/imu_data_acquisition2,11429.0,-0.133239746094,-0.105163574219,0.852172851562,0.494934082031,62.0625,104.375,-13.75,-4.86,-2.88,0.93
1455208148852364063,292,0,/imu_data_acquisition2,11440.0,-0.139404296875,-0.0944213867188,0.85009765625,0.498962402344,76.0625,134.0,-27.875,0.64,-9.61,7.47
1455208148860872983,293,0,/imu_data_acquisition2,11449.0,-0.146057128906,-0.0808715820312,0.847229003906,0.504333496094,102.5625,157.5625,-42.0,0.54,-3.7,11.04
1455208148870862960,294,0,/imu_data_acquisition2,11459.0,-0.152465820312,-0.00592041015625,-6.103515625e-05,0.509887695312,93.1875,149.875,-48.125,1.03,-0.52,3.75
1455208148882426023,295,0,/imu_data_acquisition2,11470.0,-0.157897949219,-0.0535278320312,0.841613769531,0.513732910156,121.1875,151.0,-0.0625,-0.5,-1.2,6.25
1455208148890975952,296,0,/imu_data_acquisition2,11479.0,-0.157287597656,-0.0257568359375,0.841064453125,0.516906738281,286.1875,166.125,16.9375,-25.83,4.76,39.68
1455208148900880098,297,0,/imu_data_acquisition2,11489.0,-0.148803710938,0.00970458984375,0.840026855469,0.521667480469,413.625,136.125,9.1875,-14.18,21.93,30.25
1455208148912523984,298,0,/imu_data_acquisition2,11500.0,-0.142272949219,0.0155639648438,0.842651367188,0.519104003906,93.8125,-32.875,52.8125,4.05,-0.67,-2.49
1455208148921070098,299,0,/imu_data_acquisition2,11509.0,-0.137634277344,0.0166625976562,0.844909667969,0.5166015625,35.0,-43.125,41.75,-0.98,-0.01,-0.01
1455208148930885076,300,0,/imu_data_acquisition2,11519.0,-0.134094238281,0.0234985351562,0.845764160156,0.515930175781,88.4375,4.625,23.4375,-2.63,-1.97,8.88
1455208148943298101,301,0,/imu_data_acquisition2,11530.0,-0.131713867188,0.0275268554688,0.846740722656,0.514770507812,52.6875,-0.375,25.0625,-5.05,9.41,17.19
1455208148951621055,302,0,/imu_data_acquisition2,11540.0,-0.130798339844,0.0296020507812,0.847290039062,0.513916015625,25.0625,2.5,15.1875,-3.87,5.07,13.26
1455208148960810899,303,0,/imu_data_acquisition2,11549.0,-0.129699707031,0.0281982421875,0.848083496094,0.513000488281,-9.0625,-19.9375,12.1875,-3.14,2.64,12.85
1455208148971210002,304,0,/imu_data_acquisition2,11559.0,-0.129760742188,0.0289916992188,0.847717285156,0.513549804688,8.75,5.375,-6.625,-1.52,-1.01,9.21
1455208148982306003,305,0,/imu_data_acquisition2,11570.0,-6.103515625e-05,-6.103515625e-05,-6.103515625e-05,0.514221191406,2.0625,5.0,-9.4375,-3.03,0.11,10.92
1455208148990844011,306,0,/imu_data_acquisition2,11579.0,-0.130432128906,0.029541015625,0.846618652344,0.51513671875,2.0,6.5625,-12.6875,-2.68,-1.71,9.63
1455208149001116037,307,0,/imu_data_acquisition2,11589.0,-0.130798339844,0.0299072265625,0.845886230469,0.516235351562,3.3125,6.5625,-14.5,-2.39,-1.76,9.11
1455208149012145042,308,0,/imu_data_acquisition2,11600.0,-0.131103515625,0.0303344726562,0.84521484375,0.517150878906,4.0625,6.125,-12.625,-2.6,-2.01,8.69
1455208149021997928,309,0,/imu_data_acquisition2,11610.0,-0.131286621094,0.0306396484375,0.844787597656,0.517883300781,3.25,4.25,-9.6875,-2.46,-2.85,8.81
1455208149035898923,310,0,/imu_data_acquisition2,11621.0,-0.131286621094,0.031005859375,0.844360351562,0.5185546875,4.6875,2.1875,-8.5625,-2.83,-2.09,9.12
1455208149045854091,311,0,/imu_data_acquisition2,11632.0,-0.130920410156,0.0313720703125,0.844177246094,0.518859863281,6.3125,-0.875,-3.75,-2.83,-1.92,9.17
1455208149054984092,312,0,/imu_data_acquisition2,11642.0,-0.130249023438,0.0316162109375,0.84423828125,0.518920898438,6.5625,-5.625,0.75,-2.66,-1.59,9.09
1455208149062530994,313,0,/imu_data_acquisition2,11650.0,-0.129272460938,0.03173828125,0.844482421875,0.518798828125,6.9375,-9.5,2.9375,-2.35,-1.58,9.24
1455208149074213981,314,0,/imu_data_acquisition2,11661.0,-0.128051757812,0.0317993164062,0.844787597656,0.518615722656,7.25,-11.875,4.3125,-2.24,-1.15,9.37
1455208149084110021,315,0,/imu_data_acquisition2,11672.0,-0.126892089844,0.0318603515625,0.845092773438,0.518371582031,7.625,-11.875,4.5625,-2.27,-1.21,9.63
1455208149092725992,316,0,/imu_data_acquisition2,11681.0,-0.125732421875,0.0319213867188,0.845397949219,0.518188476562,7.25,-10.875,4.5,-1.94,-1.16,9.87
1455208149105727910,317,0,/imu_data_acquisition2,11693.0,-0.124755859375,0.031982421875,0.845642089844,0.518005371094,6.0625,-9.875,3.6875,-2.45,-0.51,10.14
1455208149115392923,318,0,/imu_data_acquisition2,11703.0,-0.124084472656,0.0320434570312,0.845764160156,0.517883300781,5.0625,-6.75,2.25,-2.65,-0.43,10.27
1455208149123073101,319,0,/imu_data_acquisition2,11711.0,-0.123474121094,0.0321044921875,0.845825195312,0.517944335938,4.0625,-5.1875,0.125,-2.21,-1.08,9.44
1455208149133900880,320,0,/imu_data_acquisition2,11721.0,-0.123229980469,0.0321044921875,0.845764160156,0.518127441406,1.8125,-3.0625,-1.6875,-2.5,-0.53,10.36
1455208149141443014,321,0,/imu_data_acquisition2,11730.0,-0.123107910156,0.0322875976562,0.845642089844,0.518371582031,2.75,-0.5625,-3.5625,-1.97,-1.89,9.23
1455208149151139020,322,0,/imu_data_acquisition2,11739.0,-0.123046875,0.0324096679688,0.845458984375,0.518676757812,2.375,0.875,-3.8125,-2.88,-0.75,10.57
1455208149161892890,323,0,/imu_data_acquisition2,11750.0,-0.123046875,0.0324096679688,0.845458984375,0.518676757812,0.9375,0.1875,-1.9375,-2.69,-0.8,10.58
1455208149170994043,324,0,/imu_data_acquisition2,11759.0,-0.123046875,0.032470703125,0.845336914062,0.518859863281,2.375,1.5,-1.75,-2.49,-2.06,9.27
1455208149180983066,325,0,/imu_data_acquisition2,11769.0,-0.123046875,0.0328979492188,0.84521484375,0.51904296875,1.75,1.5625,-0.625,-2.48,-0.67,9.75
1455208149192450046,326,0,/imu_data_acquisition2,11780.0,-0.123107910156,0.0330810546875,0.845153808594,0.519104003906,1.4375,1.75,-0.6875,-3.01,-0.67,9.41
1455208149201399087,327,0,/imu_data_acquisition2,11789.0,-0.123168945312,0.033447265625,0.845031738281,0.519287109375,3.9375,2.75,-1.875,-2.42,-1.18,9.23
1455208149211071014,328,0,/imu_data_acquisition2,11799.0,-0.123168945312,0.033447265625,0.845031738281,0.519287109375,5.3125,2.3125,-3.125,-2.46,-0.99,9.35
1455208149222489118,329,0,/imu_data_acquisition2,11810.0,-0.123107910156,0.0338745117188,0.844848632812,0.51953125,5.4375,1.9375,-3.1875,-1.83,-1.12,9.4
1455208149231309890,330,0,/imu_data_acquisition2,11819.0,-0.122924804688,0.0347290039062,0.844543457031,0.52001953125,4.6875,1.625,-2.3125,-2.29,-1.06,9.65
1455208149241166114,331,0,/imu_data_acquisition2,11829.0,-0.122985839844,0.0350341796875,0.844421386719,0.520141601562,2.9375,2.625,-1.0625,-2.72,-1.41,9.38
1455208149253168106,332,0,/imu_data_acquisition2,11841.0,-0.123107910156,0.0352172851562,0.844421386719,0.520141601562,1.0625,2.375,0.25,-2.46,-1.18,9.56
1455208149261288881,333,0,/imu_data_acquisition2,11849.0,-0.123229980469,0.035400390625,0.844421386719,0.520080566406,1.1875,2.0625,0.8125,-2.56,-1.11,9.63
1455208149271104097,334,0,/imu_data_acquisition2,11859.0,-0.123229980469,0.035400390625,0.844421386719,0.520080566406,1.5,1.3125,1.0,-2.57,-1.2,9.35
1455208149283111095,335,0,/imu_data_acquisition2,11870.0,-0.123229980469,0.0355834960938,0.844482421875,0.52001953125,1.8125,1.1875,0.75,-2.62,-1.0,9.5
1455208149291590929,336,0,/imu_data_acquisition2,11880.0,-0.123229980469,0.0360107421875,0.844482421875,0.52001953125,2.625,1.125,0.375,-2.52,-0.89,9.57
1455208149301795005,337,0,/imu_data_acquisition2,11890.0,-0.123229980469,0.0360107421875,0.844482421875,0.52001953125,3.75,1.5625,-0.375,-2.67,-1.05,9.44
1455208149313291072,338,0,/imu_data_acquisition2,11899.0,-0.123352050781,0.0362548828125,0.844421386719,0.520080566406,3.75,1.125,-0.8125,-2.33,-1.18,9.51
1455208149321764945,339,0,/imu_data_acquisition2,11910.0,-0.123474121094,0.0363159179688,0.844299316406,0.520202636719,5.8125,2.5,-2.375,-2.63,-1.24,9.47
1455208149331043004,340,0,/imu_data_acquisition2,11919.0,-0.123718261719,0.0364990234375,0.844116210938,0.520446777344,3.875,1.75,-1.375,-2.68,-0.98,9.47
1455208149341869115,341,0,/imu_data_acquisition2,11930.0,-0.123901367188,0.0366821289062,0.843994140625,0.520568847656,4.125,1.75,-1.25,-2.82,-1.05,9.56
1455208149352696895,342,0,/imu_data_acquisition2,11941.0,-0.124145507812,0.0369262695312,0.843872070312,0.520690917969,4.8125,1.6875,-1.5625,-2.45,-0.98,9.61
1455208149361128091,343,0,/imu_data_acquisition2,11949.0,-0.124206542969,0.0371704101562,0.84375,0.520874023438,5.4375,1.625,-2.125,-2.5,-0.91,-0.01
1455208149371397972,344,0,/imu_data_acquisition2,11959.0,-0.124206542969,0.0374755859375,0.843566894531,0.521118164062,6.5,1.5625,-2.875,-2.68,-1.0,9.56
1455208149383569955,345,0,/imu_data_acquisition2,11972.0,-0.124145507812,0.038330078125,0.843200683594,0.521667480469,6.5625,1.75,-3.125,-2.56,-0.95,9.5
1455208149391612052,346,0,/imu_data_acquisition2,11980.0,-0.124145507812,0.038330078125,0.843200683594,0.521667480469,6.75,1.625,-3.625,-2.64,-1.06,9.66
1455208149405862092,347,0,/imu_data_acquisition2,11992.0,-0.124145507812,0.0386962890625,0.842956542969,0.522033691406,6.4375,1.625,-3.4375,-2.49,-0.89,9.45
1455208149412692070,348,0,/imu_data_acquisition2,12001.0,-0.124145507812,0.0390625,0.8427734375,0.522338867188,7.4375,3.3125,-4.4375,-2.53,-1.02,9.56
1455208149420881032,349,0,/imu_data_acquisition2,12009.0,-0.124206542969,0.03955078125,0.842468261719,0.522766113281,7.4375,3.3125,-4.4375,-2.6,-1.16,9.46
1455208149431142091,350,0,/imu_data_acquisition2,12019.0,-0.124328613281,0.0399169921875,-6.103515625e-05,0.523132324219,7.4375,3.3125,-4.4375,-2.76,-0.71,9.61
1455208149442568063,351,0,/imu_data_acquisition2,12031.0,-0.124450683594,0.0403442382812,0.841918945312,0.5234375,6.4375,4.4375,-4.25,-2.26,-1.12,9.5
1455208149452044963,352,0,/imu_data_acquisition2,12040.0,-0.124633789062,0.0407104492188,0.841674804688,0.523864746094,7.4375,6.25,-4.6875,-2.67,-0.89,9.75
1455208149460844039,353,0,/imu_data_acquisition2,12049.0,-0.124877929688,0.0413208007812,0.84130859375,0.524230957031,7.4375,6.25,-4.6875,-2.39,-0.85,9.55
1455208149472757101,354,0,/imu_data_acquisition2,12060.0,-0.125183105469,0.0419311523438,0.841064453125,0.524597167969,7.125,6.8125,-3.6875,-3.22,-0.65,9.54
1455208149482098102,355,0,/imu_data_acquisition2,12070.0,-0.125915527344,0.0438232421875,0.840454101562,0.525207519531,9.125,11.0625,-3.5625,-2.01,0.07,9.2
1455208149491729021,356,0,/imu_data_acquisition2,12080.0,-0.125915527344,0.0438232421875,0.840454101562,0.525207519531,8.4375,13.75,-2.9375,-2.89,-1.62,10.76
1455208149503583908,357,0,/imu_data_acquisition2,12092.0,-0.126525878906,0.0449829101562,0.840148925781,0.525451660156,5.9375,10.0625,-1.5,-2.11,-1.68,10.05
1455208149510921955,358,0,/imu_data_acquisition2,12099.0,-0.127014160156,0.0458374023438,0.839965820312,0.525573730469,5.9375,10.0625,-1.5,-2.11,-1.68,10.05
1455208149520934104,359,0,/imu_data_acquisition2,12109.0,-0.12744140625,0.0466918945312,0.83984375,0.525573730469,5.8125,10.375,0.9375,-3.35,-1.57,10.92
1455208149533462047,360,0,/imu_data_acquisition2,12121.0,-0.127990722656,0.0477294921875,0.83984375,0.525390625,5.5625,14.375,2.625,-1.76,-0.54,8.95
1455208149541814088,361,0,/imu_data_acquisition2,12130.0,-0.128723144531,0.048828125,0.839782714844,0.525207519531,3.25,20.0625,2.75,-1.65,-1.21,8.5
1455208149551964998,362,0,/imu_data_acquisition2,12140.0,-0.130004882812,0.0499267578125,0.839660644531,0.524963378906,2.0625,26.0,3.0625,-2.72,-1.36,9.89
1455208149561867952,363,0,/imu_data_acquisition2,12150.0,-0.131774902344,0.05126953125,0.839477539062,0.524658203125,2.0625,26.0,3.0625,-2.62,-1.06,10.13
1455208149571055889,364,0,/imu_data_acquisition2,12159.0,-0.133666992188,0.0527954101562,-6.103515625e-05,0.524291992188,2.5,28.9375,3.4375,-2.2,-1.3,10.08
1455208149582055091,365,0,/imu_data_acquisition2,12170.0,-0.1357421875,0.0543823242188,0.839233398438,0.523803710938,2.8125,36.625,8.375,-1.53,-0.81,9.34
1455208149593338966,366,0,/imu_data_acquisition2,12181.0,-0.13818359375,0.0563354492188,0.839111328125,0.523071289062,2.625,47.25,11.3125,-1.27,-0.96,9.24
1455208149602251052,367,0,/imu_data_acquisition2,12190.0,-0.141357421875,0.0587158203125,0.839050292969,0.522033691406,0.875,59.9375,15.25,-1.02,-0.22,9.2
1455208149611027002,368,0,/imu_data_acquisition2,12199.0,-0.1455078125,0.0616455078125,0.838989257812,0.520690917969,0.875,59.9375,15.25,-1.02,-0.22,9.2
1455208149622451066,369,0,/imu_data_acquisition2,12210.0,-0.150634765625,0.0643920898438,0.839172363281,0.518615722656,-7.6875,-0.0625,-0.0625,-1.96,-0.19,9.85
1455208149632275104,370,0,/imu_data_acquisition2,12220.0,-0.156982421875,0.0667724609375,0.839721679688,0.515563964844,-28.1875,92.9375,35.0,-2.04,-0.41,10.29
1455208149642200946,371,0,/imu_data_acquisition2,12230.0,-0.164611816406,0.0692749023438,0.840148925781,0.512145996094,-35.0,100.125,36.0625,-2.4,0.03,10.21
1455208149653065919,372,0,/imu_data_acquisition2,12241.0,-0.172973632812,0.0715942382812,0.840454101562,0.508483886719,-45.4375,112.5,35.375,-2.82,0.83,10.11
1455208149660804033,373,0,/imu_data_acquisition2,12249.0,-0.182678222656,0.07373046875,0.840576171875,0.504638671875,-45.4375,112.5,35.375,-2.82,0.83,10.11
1455208149671288013,374,0,/imu_data_acquisition2,12259.0,-0.193664550781,0.0750732421875,0.840454101562,0.500549316406,-60.625,120.6875,33.4375,-2.9,0.34,9.49
1455208149683739900,375,0,/imu_data_acquisition2,12271.0,-0.205749511719,0.0755004882812,0.839904785156,0.496520996094,-96.0,128.625,17.875,-3.46,-0.41,10.33
1455208149692569971,376,0,/imu_data_acquisition2,12281.0,-0.21875,0.0744018554688,0.838989257812,0.49267578125,-104.375,132.0,10.25,-3.56,-1.4,10.22
1455208149702732086,377,0,/imu_data_acquisition2,12291.0,-0.232360839844,0.0726318359375,0.837524414062,0.489135742188,-105.6875,146.5625,8.3125,-3.44,-1.69,10.62
1455208149712909936,378,0,/imu_data_acquisition2,12300.0,-0.247009277344,0.0714111328125,0.835571289062,0.485534667969,-105.6875,146.5625,8.3125,-3.26,-2.76,10.13
1455208149721582889,379,0,/imu_data_acquisition2,12310.0,-0.263000488281,0.0709838867188,0.833129882812,0.481323242188,-106.0625,166.0,13.25,-3.26,-2.76,10.13
1455208149732597112,380,0,/imu_data_acquisition2,12321.0,-0.280090332031,0.0718994140625,0.830383300781,0.476257324219,-98.625,205.125,32.625,-3.81,-2.99,10.27
1455208149743670940,381,0,/imu_data_acquisition2,12331.0,-0.298217773438,0.073974609375,0.827270507812,0.470336914062,-91.75,225.75,42.3125,-4.06,-3.73,10.07
1455208149752818107,382,0,/imu_data_acquisition2,12341.0,-0.317321777344,0.0775756835938,0.823669433594,0.463562011719,-85.6875,247.5625,53.3125,-5.22,-2.89,11.98
1455208149760833024,383,0,/imu_data_acquisition2,12349.0,-0.337463378906,0.0827026367188,0.819458007812,0.455810546875,-85.6875,247.5625,53.3125,-5.22,-2.89,11.98
