%time,field.header.seq,field.header.stamp,field.header.frame_id,field.time_stamp,field.quat_x,field.quat_y,field.quat_z,field.quat_w,field.gyro_x,field.gyro_y,field.gyro_z,field.accel_x,field.accel_y,field.accel_z
1541195622716552972,1,0,/imu_data_acquisition2,122253.0,0.0973510742188,-0.0960693359375,0.665222167969,0.734008789062,4.75,4.5625,0.125,2.32,0.04,-0.01
1541195622721431016,2,0,/imu_data_acquisition2,122261.0,0.0977172851562,-0.0955200195312,0.665222167969,0.734008789062,7.375,1.75,-0.9375,2.61,0.81,9.42
1541195622727180957,3,0,/imu_data_acquisition2,122271.0,0.0978393554688,-0.094970703125,0.665283203125,0.734008789062,3.9375,2.6875,-0.1875,2.69,0.37,9.83
1541195622736501932,4,0,/imu_data_acquisition2,122281.0,0.0977783203125,-0.0947875976562,0.665283203125,0.734069824219,0.625,2.5,0.375,3.14,-0.01,9.3
1541195622744798898,5,0,/imu_data_acquisition2,122290.0,0.0979614257812,-0.0942993164062,0.665405273438,0.734008789062,5.6875,2.8125,-0.5,2.1,0.61,-0.01
1541195622758304119,6,0,/imu_data_acquisition2,122300.0,0.0980224609375,-0.0938110351562,0.665466308594,0.734008789062,4.25,4.0625,-0.5625,2.42,0.39,10.41
1541195622765465021,7,0,/imu_data_acquisition2,122310.0,0.0982666015625,-0.0933227539062,0.665405273438,0.734069824219,5.5,1.9375,-1.6875,2.77,0.67,9.69
1541195622777390003,8,0,/imu_data_acquisition2,122321.0,0.0984497070312,-0.0926513671875,0.665466308594,0.734130859375,7.25,4.875,-0.75,2.56,0.75,9.98
1541195622785198926,9,0,/imu_data_acquisition2,122330.0,0.098388671875,-0.0924072265625,0.665588378906,0.734008789062,1.5,2.375,1.375,3.2,-0.17,9.19
1541195622798628091,10,0,/imu_data_acquisition2,122341.0,0.0985717773438,-0.0917358398438,0.665588378906,0.734069824219,6.75,4.4375,-1.125,2.92,-0.15,9.1
1541195622806263923,11,0,/imu_data_acquisition2,122350.0,0.098876953125,-0.0908203125,0.665649414062,0.734130859375,10.3125,5.4375,-1.4375,2.73,0.53,-0.01
1541195622817539930,12,0,/imu_data_acquisition2,122361.0,0.0992431640625,-0.0899658203125,0.665588378906,0.734252929688,9.6875,4.5,-0.0625,2.98,0.52,9.03
1541195622829417943,13,0,/imu_data_acquisition2,122374.0,0.0994873046875,-0.0890502929688,0.665649414062,0.734252929688,9.0,6.4375,-0.625,2.7,-0.09,9.27
1541195622835057973,14,0,/imu_data_acquisition2,122380.0,0.0997314453125,-0.0881958007812,0.665710449219,0.734252929688,9.3125,5.1875,-0.625,2.94,0.04,-0.01
1541195622847439050,15,0,/imu_data_acquisition2,122391.0,0.100463867188,-0.0870361328125,0.665649414062,0.734375,14.875,4.25,-0.0625,3.18,0.38,9.3
1541195622857952117,16,0,/imu_data_acquisition2,122403.0,0.101257324219,-0.0858154296875,0.66552734375,0.734436035156,16.1875,4.0625,-3.875,3.35,0.76,9.56
1541195622867274045,17,0,/imu_data_acquisition2,122410.0,0.101989746094,-0.00665283203125,-6.103515625e-05,0.734497070312,14.3125,3.4375,-2.875,3.32,0.76,9.61
1541195622876998901,18,0,/imu_data_acquisition2,122421.0,0.102722167969,-0.0838012695312,0.665344238281,0.734680175781,14.0,3.0625,-3.9375,3.44,0.62,9.56
1541195622886998891,19,0,/imu_data_acquisition2,122431.0,0.103576660156,-0.082763671875,0.6650390625,0.734985351562,15.0625,2.0,-7.6875,3.36,0.59,9.41
1541195622895903110,20,0,/imu_data_acquisition2,122441.0,0.104309082031,-0.0816650390625,0.66455078125,0.735412597656,14.0625,3.75,-9.625,4.35,0.4,8.76
1541195622907517910,21,0,/imu_data_acquisition2,122451.0,0.104614257812,-0.0801391601562,0.663940429688,0.736083984375,13.0625,10.3125,-12.3125,4.25,0.29,9.35
1541195622919775009,22,0,/imu_data_acquisition2,122462.0,0.10498046875,-0.077880859375,0.6630859375,0.736999511719,18.9375,16.9375,-18.125,3.8,0.51,9.44
1541195622927388906,23,0,/imu_data_acquisition2,122471.0,0.104858398438,-0.0751342773438,0.662170410156,0.738159179688,18.25,24.8125,-4.6875,3.63,0.15,9.43
1541195622937731027,24,0,/imu_data_acquisition2,122481.0,0.104187011719,-0.071533203125,0.661193847656,0.739501953125,19.8125,36.75,-22.8125,4.42,0.12,9.7
1541195622953548908,25,0,/imu_data_acquisition2,122491.0,0.104187011719,-0.0667724609375,0.659973144531,0.741027832031,34.5,-0.0625,-0.0625,4.08,0.57,-0.01
1541195622956100940,26,0,/imu_data_acquisition2,122501.0,0.104187011719,-0.0667724609375,0.659973144531,0.741027832031,46.1875,51.4375,-29.4375,4.64,1.4,9.25
1541195622967653036,27,0,/imu_data_acquisition2,122512.0,0.103576660156,-0.0537109375,0.658203125,0.743774414062,45.5625,68.0,-22.9375,5.17,0.94,8.93
1541195622975827932,28,0,/imu_data_acquisition2,122521.0,0.103576660156,-0.0537109375,0.658203125,0.743774414062,48.4375,85.75,-21.5,6.0,1.22,8.76
1541195622986717939,29,0,/imu_data_acquisition2,122531.0,0.0992431640625,-0.0349731445312,0.657409667969,0.746154785156,55.5,113.5,-24.1875,7.65,2.32,8.62
1541195622996305942,30,0,/imu_data_acquisition2,122540.0,0.0992431640625,-0.0349731445312,0.657409667969,0.746154785156,45.9375,176.375,-23.4375,6.78,3.1,-0.01
1541195623006587982,31,0,/imu_data_acquisition2,122551.0,0.0789184570312,-0.00262451171875,0.658325195312,0.748596191406,23.4375,269.5625,-18.1875,6.85,3.03,10.17
1541195623017663002,32,0,/imu_data_acquisition2,122561.0,0.0789184570312,-0.00262451171875,0.658325195312,0.748596191406,7.0625,359.0,-2.6875,7.76,3.91,11.56
1541195623027636051,33,0,/imu_data_acquisition2,122571.0,0.0593872070312,0.0204467773438,0.660217285156,0.748474121094,-10.375,435.0625,22.75,6.74,9.95,10.68
1541195623038836002,34,0,/imu_data_acquisition2,122581.0,0.00225830078125,0.071044921875,0.669311523438,0.739624023438,-98.5,469.5625,74.3125,4.04,7.27,9.77
1541195623047521114,35,0,/imu_data_acquisition2,122591.0,0.00225830078125,0.071044921875,0.669311523438,0.739624023438,-182.3125,500.9375,132.75,1.38,1.99,14.03
1541195623056014060,36,0,/imu_data_acquisition2,122600.0,-0.03662109375,0.0919189453125,0.678039550781,0.728332519531,-179.8125,511.5625,153.8125,28.09,3.99,31.9
1541195623068098068,37,0,/imu_data_acquisition2,122612.0,-0.07568359375,0.113403320312,0.6865234375,0.714172363281,-98.8125,465.4375,157.375,24.35,3.18,39.91
1541195623077567100,38,0,/imu_data_acquisition2,122622.0,-0.107055664062,0.136657714844,0.693420410156,0.699340820312,31.5,144.8125,115.3125,12.67,15.18,29.46
1541195623086679935,39,0,/imu_data_acquisition2,122630.0,-0.1123046875,0.148071289062,0.698425292969,0.691101074219,31.0625,-124.5625,150.625,26.93,14.23,-1.13
1541195623096961021,40,0,/imu_data_acquisition2,122641.0,-0.101257324219,0.14404296875,0.707946777344,0.683959960938,-102.75,-8.3125,232.5625,15.63,-10.25,22.9
1541195623107215881,41,0,/imu_data_acquisition2,122652.0,-0.103820800781,0.139343261719,0.722534179688,0.669128417969,1.4375,-56.4375,167.9375,14.65,-4.05,20.62
1541195623117551088,42,0,/imu_data_acquisition2,122661.0,-0.00457763671875,-6.103515625e-05,-6.103515625e-05,0.659484863281,43.625,-142.6875,126.75,9.22,-1.79,20.59
1541195623126382112,43,0,/imu_data_acquisition2,122671.0,-0.0855712890625,0.133483886719,0.740051269531,0.653564453125,-16.25,-225.5625,128.5,5.33,-2.33,-0.01
1541195623138098955,44,0,/imu_data_acquisition2,122681.0,-0.0709228515625,0.120910644531,0.748779296875,0.647827148438,-16.25,-225.5625,128.5,3.63,-5.22,7.08
1541195623145476102,45,0,/imu_data_acquisition2,122690.0,-0.0562744140625,0.108032226562,0.755493164062,0.643737792969,-1.875,-204.6875,64.4375,1.91,-3.37,11.18
1541195623156774044,46,0,/imu_data_acquisition2,122702.0,-0.042724609375,0.0971069335938,0.759887695312,0.641357421875,-21.8125,-203.0,50.4375,-2.41,-3.47,14.01
1541195623167993068,47,0,/imu_data_acquisition2,122711.0,-0.0304565429688,0.0848388671875,0.763366699219,0.639587402344,-26.6875,-219.625,33.1875,-3.95,-2.03,11.47
1541195623176582098,48,0,/imu_data_acquisition2,122721.0,-0.0045166015625,0.0573120117188,0.767272949219,0.638732910156,-30.0625,-224.125,20.125,-5.98,-1.59,10.12
1541195623189145088,49,0,/imu_data_acquisition2,122732.0,-0.0045166015625,0.0573120117188,0.767272949219,0.638732910156,-5.1875,-0.0625,-0.0625,-7.55,-2.25,9.16
1541195623198359012,50,0,/imu_data_acquisition2,122742.0,0.0180053710938,0.0308227539062,0.768005371094,0.639404296875,-33.625,-191.0,1.25,-8.03,-2.25,-0.01
1541195623206298112,51,0,/imu_data_acquisition2,122751.0,0.0180053710938,-6.103515625e-05,-6.103515625e-05,0.639404296875,-22.0625,-157.3125,-14.875,-8.65,-1.29,16.25
1541195623221281051,52,0,/imu_data_acquisition2,122763.0,0.0269775390625,0.0209350585938,0.766967773438,0.640747070312,-23.5625,-147.75,-24.0625,-9.01,-1.37,16.86
1541195623233026981,53,0,/imu_data_acquisition2,122773.0,0.0352172851562,0.011474609375,0.765319824219,0.642578125,-32.0625,-146.0625,-30.5,-9.81,-2.97,14.11
1541195623236115932,54,0,/imu_data_acquisition2,122781.0,0.0429077148438,0.0015869140625,0.76318359375,0.644775390625,-22.5625,-134.5,-46.0625,-10.21,-2.27,13.31
1541195623247845888,55,0,/imu_data_acquisition2,122792.0,0.0503540039062,-0.007080078125,0.760131835938,0.647766113281,-18.0,-119.4375,-58.5625,-10.07,-1.74,12.79
1541195623260238885,56,0,/imu_data_acquisition2,122802.0,0.0570678710938,-0.0145263671875,0.75634765625,0.651489257812,-22.5,-104.375,-66.1875,-8.97,-1.99,12.02
1541195623266454935,57,0,/imu_data_acquisition2,122811.0,0.0625610351562,-0.0213623046875,0.752136230469,0.655700683594,-16.0,-88.125,-75.625,-7.72,-0.42,11.44
1541195623277888059,58,0,/imu_data_acquisition2,122822.0,0.0673828125,-0.02685546875,0.747436523438,0.660400390625,-13.625,-76.625,-80.25,-6.84,0.18,11.78
1541195623285293102,59,0,/imu_data_acquisition2,122830.0,0.0716552734375,-6.103515625e-05,-6.103515625e-05,0.665344238281,-13.625,-76.625,-80.25,-4.92,1.11,10.41
1541195623296494960,60,0,/imu_data_acquisition2,122841.0,0.0753173828125,-0.0361328125,0.737548828125,0.670104980469,-18.5,-66.9375,-73.9375,-3.74,1.41,9.47
1541195623308644056,61,0,/imu_data_acquisition2,122853.0,0.0786743164062,-0.0405883789062,0.732849121094,0.674621582031,-15.625,-62.125,-68.6875,-2.88,1.85,9.31
1541195623324163913,62,0,/imu_data_acquisition2,122862.0,0.0850219726562,-0.0484008789062,0.724426269531,0.682373046875,-12.4375,-59.3125,-61.8125,-2.01,2.27,-0.01
1541195623328036069,63,0,/imu_data_acquisition2,122873.0,0.0850219726562,-0.0484008789062,0.724426269531,0.682373046875,-12.625,-61.125,-51.75,-0.63,2.35,8.58
1541195623337476968,64,0,/imu_data_acquisition2,122881.0,0.0882568359375,-0.0523071289062,0.720947265625,0.685363769531,-12.625,-61.125,-51.75,-0.13,2.2,8.28
1541195623347047090,65,0,/imu_data_acquisition2,122890.0,0.091552734375,-0.0565795898438,0.718017578125,0.687622070312,-13.3125,-64.5625,-40.5625,-0.13,2.2,8.28
1541195623357248067,66,0,/imu_data_acquisition2,122902.0,0.09521484375,-0.06103515625,0.715637207031,0.689208984375,-9.375,-74.25,-20.4375,0.55,1.23,7.65
1541195623368578910,67,0,/imu_data_acquisition2,122912.0,0.0993041992188,-0.0657348632812,0.713806152344,0.690124511719,-11.0625,-79.9375,-11.1875,0.39,0.88,7.97
1541195623378581047,68,0,/imu_data_acquisition2,122922.0,0.103515625,-0.0709838867188,0.71240234375,0.690490722656,-10.3125,-86.8125,-4.875,0.11,0.8,7.86
1541195623386656999,69,0,/imu_data_acquisition2,122931.0,0.108154296875,-0.0765991210938,0.711242675781,0.690307617188,-10.3125,-86.8125,-4.875,-0.36,0.11,7.52
1541195623398675918,70,0,/imu_data_acquisition2,122942.0,0.113037109375,-6.103515625e-05,-6.103515625e-05,0.689697265625,-16.3125,-100.1875,5.625,-0.69,0.57,7.89
1541195623407679080,71,0,/imu_data_acquisition2,122951.0,-6.103515625e-05,-6.103515625e-05,-6.103515625e-05,0.688781738281,-18.5625,-104.25,9.4375,-1.3,0.5,8.04
1541195623417582035,72,0,/imu_data_acquisition2,122962.0,0.123107910156,-0.0972290039062,0.708984375,0.687561035156,-27.125,-110.4375,15.75,-1.65,-0.15,7.77
1541195623430552959,73,0,/imu_data_acquisition2,122975.0,0.128051757812,-0.105407714844,0.708435058594,0.685974121094,-28.4375,-112.875,17.9375,-2.65,0.1,7.4
1541195623435981035,74,0,/imu_data_acquisition2,122981.0,0.132995605469,-0.113830566406,0.7080078125,0.684204101562,-28.4375,-112.875,17.9375,-2.65,0.1,-0.01
1541195623447056055,75,0,/imu_data_acquisition2,122991.0,0.138000488281,-0.122314453125,0.707458496094,0.682250976562,-27.8125,-114.3125,18.625,-3.04,0.57,7.29
1541195623459768056,76,0,/imu_data_acquisition2,123002.0,0.142395019531,-0.130981445312,0.707092285156,0.680114746094,-38.0625,-103.625,26.0,-3.33,1.47,8.86
1541195623467633008,77,0,/imu_data_acquisition2,123011.0,0.146118164062,-0.0145263671875,-6.103515625e-05,0.677856445312,-39.875,-98.75,29.5,-3.46,2.1,-0.01
1541195623477926969,78,0,/imu_data_acquisition2,123023.0,0.149353027344,-0.147888183594,0.706909179688,0.675354003906,-44.25,-96.25,35.4375,-3.39,2.64,10.01
1541195623488291025,79,0,/imu_data_acquisition2,123032.0,0.152160644531,-0.156494140625,0.707092285156,0.672607421875,-44.25,-96.25,35.4375,-3.88,4.47,10.88
1541195623495573997,80,0,/imu_data_acquisition2,123040.0,0.154235839844,-0.164916992188,0.707702636719,0.669494628906,-47.3125,-88.9375,42.0625,-3.88,4.47,10.88
1541195623507932901,81,0,/imu_data_acquisition2,123052.0,0.155395507812,-0.173278808594,0.708740234375,0.665954589844,-60.0625,-72.8125,61.6875,-4.89,5.87,10.99
1541195623518991947,82,0,/imu_data_acquisition2,123062.0,0.155456542969,-0.181762695312,0.710327148438,0.661987304688,-64.75,-64.9375,72.1875,-5.81,6.16,12.18
1541195623528409004,83,0,/imu_data_acquisition2,123072.0,0.154602050781,-0.190246582031,0.712524414062,0.657470703125,-56.9375,-57.875,76.6875,-6.15,7.39,11.6
1541195623538223981,84,0,/imu_data_acquisition2,123081.0,0.153686523438,-0.197875976562,0.715087890625,0.652648925781,-56.9375,-57.875,76.6875,-6.15,7.39,11.6
1541195623545277118,85,0,/imu_data_acquisition2,123090.0,0.153076171875,-0.204406738281,0.718139648438,0.647338867188,-43.25,-52.1875,81.5625,-6.63,7.31,10.59
1541195623558346033,86,0,/imu_data_acquisition2,123102.0,0.151977539062,-0.209594726562,0.721984863281,0.641662597656,-32.5625,-36.875,89.6875,-8.66,5.27,9.09
1541195623568463087,87,0,/imu_data_acquisition2,123113.0,0.150573730469,-0.21337890625,0.726501464844,0.635620117188,-12.75,-5.75,100.5625,-8.77,3.36,9.1
1541195623581501960,88,0,/imu_data_acquisition2,123123.0,-6.103515625e-05,-6.103515625e-05,-6.103515625e-05,0.629455566406,-12.75,-5.75,100.5625,-7.9,-0.84,10.51
1541195623587279081,89,0,/imu_data_acquisition2,123132.0,0.145324707031,-0.216613769531,0.736755371094,0.623840332031,-7.8125,15.0625,96.5625,14.81,-1.61,11.98
1541195623598094940,90,0,/imu_data_acquisition2,123141.0,0.142883300781,-0.216674804688,0.741149902344,0.619140625,0.9375,15.875,80.25,14.81,-1.61,11.98
1541195623607475996,91,0,/imu_data_acquisition2,123152.0,0.14501953125,-0.0132446289062,-6.103515625e-05,0.614868164062,33.4375,-21.6875,54.5625,24.7,-6.52,11.15
1541195623618176937,92,0,/imu_data_acquisition2,123162.0,0.146118164062,-0.216125488281,0.747924804688,0.610412597656,-10.25,-21.125,75.4375,-2.34,-15.22,-13.11
1541195623631422042,93,0,/imu_data_acquisition2,123174.0,0.1455078125,-0.015625,-6.103515625e-05,0.605346679688,-10.25,-21.125,75.4375,-1.3,-6.69,-6.57
1541195623636709928,94,0,/imu_data_acquisition2,123182.0,0.141357421875,-0.213439941406,0.754943847656,0.603759765625,29.8125,77.5625,41.125,-1.3,-6.69,-6.57
1541195623647775888,95,0,/imu_data_acquisition2,123192.0,0.1396484375,-0.192565917969,0.757080078125,0.608459472656,171.9375,180.0625,-56.8125,0.09,-0.16,16.27
1541195623657732009,96,0,/imu_data_acquisition2,123201.0,0.135803222656,-0.170166015625,0.757934570312,0.614929199219,164.3125,211.6875,-80.25,0.1,3.18,28.87
1541195623668407917,97,0,/imu_data_acquisition2,123213.0,0.134582519531,-0.158020019531,0.757690429688,0.618713378906,53.75,99.8125,-28.6875,3.57,-1.92,13.32
1541195623686630964,99,0,/imu_data_acquisition2,123230.0,0.128479003906,-0.138000488281,0.758178710938,0.624206542969,73.1875,112.0,-37.375,2.64,-0.94,16.29
1541195623695252895,100,0,/imu_data_acquisition2,123240.0,0.127502441406,-0.126647949219,0.7578125,0.627258300781,89.125,97.375,-45.75,3.69,3.66,12.38
1541195623708429098,101,0,/imu_data_acquisition2,123252.0,0.1279296875,-0.116760253906,0.756958007812,0.630065917969,86.625,72.375,-47.1875,3.52,1.97,10.65
1541195623791043043,102,0,/imu_data_acquisition2,123262.0,0.126892089844,-0.109008789062,0.75634765625,0.632446289062,57.6875,69.3125,-36.1875,3.02,1.49,-0.01
1541195623807390928,103,0,/imu_data_acquisition2,123273.0,0.125732421875,-0.101501464844,0.755676269531,0.634704589844,40.5,63.3125,-30.625,3.43,-0.74,-0.01
1541195623810090065,104,0,/imu_data_acquisition2,123281.0,0.124145507812,-0.09521484375,0.755004882812,0.636779785156,40.5,63.3125,-30.625,3.43,-0.74,12.09
1541195623811151981,105,0,/imu_data_acquisition2,123293.0,0.122619628906,-0.0887451171875,0.754333496094,0.638793945312,42.875,63.5,-31.375,3.1,0.55,9.58
1541195623812278985,107,0,/imu_data_acquisition2,123313.0,-6.103515625e-05,-6.103515625e-05,-6.103515625e-05,0.641540527344,4.0,22.1875,-6.875,2.72,2.21,10.12
1541195623813124895,109,0,/imu_data_acquisition2,123329.0,0.123657226562,-0.073974609375,0.752502441406,0.642639160156,36.75,18.875,-14.1875,2.67,2.85,11.35
1541195623815382003,110,0,/imu_data_acquisition2,123339.0,0.123107910156,-0.0731201171875,0.7529296875,0.642333984375,3.8125,11.5625,5.0625,2.58,-0.06,10.17
1541195623816636085,111,0,/imu_data_acquisition2,123351.0,0.122253417969,-0.0729370117188,0.753601074219,0.641723632812,-3.3125,9.375,10.6875,2.43,0.3,10.64
1541195623818613052,112,0,/imu_data_acquisition2,123362.0,0.122375488281,-0.0724487304688,0.754089355469,0.641174316406,7.125,2.6875,8.0625,2.62,0.85,10.09
1541195623828829050,113,0,/imu_data_acquisition2,123373.0,0.122131347656,-0.0720825195312,0.754821777344,0.640380859375,3.125,5.375,12.1875,3.19,0.69,9.46
1541195623838136911,114,0,/imu_data_acquisition2,123380.0,0.121459960938,-0.0722045898438,0.755737304688,0.639404296875,-4.0,5.375,16.4375,3.19,0.69,9.46
1541195623847294092,115,0,/imu_data_acquisition2,123391.0,0.120727539062,-0.0726318359375,0.756713867188,0.638366699219,-7.0,3.875,17.75,2.68,0.45,9.67
1541195623861109018,116,0,/imu_data_acquisition2,123403.0,-6.103515625e-05,-6.103515625e-05,-6.103515625e-05,0.637451171875,-4.375,6.5625,16.0,2.79,0.85,9.74
1541195623871761083,117,0,/imu_data_acquisition2,123415.0,0.119445800781,-0.0726928710938,0.758361816406,0.636657714844,-7.4375,3.0,13.8125,2.6,0.65,9.86
1541195623880115032,118,0,/imu_data_acquisition2,123423.0,0.118835449219,-0.072998046875,0.759094238281,0.635864257812,-7.1875,1.875,-0.0625,2.58,0.64,10.25
1541195623886105060,119,0,/imu_data_acquisition2,123431.0,0.118286132812,-0.073486328125,0.759704589844,0.635192871094,-7.1875,1.875,-0.0625,2.58,0.64,10.25
1541195623897716999,120,0,/imu_data_acquisition2,123442.0,0.117980957031,-0.0740966796875,0.760192871094,0.634582519531,-6.1875,-1.6875,10.5,2.97,0.51,10.01
1541195623912003040,121,0,/imu_data_acquisition2,123452.0,0.11767578125,-0.0748291015625,0.760620117188,0.634033203125,-7.875,-2.875,9.0625,3.0,0.47,9.46
1541195623919317960,122,0,/imu_data_acquisition2,123463.0,0.117431640625,-0.0130615234375,-6.103515625e-05,0.633605957031,-7.8125,-3.0625,7.625,3.1,0.56,9.91
1541195623935045957,123,0,/imu_data_acquisition2,123474.0,0.117248535156,-0.0762939453125,0.76123046875,0.633239746094,-6.8125,-3.75,6.125,2.93,0.35,-0.01
1541195623937495946,124,0,/imu_data_acquisition2,123480.0,0.1171875,-0.0769653320312,0.761413574219,0.632934570312,-6.375,-4.5625,5.1875,2.93,0.35,9.34
1541195623947824954,125,0,/imu_data_acquisition2,123491.0,0.117065429688,-0.0778198242188,0.761535644531,0.632629394531,-7.6875,-5.4375,5.0625,2.82,0.36,10.03
1541195623957648992,126,0,/imu_data_acquisition2,123500.0,0.117004394531,-0.0786743164062,0.761657714844,0.632446289062,-7.625,-5.4375,4.125,2.85,0.4,9.44
1541195623968727111,127,0,/imu_data_acquisition2,123513.0,0.116882324219,-0.07958984375,0.761840820312,0.632141113281,-8.6875,-6.3125,4.75,2.84,0.48,9.09
1541195623979505062,128,0,/imu_data_acquisition2,123523.0,0.116882324219,-0.0806884765625,0.761901855469,0.631896972656,-9.875,-7.25,4.5625,2.79,0.42,9.44
1541195623984867095,129,0,/imu_data_acquisition2,123530.0,0.116821289062,-0.0816040039062,0.762023925781,0.631713867188,-8.5,-7.1875,4.125,2.79,0.42,-0.01
1541195623997576951,130,0,/imu_data_acquisition2,123542.0,0.116821289062,-0.0831298828125,0.762145996094,0.63134765625,-13.0,-0.0625,-0.0625,2.7,0.07,10.16
1541195624008182048,131,0,/imu_data_acquisition2,123553.0,0.11669921875,-0.084716796875,0.762268066406,0.630981445312,-14.5,-11.25,6.5625,2.41,0.46,9.65
1541195624019395112,132,0,/imu_data_acquisition2,123563.0,0.117004394531,-0.0862426757812,0.762329101562,0.630615234375,-11.1875,-14.4375,5.5,3.11,0.18,8.67
1541195624028789043,133,0,/imu_data_acquisition2,123574.0,0.117248535156,-0.0879516601562,0.762390136719,0.630310058594,-12.875,-15.6875,5.3125,3.22,0.16,9.15
1541195624038845062,134,0,/imu_data_acquisition2,123582.0,0.117553710938,-0.0897827148438,0.762390136719,0.630004882812,-13.75,-16.75,4.9375,3.22,0.16,9.15
1541195624045552015,135,0,/imu_data_acquisition2,123590.0,0.117919921875,-0.0906372070312,0.762268066406,0.629943847656,-5.0625,-9.125,0.5,3.5,0.66,8.73
1541195624057941913,136,0,/imu_data_acquisition2,123602.0,0.117980957031,-0.0908203125,0.762145996094,0.630004882812,-1.6875,-2.4375,-0.8125,3.0,0.16,9.29
1541195624071496963,137,0,/imu_data_acquisition2,123615.0,0.117858886719,-0.0905151367188,0.762145996094,0.630065917969,2.125,3.6875,-1.0625,2.57,0.34,9.72
1541195624080672979,138,0,/imu_data_acquisition2,123624.0,0.117736816406,-0.0897827148438,0.762268066406,0.630065917969,6.0,6.625,-0.5,2.36,0.48,9.84
1541195624086658000,139,0,/imu_data_acquisition2,123631.0,-6.103515625e-05,-6.103515625e-05,-6.103515625e-05,0.630065917969,5.375,6.75,0.625,2.36,0.48,9.84
1541195624097839117,140,0,/imu_data_acquisition2,123641.0,0.117553710938,-0.0881958007812,0.762573242188,0.630004882812,7.5,6.6875,0.1875,2.59,0.71,-0.01
1541195624106548070,141,0,/imu_data_acquisition2,123651.0,0.117614746094,-0.0875244140625,0.762634277344,0.630004882812,6.875,4.4375,0.0,2.73,0.56,9.5
1541195624119409084,142,0,/imu_data_acquisition2,123663.0,-6.103515625e-05,-6.103515625e-05,-6.103515625e-05,0.6298828125,3.625,3.4375,0.875,2.32,0.49,-0.01
1541195624132327079,143,0,/imu_data_acquisition2,123676.0,0.11767578125,-0.0866088867188,0.762817382812,0.6298828125,4.9375,3.0625,-0.25,2.36,0.3,10.13
1541195624135772943,144,0,/imu_data_acquisition2,123680.0,0.117553710938,-0.0859985351562,0.762939453125,0.6298828125,1.9375,0.8125,1.125,2.36,0.3,-0.01
1541195624150401115,145,0,/imu_data_acquisition2,123692.0,0.117553710938,-0.0856323242188,0.763000488281,0.629821777344,0.9375,0.375,1.375,2.63,0.49,9.35
1541195624157610893,146,0,/imu_data_acquisition2,123701.0,0.117492675781,-0.0848999023438,0.763122558594,0.629760742188,1.8125,-0.0625,1.625,2.23,0.67,9.68
1541195624168320894,147,0,/imu_data_acquisition2,123713.0,0.117431640625,-0.0844116210938,0.763244628906,0.629699707031,0.5,0.1875,2.5,2.57,0.53,9.71
1541195624181359052,148,0,/imu_data_acquisition2,123724.0,0.117248535156,-0.0841064453125,0.763427734375,0.629577636719,-1.8125,-0.875,3.5,2.56,0.51,9.46
1541195624185962915,149,0,/imu_data_acquisition2,123730.0,0.117126464844,-0.0838623046875,0.763610839844,0.62939453125,-1.5,-1.0625,3.4375,2.56,0.51,9.46
1541195624196203947,150,0,/imu_data_acquisition2,123741.0,0.117126464844,-0.0836791992188,0.763793945312,0.629211425781,-1.625,-2.6875,3.75,2.44,0.53,9.95
1541195624207321882,151,0,/imu_data_acquisition2,123751.0,0.1171875,-0.0835571289062,0.763916015625,0.629089355469,-1.9375,-2.5625,3.25,2.64,0.68,9.61
1541195624222485065,152,0,/imu_data_acquisition2,123764.0,0.117065429688,-0.0836181640625,0.764038085938,0.62890625,-3.875,-2.9375,3.4375,2.45,0.47,9.77
1541195624229649066,153,0,/imu_data_acquisition2,123774.0,0.117004394531,-0.083740234375,0.76416015625,0.628784179688,-4.0,-3.3125,3.125,2.45,0.47,9.77
1541195624238130092,154,0,/imu_data_acquisition2,123782.0,0.117004394531,-0.0836181640625,0.764221191406,0.628723144531,-2.25,-2.875,1.875,2.49,0.58,9.54
1541195624246391057,155,0,/imu_data_acquisition2,123790.0,0.116943359375,-0.08349609375,0.764282226562,0.628662109375,-2.125,-3.0625,1.6875,2.41,0.48,-0.01
1541195624256203889,156,0,/imu_data_acquisition2,123801.0,0.116943359375,-0.00531005859375,-6.103515625e-05,0.628662109375,-2.9375,-3.6875,1.4375,2.43,0.48,9.83
1541195624269686937,157,0,/imu_data_acquisition2,123814.0,0.116821289062,-0.0833129882812,0.764282226562,0.628662109375,-2.3125,-2.1875,0.75,2.43,0.49,9.38
1541195624280060052,158,0,/imu_data_acquisition2,123823.0,0.116821289062,-0.0833129882812,0.764282226562,0.628723144531,-2.375,-2.75,0.3125,2.67,0.44,9.8
1541195624289180994,159,0,/imu_data_acquisition2,123833.0,0.116882324219,-0.0831909179688,0.764221191406,0.628784179688,-1.9375,-2.5625,0.3125,2.56,0.64,10.28
1541195624299772977,160,0,/imu_data_acquisition2,123844.0,0.116882324219,-0.0831909179688,0.764221191406,0.628784179688,-0.1875,-0.4375,-0.375,3.02,0.4,8.88
1541195624310882091,161,0,/imu_data_acquisition2,123854.0,0.116882324219,-0.0835571289062,0.764221191406,0.628784179688,-3.125,-2.9375,0.6875,2.29,0.58,9.96
1541195624320045948,162,0,/imu_data_acquisition2,123864.0,0.116760253906,-0.0836181640625,0.764221191406,0.628784179688,-1.8125,0.6875,0.4375,2.29,0.58,-0.01
1541195624329293012,163,0,/imu_data_acquisition2,123872.0,0.116760253906,-0.0835571289062,0.764221191406,0.628784179688,0.75,0.1875,-0.375,2.81,0.66,9.5
1541195624336385011,164,0,/imu_data_acquisition2,123881.0,0.116760253906,-0.0836791992188,0.764221191406,0.628784179688,-1.0,-0.8125,-0.25,2.64,0.14,9.2
1541195624346712112,165,0,/imu_data_acquisition2,123891.0,0.116577148438,-0.0838623046875,0.764221191406,0.628723144531,-3.0,0.3125,1.1875,1.99,0.49,10.16
1541195624355062961,166,0,/imu_data_acquisition2,123900.0,0.116516113281,-0.00567626953125,-6.103515625e-05,0.628784179688,0.5,1.0625,-0.8125,2.61,0.27,9.13
1541195624369784116,167,0,/imu_data_acquisition2,123914.0,0.116455078125,-0.0840454101562,0.76416015625,0.628784179688,-2.5,-0.8125,0.375,2.23,0.36,9.99
1541195624379678964,168,0,/imu_data_acquisition2,123923.0,0.116394042969,-6.103515625e-05,-6.103515625e-05,0.628845214844,-0.25,1.0,-0.5,2.13,0.84,9.71
1541195624385299921,169,0,/imu_data_acquisition2,123930.0,0.116394042969,-0.083984375,0.764099121094,0.62890625,-0.3125,0.1875,-1.1875,2.48,0.33,9.52
1541195624397031068,170,0,/imu_data_acquisition2,123941.0,0.116394042969,-0.0841064453125,0.764038085938,0.628967285156,-1.6875,-0.6875,-1.0,2.4,0.41,9.84
1541195624409363985,171,0,/imu_data_acquisition2,123951.0,0.1162109375,-0.0833740234375,0.763977050781,0.629211425781,-0.25,0.1875,-1.75,2.3,0.72,9.96
1541195624415781974,172,0,/imu_data_acquisition2,123961.0,0.116088867188,-0.0830078125,0.763916015625,0.629333496094,-0.6875,-0.5,-1.4375,2.58,0.44,9.26
1541195624431477069,173,0,/imu_data_acquisition2,123972.0,0.116088867188,-0.0827026367188,0.763793945312,0.629516601562,-1.375,-1.5,-1.125,2.49,0.62,-0.01
1541195624438827037,174,0,/imu_data_acquisition2,123981.0,0.116088867188,-0.0820922851562,0.763732910156,0.629699707031,-0.1875,0.3125,-1.8125,2.3,0.67,9.54
1541195624445051908,175,0,/imu_data_acquisition2,123990.0,0.115844726562,-0.0817260742188,0.763671875,0.6298828125,-2.0625,-0.0625,-1.25,2.42,0.46,9.91
1541195624459323883,176,0,/imu_data_acquisition2,124000.0,0.115661621094,-0.0813598632812,0.763610839844,0.630065917969,-2.0625,-0.0625,-1.25,2.33,0.57,9.77
1541195624470283031,177,0,/imu_data_acquisition2,124012.0,0.115478515625,-0.0809936523438,0.763488769531,0.630249023438,-1.125,0.625,-1.9375,2.43,0.43,9.59
1541195624475486040,178,0,/imu_data_acquisition2,124020.0,0.115356445312,-0.0808715820312,0.763366699219,0.63037109375,-1.875,0.5625,-1.625,2.68,0.37,9.7
1541195624485903978,179,0,/imu_data_acquisition2,124031.0,0.115234375,-0.0802001953125,0.763244628906,0.630676269531,1.625,2.375,-3.25,2.33,0.74,10.03
1541195624498656988,180,0,/imu_data_acquisition2,124041.0,0.115112304688,-0.0798950195312,0.763122558594,0.630920410156,-1.3125,1.125,-2.5,2.68,0.53,9.54
1541195624505631923,181,0,/imu_data_acquisition2,124051.0,0.114929199219,-0.0799560546875,0.763000488281,0.631042480469,-2.3125,1.5625,-2.0,2.79,0.33,9.83
1541195624518161058,182,0,/imu_data_acquisition2,124062.0,0.114868164062,-0.07958984375,0.762817382812,0.631286621094,2.5625,2.875,-3.8125,2.3,0.71,9.86
1541195624529573917,183,0,/imu_data_acquisition2,124073.0,0.114990234375,-0.0791015625,0.762634277344,0.631591796875,4.5,2.8125,-4.6875,2.37,0.83,9.57
1541195624535146951,184,0,/imu_data_acquisition2,124080.0,0.115051269531,-0.0787353515625,0.762512207031,0.631774902344,3.375,1.875,-3.8125,1.59,0.56,9.1
1541195624546729087,185,0,/imu_data_acquisition2,124091.0,0.114990234375,-0.0779418945312,0.762329101562,0.632141113281,6.0625,6.375,-5.0,2.11,1.06,9.97
1541195624557638883,186,0,/imu_data_acquisition2,124102.0,0.114685058594,-0.0778198242188,0.762268066406,0.632263183594,-1.5,4.25,-1.625,2.49,0.25,-0.01
1541195624567557096,187,0,/imu_data_acquisition2,124111.0,0.1142578125,-0.0776977539062,0.76220703125,0.632446289062,-2.25,4.1875,-1.75,2.41,-0.69,-0.01
1541195624580785989,188,0,/imu_data_acquisition2,124125.0,0.114501953125,-0.0769653320312,0.762023925781,0.632690429688,7.5625,3.4375,-4.5625,2.99,-0.36,9.05
1541195624592284917,189,0,/imu_data_acquisition2,124130.0,0.114807128906,-0.0759887695312,0.761901855469,0.632873535156,11.0,4.8125,-4.5,2.08,0.96,9.72
1541195624596648931,190,0,/imu_data_acquisition2,124141.0,0.11474609375,-0.0755615234375,0.761901855469,0.632934570312,3.6875,3.5625,-0.0625,2.91,0.65,9.52
1541195624607759952,191,0,/imu_data_acquisition2,124151.0,0.114624023438,-0.0127563476562,-6.103515625e-05,0.632934570312,1.625,3.6875,0.25,2.88,0.15,9.5
1541195624617845058,192,0,/imu_data_acquisition2,124162.0,0.114624023438,-0.0745849609375,0.761901855469,0.633056640625,5.5,4.75,-2.25,2.56,0.54,9.63
1541195624631201028,193,0,/imu_data_acquisition2,124176.0,0.114501953125,-0.0740966796875,0.761840820312,0.633239746094,3.625,4.9375,-2.125,2.9,0.3,9.55
1541195624637063980,194,0,/imu_data_acquisition2,124181.0,0.114379882812,-0.0738525390625,0.761901855469,0.633239746094,1.375,2.625,-0.5625,2.9,0.3,9.55
1541195624647296905,195,0,/imu_data_acquisition2,124191.0,0.114440917969,-0.0733032226562,0.761779785156,0.633361816406,3.625,3.8125,-2.6875,2.79,0.74,-0.01
1541195624656847000,196,0,/imu_data_acquisition2,124202.0,0.114135742188,-0.0730590820312,0.761779785156,0.633483886719,0.125,4.375,-0.8125,2.63,0.22,9.66
1541195624668119907,197,0,/imu_data_acquisition2,124212.0,0.114074707031,-0.0725708007812,0.761779785156,0.633544921875,4.1875,4.625,-1.5625,2.68,0.12,-0.01
1541195624677225112,198,0,/imu_data_acquisition2,124220.0,0.114318847656,-0.0715942382812,0.761596679688,0.633850097656,9.125,4.75,-5.0625,2.35,0.77,9.72
1541195624687804937,199,0,/imu_data_acquisition2,124232.0,0.114135742188,-0.0712280273438,0.761596679688,0.633911132812,2.125,4.4375,-1.4375,2.59,0.03,-0.01
1541195624698415040,200,0,/imu_data_acquisition2,124241.0,0.114135742188,-0.0706176757812,0.761535644531,0.634094238281,5.4375,4.6875,-2.5,2.73,0.26,9.92
1541195624707884073,201,0,/imu_data_acquisition2,124251.0,0.114318847656,-0.06982421875,0.761474609375,0.634216308594,7.9375,4.6875,-3.1875,2.82,0.6,9.31
1541195624718518018,202,0,/imu_data_acquisition2,124263.0,0.114196777344,-0.069091796875,0.761474609375,0.63427734375,5.625,5.9375,-1.4375,3.1,0.18,9.28
1541195624766635894,203,0,/imu_data_acquisition2,124271.0,0.114318847656,-0.068115234375,0.761474609375,0.634399414062,9.5,6.6875,-0.0625,2.82,0.2,8.97
1541195624768769025,204,0,/imu_data_acquisition2,124281.0,0.114440917969,-0.0668334960938,0.761474609375,0.634521484375,12.125,8.625,-2.6875,2.92,0.36,-0.01
1541195624770942926,206,0,/imu_data_acquisition2,124302.0,0.115295410156,-0.0635986328125,0.76123046875,0.634948730469,17.875,6.8125,-5.5625,2.69,0.78,8.87
1541195624773464918,207,0,/imu_data_acquisition2,124310.0,0.115539550781,-0.062255859375,0.76123046875,0.635070800781,13.375,-0.0625,-0.0625,2.84,0.36,9.92
1541195624775316953,208,0,/imu_data_acquisition2,124320.0,0.115966796875,-0.0610961914062,0.761169433594,0.635192871094,13.75,4.5,-3.6875,3.53,0.08,9.49
1541195624785918951,209,0,/imu_data_acquisition2,124331.0,0.116577148438,-0.0596313476562,0.760986328125,0.635375976562,17.375,6.0625,-5.5,2.89,0.29,9.54
1541195624795381069,210,0,/imu_data_acquisition2,124340.0,0.117370605469,-0.0579833984375,0.7607421875,0.6357421875,19.625,4.75,-8.3125,3.49,0.81,9.91
1541195624808171987,211,0,/imu_data_acquisition2,124353.0,0.117797851562,-0.0568237304688,0.760437011719,0.636108398438,12.9375,4.875,-0.0625,4.26,0.46,9.06
1541195624821062088,212,0,/imu_data_acquisition2,124365.0,0.118103027344,-0.0551147460938,0.760009765625,0.63671875,16.6875,9.9375,-11.1875,3.67,0.62,10.21
1541195624828445911,213,0,/imu_data_acquisition2,124373.0,0.118286132812,-0.0538330078125,0.759460449219,0.637390136719,11.8125,7.25,-12.5,4.53,0.11,8.67
1541195624838397979,214,0,/imu_data_acquisition2,124381.0,-6.103515625e-05,-6.103515625e-05,-6.103515625e-05,0.638305664062,14.25,15.6875,-15.5,4.5,0.3,9.32
1541195624845812082,215,0,/imu_data_acquisition2,124390.0,0.11767578125,-0.0493774414062,0.758239746094,0.639404296875,17.625,23.25,-17.5,3.97,0.62,-0.01
1541195624856779098,216,0,/imu_data_acquisition2,124401.0,0.116760253906,-0.046630859375,0.757690429688,0.640380859375,15.8125,28.9375,-15.9375,4.23,0.11,9.09
1541195624865226984,217,0,/imu_data_acquisition2,124410.0,0.115844726562,-0.0430908203125,0.757202148438,0.641418457031,23.0,34.75,-17.8125,4.27,-0.01,-0.01
1541195624876199960,218,0,/imu_data_acquisition2,124421.0,0.115173339844,-0.0381469726562,0.756469726562,0.642700195312,36.875,43.125,-23.25,4.35,0.49,9.74
1541195624886976003,219,0,/imu_data_acquisition2,124431.0,0.114318847656,-0.0321655273438,0.755676269531,0.64404296875,44.8125,52.8125,-25.875,5.23,0.49,8.81
1541195624895059108,220,0,/imu_data_acquisition2,124440.0,0.112548828125,-0.024658203125,0.755126953125,0.645385742188,51.875,72.625,-25.4375,4.65,0.81,8.95
1541195624906579971,221,0,/imu_data_acquisition2,124451.0,0.109558105469,-0.0157470703125,0.7548828125,0.646484375,55.4375,95.125,-22.6875,5.07,0.2,9.47
1541195624918111085,222,0,/imu_data_acquisition2,124462.0,0.10498046875,-0.00299072265625,0.754455566406,0.647888183594,77.125,137.625,-31.375,9.6,2.05,7.86
1541195624928143978,223,0,/imu_data_acquisition2,124470.0,0.0949096679688,0.01416015625,0.754455566406,0.649291992188,74.3125,222.0,-34.25,6.67,1.84,9.08
1541195624936786890,224,0,/imu_data_acquisition2,124481.0,0.0791015625,0.0357666015625,0.754821777344,0.650146484375,69.875,307.1875,-31.625,5.97,-0.67,10.4
1541195624948852062,225,0,/imu_data_acquisition2,124491.0,0.0597534179688,0.06298828125,0.754516601562,0.650512695312,94.25,382.3125,-38.875,5.55,2.39,12.18
1541195624955377101,226,0,/imu_data_acquisition2,124500.0,0.036376953125,-6.103515625e-05,-6.103515625e-05,0.649597167969,86.9375,438.5625,-0.0625,6.33,3.5,10.9
1541195624968157052,227,0,/imu_data_acquisition2,124512.0,0.00927734375,0.123229980469,0.752563476562,0.646789550781,66.3125,478.875,-26.3125,3.65,4.53,11.85
1541195624978844881,228,0,/imu_data_acquisition2,124520.0,-0.0205688476562,0.153076171875,0.750915527344,0.64208984375,40.4375,502.0625,-18.0625,9.48,3.23,22.21
1541195624986339092,229,0,/imu_data_acquisition2,124531.0,-0.0514526367188,0.176391601562,0.748840332031,0.636779785156,-25.1875,461.875,-0.0625,23.67,-5.66,36.51
1541195624999478101,230,0,/imu_data_acquisition2,124543.0,-0.0704345703125,0.186828613281,0.745300292969,0.636108398438,-43.5625,250.6875,-54.1875,16.25,-13.85,39.62
1541195625005273103,231,0,/imu_data_acquisition2,124550.0,-0.0664672851562,0.185546875,0.741516113281,0.641357421875,31.5,-52.8125,-67.1875,12.34,5.06,25.82
1541195625018404960,232,0,/imu_data_acquisition2,124563.0,-0.0698852539062,0.174743652344,0.743530273438,0.641662597656,-125.1875,-54.125,-3.5,15.85,-10.66,7.2
1541195625028168916,233,0,/imu_data_acquisition2,124571.0,-0.0707397460938,0.171020507812,0.7412109375,0.645202636719,-31.3125,-26.0625,-53.3125,17.58,-1.99,9.08
1541195625034888982,234,0,/imu_data_acquisition2,124580.0,-0.0692749023438,0.16650390625,0.738342285156,0.64990234375,-18.8125,-54.25,-64.0625,15.35,3.79,16.46
1541195625046525955,235,0,/imu_data_acquisition2,124591.0,-0.0655517578125,0.154479980469,0.737854003906,0.653747558594,-72.1875,-132.8125,-39.8125,11.33,-1.65,12.03
1541195625055685043,236,0,/imu_data_acquisition2,124600.0,-0.0577392578125,0.141845703125,0.736450195312,0.658935546875,-43.5,-174.0625,-51.5,8.65,0.81,-0.01
1541195625066174983,237,0,/imu_data_acquisition2,124610.0,-0.0479125976562,0.129699707031,0.734375,0.66455078125,-21.625,-12.75,-0.0625,6.71,3.86,8.65
1541195625076473951,238,0,/imu_data_acquisition2,124620.0,-0.00714111328125,-6.103515625e-05,-6.103515625e-05,0.669006347656,-38.125,-194.9375,-41.5,3.33,0.64,11.74
1541195625087090969,239,0,/imu_data_acquisition2,124632.0,-0.0274658203125,0.102844238281,0.731567382812,0.673400878906,-25.25,-14.0625,-0.0625,1.56,0.64,11.95
1541195625098925113,240,0,/imu_data_acquisition2,124643.0,-0.0146484375,0.09033203125,0.729309082031,0.678039550781,-1.8125,-215.75,-46.9375,-0.42,1.47,-0.01
1541195625106719970,241,0,/imu_data_acquisition2,124650.0,-0.00115966796875,0.0777587890625,-6.103515625e-05,0.682312011719,2.875,-220.875,-43.375,-3.94,0.67,10.35
1541195625116945028,242,0,/imu_data_acquisition2,124661.0,0.0115356445312,0.0653686523438,0.724670410156,0.685852050781,-2.0,-213.125,-37.5,-5.58,-1.13,11.23
1541195625127701044,243,0,/imu_data_acquisition2,124671.0,0.02392578125,0.0536499023438,0.722045898438,0.689331054688,1.5625,-204.25,-40.0,-7.09,-2.61,11.91
1541195625136666059,244,0,/imu_data_acquisition2,124680.0,0.0361938476562,0.0429077148438,0.718566894531,0.693237304688,9.25,-196.0625,-50.75,-7.97,-4.11,11.49
1541195625146761894,245,0,/imu_data_acquisition2,124691.0,0.0479736328125,0.0338134765625,0.713928222656,0.69775390625,19.9375,-0.0625,-0.0625,-9.25,-5.25,13.06
1541195625156205892,246,0,/imu_data_acquisition2,124701.0,0.0587158203125,0.0256958007812,0.708190917969,0.703125,19.3125,-0.0625,-0.0625,-9.67,-5.97,13.77
1541195625167119979,247,0,/imu_data_acquisition2,124711.0,0.0681762695312,0.0178833007812,0.701293945312,0.709350585938,11.1875,-151.3125,-101.125,-10.27,-6.88,14.08
1541195625180778980,248,0,/imu_data_acquisition2,124721.0,0.0767822265625,0.0106201171875,0.692993164062,0.716796875,7.375,-140.5625,-124.3125,-10.42,-6.87,12.08
1541195625187002897,249,0,/imu_data_acquisition2,124732.0,0.0841064453125,0.00433349609375,0.68310546875,0.725463867188,4.125,-123.625,-4.3125,-10.29,-6.32,11.65
1541195625197483062,250,0,/imu_data_acquisition2,124742.0,0.0899047851562,-0.00103759765625,0.671936035156,0.735107421875,-2.5625,-104.375,-168.0,-9.93,-5.41,12.09
1541195625208561897,251,0,/imu_data_acquisition2,124752.0,0.0944213867188,-0.00579833984375,-6.103515625e-05,0.745422363281,-9.8125,-90.625,-182.3125,-8.47,-2.71,11.62
1541195625216324090,252,0,/imu_data_acquisition2,124761.0,0.098388671875,-0.0098876953125,0.647094726562,0.755981445312,-9.875,-80.25,-190.5625,-7.37,-0.37,10.74
1541195625228028059,253,0,/imu_data_acquisition2,124772.0,0.101684570312,-0.0135498046875,0.634399414062,0.766174316406,-11.25,-71.4375,-188.25,-6.27,1.43,10.21
1541195625236987113,254,0,/imu_data_acquisition2,124781.0,0.104248046875,-6.103515625e-05,-6.103515625e-05,0.775573730469,-14.8125,-62.1875,-175.75,-5.1,2.53,9.58
1541195625246938943,255,0,/imu_data_acquisition2,124792.0,0.106567382812,-0.01953125,0.611389160156,0.783874511719,-11.3125,-53.125,-159.125,-2.67,4.35,9.42
1541195625258059978,256,0,/imu_data_acquisition2,124802.0,0.10888671875,-0.0215454101562,0.601745605469,0.790893554688,-3.6875,-46.4375,-138.625,-1.48,5.24,10.04
1541195625265441894,257,0,/imu_data_acquisition2,124810.0,0.111633300781,-0.0235595703125,0.59375,0.796508789062,2.0625,-47.125,-113.25,-0.49,5.88,9.98
1541195625276735067,258,0,/imu_data_acquisition2,124821.0,0.114807128906,-0.02587890625,0.587585449219,0.800537109375,6.3125,-0.0625,-0.0625,0.91,5.98,8.96
1541195625288934946,259,0,/imu_data_acquisition2,124832.0,0.118286132812,-0.028564453125,0.583435058594,0.803039550781,9.8125,-54.625,-54.0625,1.4,5.49,8.28
1541195625297585964,260,0,/imu_data_acquisition2,124842.0,0.121826171875,-0.0316162109375,0.5810546875,0.804077148438,9.875,-56.75,-26.0625,1.83,4.26,7.92
1541195625307106018,261,0,/imu_data_acquisition2,124851.0,0.125793457031,-0.0347900390625,0.580200195312,0.803955078125,15.75,-58.875,-4.9375,2.57,3.06,8.5
1541195625317511081,262,0,/imu_data_acquisition2,124861.0,0.130249023438,-0.038330078125,0.580383300781,0.802917480469,19.75,-63.875,12.5,2.64,2.76,8.72
1541195625327920913,263,0,/imu_data_acquisition2,124871.0,0.134582519531,-0.0429077148438,0.581726074219,0.801025390625,13.3125,-72.625,30.625,2.53,1.81,8.51
1541195625338383913,264,0,/imu_data_acquisition2,124881.0,0.138977050781,-6.103515625e-05,-6.103515625e-05,0.798461914062,8.875,-80.375,44.0,2.14,0.55,8.17
1541195625345726013,265,0,/imu_data_acquisition2,124890.0,0.138977050781,-0.0484008789062,0.583801269531,0.798461914062,5.4375,-0.0625,-0.0625,1.92,0.3,8.43
1541195625358510971,266,0,/imu_data_acquisition2,124901.0,0.143371582031,-0.0545654296875,0.586364746094,0.79541015625,-0.0625,-90.4375,60.5625,1.8,0.18,8.81
1541195625367805004,267,0,/imu_data_acquisition2,124911.0,0.151245117188,-6.103515625e-05,-6.103515625e-05,0.788146972656,-10.1875,-94.5625,67.5,1.56,-0.05,9.46
1541195625375582933,268,0,/imu_data_acquisition2,124920.0,0.154479980469,-0.0777587890625,0.595886230469,0.784240722656,-21.125,-101.3125,71.625,0.7,-0.92,10.26
1541195625386843919,269,0,/imu_data_acquisition2,124931.0,0.157775878906,-0.0870971679688,0.598999023438,0.780212402344,-24.75,-107.625,71.25,0.17,-0.49,9.88
1541195625397722959,270,0,/imu_data_acquisition2,124941.0,0.16064453125,-0.096923828125,0.60205078125,0.776123046875,-32.5625,-109.9375,72.5,-0.35,-0.34,9.5
1541195625405258893,271,0,/imu_data_acquisition2,124950.0,0.1630859375,-0.10693359375,0.60498046875,0.77197265625,-5.8125,-0.0625,-0.0625,-1.29,0.66,9.29
1541195625417042016,272,0,/imu_data_acquisition2,124961.0,0.165161132812,-0.117004394531,0.60791015625,0.767761230469,-40.75,-106.125,73.875,-1.69,1.13,-0.01
1541195625426913022,273,0,/imu_data_acquisition2,124971.0,0.166931152344,-0.12646484375,0.610961914062,0.763488769531,-40.0,-99.0625,74.625,-2.04,1.91,10.33
1541195625435722112,274,0,/imu_data_acquisition2,124981.0,0.168395996094,-0.135498046875,0.614196777344,0.758972167969,-37.875,-92.625,77.4375,-2.87,4.55,11.3
1541195625446857929,275,0,/imu_data_acquisition2,124991.0,-6.103515625e-05,-6.103515625e-05,-6.103515625e-05,0.753967285156,-45.25,-84.8125,88.875,-3.23,4.82,10.42
1541195625455282926,276,0,/imu_data_acquisition2,125000.0,0.167907714844,-0.153564453125,0.622985839844,0.748413085938,-55.375,-73.0,103.25,-4.19,4.64,10.6
1541195625466213941,277,0,/imu_data_acquisition2,125011.0,-6.103515625e-05,-6.103515625e-05,-6.103515625e-05,0.742431640625,-56.5,-58.875,113.375,-4.9,5.17,10.61
1541195625477750062,278,0,/imu_data_acquisition2,125021.0,0.162658691406,-0.169616699219,0.634765625,0.736083984375,-62.0625,-43.8125,124.125,-6.16,3.98,11.79
1541195625488291978,279,0,/imu_data_acquisition2,125032.0,0.158935546875,-0.176330566406,0.641479492188,0.7294921875,-56.875,-30.5625,128.25,-6.61,3.7,12.28
1541195625497206926,280,0,/imu_data_acquisition2,125042.0,0.155090332031,-0.182006835938,0.6484375,0.722717285156,-48.625,-21.3125,130.25,-7.3,3.76,12.87
1541195625507272958,281,0,/imu_data_acquisition2,125051.0,-6.103515625e-05,-6.103515625e-05,-6.103515625e-05,0.722717285156,-58.9375,-15.1875,-0.0625,-8.66,-3.65,9.87
1541195625517648935,282,0,/imu_data_acquisition2,125062.0,0.147155761719,-0.189758300781,0.661926269531,0.710083007812,-16.0625,7.1875,107.375,-12.74,-2.64,11.28
1541195625527992963,283,0,/imu_data_acquisition2,125072.0,0.144958496094,-0.189819335938,0.666198730469,0.706481933594,-3.625,16.1875,69.0625,-11.16,-10.67,-3.13
1541195625537007093,284,0,/imu_data_acquisition2,125081.0,0.144958496094,-0.189819335938,0.666198730469,0.706481933594,185.75,84.5625,-38.75,6.27,15.9,29.51
1541195625547579050,285,0,/imu_data_acquisition2,125091.0,0.15185546875,-6.103515625e-05,-6.103515625e-05,0.707641601562,164.5625,22.1875,-53.1875,13.26,7.99,11.32
1541195625557681083,286,0,/imu_data_acquisition2,125101.0,0.15576171875,-0.168334960938,0.668518066406,0.707458496094,-86.625,-6.0625,42.75,5.62,-12.29,4.06
1541195625566097021,287,0,/imu_data_acquisition2,125111.0,0.15576171875,-0.168334960938,0.668518066406,0.707458496094,54.4375,36.4375,-14.25,2.42,6.83,2.86
1541195625578187942,288,0,/imu_data_acquisition2,125122.0,0.157409667969,-0.162719726562,0.667907714844,0.708984375,72.6875,115.375,-47.0,3.5,6.08,12.52
1541195625587920904,289,0,/imu_data_acquisition2,125132.0,0.1513671875,-0.143310546875,0.66796875,0.714416503906,19.8125,105.625,-21.0625,3.94,3.67,13.83
1541195625595554113,290,0,/imu_data_acquisition2,125140.0,0.1513671875,-0.143310546875,0.66796875,0.714416503906,18.5,90.1875,-14.875,3.12,-0.01,-0.01
1541195625607131958,291,0,/imu_data_acquisition2,125151.0,0.147583007812,-0.136596679688,0.668395996094,0.716125488281,8.6875,83.875,-7.9375,2.87,-1.85,11.0
1541195625618777036,292,0,/imu_data_acquisition2,125162.0,0.143432617188,-0.130920410156,0.669067382812,0.717407226562,-18.0,88.8125,1.8125,3.09,-4.13,12.01
1541195625626158952,293,0,/imu_data_acquisition2,125171.0,0.137329101562,-0.126586914062,0.670043945312,0.718444824219,-1.1875,90.0625,-10.1875,2.66,-2.71,12.46
1541195625638395071,294,0,/imu_data_acquisition2,125182.0,0.128784179688,-0.005126953125,-6.103515625e-05,0.721984863281,18.75,86.0,-23.625,3.05,1.59,12.11
1541195625649101018,295,0,/imu_data_acquisition2,125193.0,0.128784179688,-0.114501953125,0.670104980469,0.721984863281,29.25,78.6875,-24.4375,3.68,2.82,11.73
1541195625659075021,296,0,/imu_data_acquisition2,125202.0,0.1220703125,-0.103393554688,0.669799804688,0.72509765625,-3.5625,72.75,-11.0625,3.9,-2.92,13.33
1541195625668169021,297,0,/imu_data_acquisition2,125212.0,0.120056152344,-0.0973510742188,0.669189453125,0.726806640625,27.0625,69.375,-24.875,1.9,4.46,13.24
1541195625679815053,298,0,/imu_data_acquisition2,125223.0,0.120056152344,-0.0973510742188,0.669189453125,0.726806640625,67.75,33.625,-34.5,3.17,4.1,8.56
1541195625685985088,299,0,/imu_data_acquisition2,125231.0,0.12255859375,-0.0130004882812,-6.103515625e-05,0.728332519531,4.125,32.375,-2.9375,3.19,-1.5,11.75
1541195625697817087,300,0,/imu_data_acquisition2,125242.0,0.121032714844,-0.0888671875,0.668151855469,0.728698730469,24.625,28.5,-7.125,2.83,0.64,10.59
1541195625709134101,301,0,/imu_data_acquisition2,125253.0,0.120971679688,-0.00750732421875,-6.103515625e-05,0.729064941406,26.9375,25.3125,-4.6875,2.38,2.0,11.35
1541195625718338966,302,0,/imu_data_acquisition2,125262.0,0.120361328125,-0.0814208984375,0.669067382812,0.728881835938,1.9375,17.125,8.75,2.62,1.08,10.27
1541195625772777080,303,0,/imu_data_acquisition2,125272.0,0.120361328125,-0.0814208984375,0.669067382812,0.728881835938,-1.1875,10.375,10.25,2.64,0.86,10.06
1541195625875629901,305,0,/imu_data_acquisition2,125297.0,0.11865234375,-0.0805053710938,0.670959472656,0.7275390625,-2.0625,4.5625,-0.0625,3.12,1.2,9.94
1541195625885301113,306,0,/imu_data_acquisition2,125304.0,0.1181640625,-0.08056640625,0.671447753906,0.727111816406,-4.0,3.5625,7.8125,3.08,1.23,9.71
1541195625890510082,307,0,/imu_data_acquisition2,125310.0,-6.103515625e-05,-6.103515625e-05,-6.103515625e-05,0.727111816406,-8.6875,2.4375,8.4375,2.87,0.68,9.72
1541195625896248102,308,0,/imu_data_acquisition2,125321.0,0.117431640625,-0.0809936523438,0.671936035156,0.726745605469,-10.0625,3.6875,7.9375,2.92,0.75,9.97
1541195625901151895,309,0,/imu_data_acquisition2,125331.0,0.116577148438,-0.0814208984375,0.67236328125,0.726440429688,-7.9375,0.6875,5.875,2.84,1.06,9.07
1541195625904064893,310,0,/imu_data_acquisition2,125340.0,0.115966796875,-0.0819091796875,0.672668457031,0.726196289062,-7.9375,0.6875,5.875,3.2,0.57,9.18
1541195625905618906,311,0,/imu_data_acquisition2,125350.0,0.115112304688,-6.103515625e-05,-6.103515625e-05,0.725891113281,-11.5625,2.25,6.8125,3.2,0.57,9.18
1541195625906878948,312,0,/imu_data_acquisition2,125361.0,0.114379882812,-0.0833740234375,0.673400878906,0.7255859375,-10.0625,-0.25,5.9375,3.02,0.59,9.39
1541195625909193038,313,0,/imu_data_acquisition2,125371.0,0.113708496094,-0.0840454101562,0.673706054688,0.725341796875,-8.6875,-1.1875,5.4375,2.97,0.64,9.75
1541195625910876989,314,0,/imu_data_acquisition2,125381.0,0.113220214844,-0.0846557617188,0.673950195312,0.725158691406,-10.9375,-4.0,6.0625,2.66,0.5,8.62
1541195625911566972,315,0,/imu_data_acquisition2,125390.0,0.112731933594,-0.0074462890625,-6.103515625e-05,0.724853515625,-10.9375,-4.0,6.0625,2.66,0.5,8.62
1541195625914172887,316,0,/imu_data_acquisition2,125400.0,0.112182617188,-0.0863037109375,0.674438476562,0.724609375,-9.6875,-1.6875,5.3125,2.64,0.46,11.17
1541195625919935941,317,0,/imu_data_acquisition2,125412.0,0.111877441406,-0.08740234375,0.674621582031,0.724426269531,-14.25,-0.0625,-0.0625,2.8,0.59,9.33
1541195625924365997,318,0,/imu_data_acquisition2,125422.0,0.111267089844,-0.0885620117188,0.6748046875,0.72412109375,-14.0625,-7.0625,6.125,2.8,0.44,10.33
1541195625931838989,319,0,/imu_data_acquisition2,125435.0,0.110290527344,-0.0914306640625,0.675231933594,0.723571777344,-16.0,-9.8125,6.6875,3.23,0.46,9.18
1541195625935653924,320,0,/imu_data_acquisition2,125442.0,0.110290527344,-0.0914306640625,0.675231933594,0.723571777344,-15.6875,-10.4375,6.375,2.72,0.51,9.67
1541195625937594890,321,0,/imu_data_acquisition2,125451.0,0.10986328125,-0.093017578125,0.675415039062,0.723266601562,-15.6875,-10.4375,6.375,2.93,0.26,10.02
1541195625940000057,322,0,/imu_data_acquisition2,125462.0,0.109436035156,-0.0948486328125,0.675537109375,0.722961425781,-18.5,-15.8125,6.9375,3.3,0.33,8.77
1541195625942898035,323,0,/imu_data_acquisition2,125472.0,0.109130859375,-0.096923828125,0.675720214844,0.722595214844,-16.375,-11.4375,3.75,3.41,0.22,9.36
1541195625943944931,324,0,/imu_data_acquisition2,125483.0,0.108459472656,-0.0999755859375,0.675659179688,0.722290039062,-13.25,-9.125,3.25,3.59,-0.15,8.88
1541195625946382045,325,0,/imu_data_acquisition2,125491.0,0.108459472656,-0.0062255859375,-6.103515625e-05,0.722290039062,-13.25,-9.125,3.25,3.56,0.21,9.17
1541195625959522962,326,0,/imu_data_acquisition2,125503.0,0.108276367188,-0.1005859375,0.675659179688,0.722229003906,-2.125,1.125,0.125,3.49,0.12,9.14
1541195625966892004,327,0,/imu_data_acquisition2,125512.0,0.108032226562,-0.100646972656,0.675659179688,0.722290039062,-0.1875,5.75,0.125,2.97,-0.07,9.73
1541195625981012105,328,0,/imu_data_acquisition2,125523.0,0.107727050781,-0.100280761719,0.675720214844,0.722351074219,4.5,8.0,-0.75,2.76,0.41,9.3
1541195625988742113,329,0,/imu_data_acquisition2,125533.0,0.107543945312,-0.0995483398438,0.67578125,0.722412109375,4.9375,9.625,-0.375,2.67,0.22,10.44
1541195625995595932,330,0,/imu_data_acquisition2,125540.0,0.107299804688,-0.0986938476562,0.675903320312,0.722412109375,4.9375,9.625,-0.375,2.67,0.22,10.44
1541195626010066986,331,0,/imu_data_acquisition2,125551.0,0.107177734375,-0.0980834960938,0.675964355469,0.722473144531,3.75,6.3125,0.0,2.98,0.53,9.39
1541195626019435882,332,0,/imu_data_acquisition2,125563.0,0.10693359375,-0.0973510742188,0.676086425781,0.722473144531,1.4375,4.375,-0.0625,2.85,0.3,-0.01
1541195626028156042,333,0,/imu_data_acquisition2,125572.0,0.106750488281,-0.0970458984375,0.676147460938,0.722534179688,0.0,4.125,0.125,2.46,0.53,-0.01
1541195626043559074,334,0,/imu_data_acquisition2,125582.0,-6.103515625e-05,-6.103515625e-05,-6.103515625e-05,0.722534179688,2.0,4.375,-0.4375,2.47,0.47,10.22
1541195626049766063,335,0,/imu_data_acquisition2,125592.0,0.106384277344,-0.0963745117188,0.676208496094,0.722595214844,0.0625,1.1875,0.1875,2.81,0.52,9.29
1541195626056881904,336,0,/imu_data_acquisition2,125602.0,0.106384277344,-0.09619140625,0.676208496094,0.722595214844,-2.6875,1.75,1.3125,2.41,0.16,9.68
1541195626070024967,337,0,/imu_data_acquisition2,125612.0,0.106079101562,-6.103515625e-05,-6.103515625e-05,0.722534179688,-0.6875,1.6875,0.6875,2.66,0.5,9.32
1541195626080197095,338,0,/imu_data_acquisition2,125623.0,0.10595703125,-0.09619140625,0.676391601562,0.722534179688,-2.375,-0.625,1.3125,2.51,0.39,9.91
1541195626086802959,339,0,/imu_data_acquisition2,125632.0,0.105834960938,-6.103515625e-05,-6.103515625e-05,0.722473144531,-2.375,-0.625,1.3125,2.79,0.35,9.43
1541195626099112033,340,0,/imu_data_acquisition2,125642.0,0.105590820312,-0.0964965820312,0.676452636719,0.722412109375,-3.375,0.0,1.5,2.61,0.39,9.85
1541195626106657981,341,0,/imu_data_acquisition2,125650.0,0.10546875,-6.103515625e-05,-6.103515625e-05,0.722412109375,-2.875,-0.625,1.0625,2.61,0.39,-0.01
1541195626116101026,342,0,/imu_data_acquisition2,125661.0,0.105285644531,-0.0967407226562,0.676513671875,0.722412109375,-4.125,-1.375,1.0625,2.53,0.41,9.4
1541195626131726980,343,0,/imu_data_acquisition2,125673.0,0.104919433594,-0.0968627929688,0.676574707031,0.722412109375,-5.0,-2.5625,1.0,2.46,0.17,10.0
1541195626139832973,344,0,/imu_data_acquisition2,125682.0,0.104736328125,-0.0972900390625,0.676574707031,0.722412109375,-5.0,-2.5625,1.0,2.58,0.27,9.37
1541195626145853042,345,0,/imu_data_acquisition2,125690.0,0.1044921875,-0.0978393554688,0.676574707031,0.722351074219,-6.0625,-2.25,1.25,2.58,0.27,9.37
1541195626157670974,346,0,/imu_data_acquisition2,125702.0,-6.103515625e-05,-6.103515625e-05,-6.103515625e-05,0.722290039062,-4.9375,-2.75,0.8125,2.66,0.27,9.85
1541195626167581081,347,0,/imu_data_acquisition2,125711.0,0.104125976562,-6.103515625e-05,-6.103515625e-05,0.722290039062,-5.125,-3.0,1.125,2.45,0.22,-0.01
1541195626177409887,348,0,/imu_data_acquisition2,125722.0,0.10400390625,-0.0989379882812,0.676574707031,0.722229003906,-4.625,-1.5625,1.5,2.43,0.05,-0.01
1541195626188957929,349,0,/imu_data_acquisition2,125733.0,-6.103515625e-05,-6.103515625e-05,-6.103515625e-05,0.72216796875,-4.625,-1.5625,1.5,2.89,0.21,9.3
1541195626196805953,350,0,/imu_data_acquisition2,125740.0,0.103698730469,-0.00579833984375,-6.103515625e-05,0.72216796875,-2.875,-1.0625,0.875,2.89,0.21,9.3
1541195626206922054,351,0,/imu_data_acquisition2,125752.0,0.103576660156,-0.0996704101562,0.676635742188,0.722106933594,-1.9375,0.375,0.875,2.58,0.18,9.92
1541195626218683958,352,0,/imu_data_acquisition2,125763.0,0.103393554688,-6.103515625e-05,-6.103515625e-05,0.722106933594,-2.5,0.375,1.0,2.51,0.27,9.63
1541195626227410078,353,0,/imu_data_acquisition2,125772.0,0.103332519531,-0.0999145507812,0.676696777344,0.722106933594,-1.0625,0.3125,0.3125,2.83,0.18,9.39
1541195626239239931,354,0,/imu_data_acquisition2,125784.0,0.103210449219,-0.0999145507812,0.676696777344,0.722106933594,-1.1875,1.0625,-0.125,2.47,0.28,9.88
1541195626244999885,355,0,/imu_data_acquisition2,125790.0,0.10302734375,-0.0997924804688,0.676696777344,0.72216796875,-1.1875,1.0625,-0.125,2.47,0.28,9.88
1541195626257441043,356,0,/imu_data_acquisition2,125802.0,0.102905273438,-0.0995483398438,0.676635742188,0.722229003906,-0.1875,1.375,-0.625,2.61,0.39,9.51
1541195626267893075,357,0,/imu_data_acquisition2,125812.0,0.102661132812,-0.0993041992188,0.676696777344,0.722290039062,-1.5625,2.0625,-0.125,2.34,0.3,9.74
1541195626280111074,358,0,/imu_data_acquisition2,125823.0,0.102294921875,-0.09912109375,0.676696777344,0.722351074219,-2.4375,1.875,0.0625,2.55,0.3,9.81
1541195626290476083,359,0,/imu_data_acquisition2,125834.0,0.101867675781,-0.098876953125,0.676696777344,0.722473144531,-1.75,1.0625,-0.0625,2.56,0.25,9.3
1541195626297674894,360,0,/imu_data_acquisition2,125842.0,0.101867675781,-0.098876953125,0.676696777344,0.722473144531,-1.75,1.0625,-0.125,2.56,0.25,9.3
1541195626306377887,361,0,/imu_data_acquisition2,125850.0,-6.103515625e-05,-6.103515625e-05,-6.103515625e-05,0.722473144531,-1.0625,1.875,-0.3125,2.59,0.31,9.77
1541195626317312002,362,0,/imu_data_acquisition2,125861.0,0.101501464844,-0.0985107421875,0.676696777344,0.722595214844,-0.75,0.9375,-0.625,2.34,0.22,-0.01
1541195626329456090,363,0,/imu_data_acquisition2,125873.0,0.101257324219,-0.0982055664062,0.676635742188,0.72265625,-0.375,0.5,-1.125,2.78,0.21,9.91
1541195626343238115,364,0,/imu_data_acquisition2,125885.0,0.101257324219,-0.0982055664062,0.676574707031,0.722717285156,-1.0625,2.375,-0.75,2.46,0.31,8.88
1541195626354250907,365,0,/imu_data_acquisition2,125891.0,0.10107421875,-0.0980834960938,0.676574707031,0.722778320312,-1.0625,2.375,-0.75,2.46,0.31,8.88
1541195626357835054,366,0,/imu_data_acquisition2,125902.0,0.100952148438,-0.00421142578125,-6.103515625e-05,0.722900390625,-0.25,2.25,-1.5,2.32,0.38,10.59
1541195626368956089,367,0,/imu_data_acquisition2,125912.0,0.100708007812,-0.0979614257812,0.676452636719,0.722961425781,-2.25,1.3125,-0.5,2.06,0.25,9.22
1541195626379565000,368,0,/imu_data_acquisition2,125923.0,0.100402832031,-0.0977783203125,0.676452636719,0.723022460938,-1.25,4.125,-0.875,2.89,0.03,8.41
1541195626389122962,369,0,/imu_data_acquisition2,125933.0,0.100158691406,-0.0977172851562,0.676391601562,0.72314453125,-0.5625,3.0,-1.3125,2.2,0.11,10.15
1541195626397634983,370,0,/imu_data_acquisition2,125940.0,0.0999755859375,-0.0975341796875,0.676330566406,0.723205566406,-0.5625,3.0,-1.3125,2.2,0.11,10.15
1541195626407248020,371,0,/imu_data_acquisition2,125952.0,0.0997924804688,-6.103515625e-05,-6.103515625e-05,0.723388671875,2.5,4.75,-2.5625,2.54,0.22,9.94
1541195626417758941,372,0,/imu_data_acquisition2,125962.0,0.0997314453125,-0.0966186523438,0.676147460938,0.723571777344,1.0625,3.0625,-2.1875,2.72,0.19,9.29
1541195626429728984,373,0,/imu_data_acquisition2,125973.0,0.0995483398438,-0.09619140625,0.676086425781,0.723693847656,1.6875,5.0,-2.125,2.88,0.2,9.12
1541195626440429925,374,0,/imu_data_acquisition2,125984.0,0.099365234375,-0.0957641601562,0.676025390625,0.723876953125,2.0,5.1875,-2.3125,2.01,0.69,9.6
1541195626447609901,375,0,/imu_data_acquisition2,125991.0,0.099365234375,-0.0952758789062,0.675964355469,0.723999023438,3.5,3.875,-2.0,2.01,0.69,-0.01
1541195626455296039,376,0,/imu_data_acquisition2,126000.0,0.0994262695312,-6.103515625e-05,-6.103515625e-05,0.72412109375,4.75,5.125,-2.6875,2.43,0.49,8.68
1541195626470458030,377,0,/imu_data_acquisition2,126013.0,0.09912109375,-0.093994140625,0.675842285156,0.724304199219,2.8125,8.8125,-2.125,2.58,0.64,8.82
1541195626480483055,378,0,/imu_data_acquisition2,126023.0,0.0989379882812,-0.093505859375,0.67578125,0.724426269531,2.4375,5.375,-1.8125,2.76,-0.7,9.7
1541195626488616943,379,0,/imu_data_acquisition2,126033.0,0.098388671875,-0.093017578125,0.67578125,0.724548339844,-1.25,8.375,-0.6875,3.05,-0.67,9.82
1541195626501554012,380,0,/imu_data_acquisition2,126042.0,0.0980834960938,-0.0929565429688,0.67578125,0.724609375,-2.3125,3.5,0.0625,3.05,-0.67,9.82
1541195626505765914,381,0,/imu_data_acquisition2,126050.0,0.0980834960938,-0.0923461914062,0.67578125,0.724670410156,4.8125,4.9375,-1.3125,2.72,0.03,9.85
1541195626517051935,382,0,/imu_data_acquisition2,126062.0,0.0980834960938,-0.0916748046875,0.675842285156,0.724731445312,5.5,5.5625,-0.0625,3.2,0.22,9.36
1541195626533054113,383,0,/imu_data_acquisition2,126074.0,0.0980834960938,-0.0911865234375,0.675903320312,0.724731445312,4.1875,4.5625,0.0,3.1,-0.01,-0.01
1541195626542392015,384,0,/imu_data_acquisition2,126084.0,0.097900390625,-0.0906982421875,0.676086425781,0.724670410156,2.125,5.875,1.5,2.72,0.08,9.8
1541195626546622991,385,0,/imu_data_acquisition2,126091.0,0.0977172851562,-0.0903930664062,0.67626953125,0.724548339844,1.0625,4.0625,2.3125,2.72,0.08,9.8
1541195626560628890,386,0,/imu_data_acquisition2,126101.0,0.0977783203125,-0.0896606445312,0.676330566406,0.724548339844,6.625,5.4375,-0.625,2.82,0.59,9.63
1541195626568344116,387,0,/imu_data_acquisition2,126111.0,0.0979614257812,-0.0889892578125,0.67626953125,0.724670410156,6.8125,4.375,-2.125,2.89,0.78,9.34
