%time,field.header.seq,field.header.stamp,field.header.frame_id,field.time_stamp,field.quat_x,field.quat_y,field.quat_z,field.quat_w,field.gyro_x,field.gyro_y,field.gyro_z,field.accel_x,field.accel_y,field.accel_z
1541194541267673969,134,0,/imu_data_acquisition2,237732.0,-0.07275390625,-0.07666015625,-0.0120849609375,0.994018554688,1.9375,2.125,-0.1875,1.6,-0.31,8.7
1541194541269704103,135,0,/imu_data_acquisition2,237742.0,-0.07275390625,-0.076171875,-0.0277709960938,0.994079589844,0.125,5.4375,0.1875,1.0,-1.4,11.0
1541194541279635906,136,0,/imu_data_acquisition2,237752.0,-0.07275390625,-0.076171875,-0.02783203125,0.994018554688,0.25,0.375,-0.75,2.13,-1.7,9.94
1541194541290148973,137,0,/imu_data_acquisition2,237762.0,-0.07275390625,-0.0761108398438,-0.02783203125,0.994079589844,0.3125,0.75,-0.125,2.14,-1.45,9.46
1541194541302371025,138,0,/imu_data_acquisition2,237775.0,-0.07275390625,-0.013427734375,-6.103515625e-05,0.994079589844,0.1875,2.3125,0.4375,1.56,-1.12,9.58
1541194541309289932,139,0,/imu_data_acquisition2,237781.0,-0.0726318359375,-0.075927734375,-0.02783203125,0.994079589844,0.8125,-0.0625,-0.0625,2.0,-1.03,9.34
1541194541319717884,140,0,/imu_data_acquisition2,237792.0,-0.072509765625,-0.0758666992188,-0.02783203125,0.994079589844,1.625,0.6875,0.4375,2.07,-1.12,9.65
1541194541330406904,141,0,/imu_data_acquisition2,237802.0,-0.0723266601562,-0.0757446289062,-0.02783203125,0.994140625,2.1875,1.6875,0.5,1.87,-1.4,9.59
1541194541339328050,142,0,/imu_data_acquisition2,237812.0,-0.0721435546875,-0.0755615234375,-0.0277709960938,0.994140625,2.4375,2.1875,0.8125,1.34,-0.99,9.95
1541194541349383115,143,0,/imu_data_acquisition2,237821.0,-0.0716552734375,-0.0756225585938,-0.0277099609375,0.994140625,2.5625,0.375,0.625,1.67,-0.83,9.81
1541194541359896898,144,0,/imu_data_acquisition2,237832.0,-0.0714721679688,-0.07568359375,-0.0277099609375,0.994201660156,2.4375,0.3125,0.1875,1.82,-0.96,9.92
1541194541369231939,145,0,/imu_data_acquisition2,237842.0,-0.0712280273438,-0.0131225585938,-6.103515625e-05,0.994201660156,2.375,0.75,-0.0625,1.92,-0.73,-0.01
1541194541380151987,146,0,/imu_data_acquisition2,237853.0,-0.071044921875,-0.0755004882812,-0.0276489257812,0.994201660156,2.25,1.25,-0.25,1.67,-1.04,9.56
1541194541391582012,147,0,/imu_data_acquisition2,237864.0,-0.0709228515625,-0.0752563476562,-0.0277099609375,0.994262695312,1.75,2.625,-0.0625,1.74,-1.05,9.63
1541194541404211044,148,0,/imu_data_acquisition2,237876.0,-0.0706787109375,-0.074951171875,-0.0120849609375,0.994262695312,2.8125,3.625,0.125,1.75,-0.88,8.95
1541194541409565925,149,0,/imu_data_acquisition2,237882.0,-0.0703735351562,-0.0747680664062,-0.0276489257812,0.994323730469,3.1875,2.8125,0.6875,2.66,-0.7,8.57
1541194541423310041,150,0,/imu_data_acquisition2,237893.0,-0.0700073242188,-0.0742797851562,-0.0274658203125,0.994384765625,4.25,5.1875,1.9375,1.99,-1.34,10.03
1541194541434000968,151,0,/imu_data_acquisition2,237905.0,-0.069580078125,-0.0737915039062,-0.0272216796875,0.994445800781,5.3125,5.75,3.125,1.82,-0.01,-0.01
1541194541441778898,152,0,/imu_data_acquisition2,237914.0,-0.0692138671875,-0.073486328125,-0.02685546875,0.994506835938,4.5,3.5,4.0,2.77,-0.82,-0.01
1541194541449537992,153,0,/imu_data_acquisition2,237922.0,-0.0689086914062,-0.07275390625,-0.0264892578125,0.99462890625,3.8125,-0.0625,-0.0625,0.96,-1.43,10.61
1541194541461059093,154,0,/imu_data_acquisition2,237933.0,-0.0686645507812,-0.0726928710938,-0.0263061523438,0.99462890625,3.0,0.75,2.5625,2.76,-1.42,9.3
1541194541472024917,155,0,/imu_data_acquisition2,237944.0,-6.103515625e-05,-6.103515625e-05,-6.103515625e-05,0.994689941406,0.6875,3.0625,1.5,1.78,-0.84,9.84
1541194541479619026,156,0,/imu_data_acquisition2,237952.0,-0.068603515625,-0.072265625,-0.0260620117188,0.994689941406,-0.5625,2.0625,1.375,2.06,-1.27,10.33
1541194541493149995,157,0,/imu_data_acquisition2,237965.0,-0.0687255859375,-0.0724487304688,-0.0259399414062,0.994689941406,-1.0625,-2.4375,1.3125,3.29,-0.53,8.74
1541194541500724077,158,0,/imu_data_acquisition2,237972.0,-0.069091796875,-0.0721435546875,-0.0257568359375,0.994689941406,-4.375,-0.0625,-0.0625,2.36,-1.22,9.61
1541194541510363101,159,0,/imu_data_acquisition2,237982.0,-6.103515625e-05,-6.103515625e-05,-6.103515625e-05,0.994689941406,-5.6875,4.4375,3.75,3.75,-0.01,-0.01
1541194541521190881,160,0,/imu_data_acquisition2,237992.0,-6.103515625e-05,-6.103515625e-05,-6.103515625e-05,0.994689941406,-6.125,9.75,4.1875,3.37,-0.71,9.3
1541194541534782886,161,0,/imu_data_acquisition2,238006.0,-0.0706787109375,-0.0692138671875,-0.0249633789062,0.994750976562,-6.8125,18.8125,5.4375,3.33,-0.86,9.38
1541194541542017936,162,0,/imu_data_acquisition2,238014.0,-0.0711669921875,-0.0667724609375,-0.0244140625,0.994934082031,-5.6875,28.4375,9.0625,3.61,-1.18,9.26
1541194541550681114,163,0,/imu_data_acquisition2,238022.0,-0.0714111328125,-0.0635986328125,-0.023681640625,0.9951171875,-3.3125,37.1875,-0.0625,3.73,-0.74,9.21
1541194541561209917,164,0,/imu_data_acquisition2,238033.0,-0.071533203125,-0.0592651367188,-0.0224609375,0.995422363281,-1.25,49.8125,17.9375,3.44,-0.93,9.44
1541194541572196960,165,0,/imu_data_acquisition2,238043.0,-0.071044921875,-0.0536499023438,-0.020751953125,0.995788574219,5.375,64.9375,24.6875,4.01,-0.23,8.98
1541194541580020904,166,0,/imu_data_acquisition2,238052.0,-0.0703125,-0.0462646484375,-0.0182495117188,0.996276855469,9.0625,85.875,35.3125,5.93,-0.19,8.0
1541194541592778921,167,0,/imu_data_acquisition2,238065.0,-0.0693969726562,-0.00439453125,-6.103515625e-05,0.996826171875,10.6875,123.125,45.6875,3.99,-0.14,8.56
1541194541600939989,168,0,/imu_data_acquisition2,238072.0,-0.0679321289062,-0.0230712890625,-0.0113525390625,0.997375488281,17.0625,145.25,53.875,1.77,-1.52,10.57
1541194541610236883,169,0,/imu_data_acquisition2,238082.0,-0.0653686523438,-0.008544921875,-0.0069580078125,0.997802734375,29.875,168.5,63.1875,5.4,-0.22,9.71
1541194541621285915,170,0,/imu_data_acquisition2,238092.0,-0.0154418945312,-6.103515625e-05,-6.103515625e-05,0.997985839844,35.125,209.625,70.0,4.66,0.4,8.97
1541194541633055925,171,0,/imu_data_acquisition2,238104.0,-0.059814453125,0.0313110351562,0.0030517578125,0.997741699219,27.875,254.5625,-0.0625,3.13,1.64,10.85
1541194541641233921,172,0,/imu_data_acquisition2,238113.0,-0.0596313476562,0.0565185546875,0.00982666015625,0.99658203125,-0.375,293.3125,97.8125,5.91,-0.01,-0.01
1541194541649580001,173,0,/imu_data_acquisition2,238122.0,-0.0625610351562,0.0869140625,0.0181274414062,0.994079589844,-6.0,-0.0625,-0.0625,1.56,2.88,10.75
1541194541662249088,174,0,/imu_data_acquisition2,238134.0,-0.0693969726562,0.11865234375,0.0282592773438,0.990112304688,-87.0625,372.0,135.9375,0.18,2.43,11.06
1541194541673609018,175,0,/imu_data_acquisition2,238143.0,-0.0792846679688,0.1494140625,0.040283203125,0.984741210938,-127.5625,361.6875,154.625,11.57,4.74,20.27
1541194541687303066,176,0,/imu_data_acquisition2,238158.0,-0.0892333984375,0.176452636719,0.0529174804688,0.978820800781,-130.8125,318.875,-0.0625,19.73,5.93,23.06
1541194541692895889,177,0,/imu_data_acquisition2,238164.0,-0.09375,0.197204589844,0.0638427734375,0.973754882812,-67.0625,242.375,141.9375,23.25,9.83,29.42
1541194541705903053,178,0,/imu_data_acquisition2,238173.0,-0.0907592773438,0.205932617188,0.0745239257812,0.971496582031,12.875,92.0,141.9375,11.63,12.26,31.73
1541194541717128992,179,0,/imu_data_acquisition2,238186.0,-0.0860595703125,0.2021484375,0.090576171875,0.971374511719,11.9375,-64.6875,192.0625,19.75,4.53,16.52
1541194541725692033,180,0,/imu_data_acquisition2,238197.0,-0.0791015625,0.189819335938,0.10791015625,0.97265625,26.3125,-170.125,201.6875,20.04,0.36,11.98
1541194541743406057,181,0,/imu_data_acquisition2,238206.0,-0.0718383789062,0.176879882812,0.123840332031,0.973754882812,32.75,-175.6875,186.625,14.02,-4.77,17.88
1541194541748250961,182,0,/imu_data_acquisition2,238217.0,-0.0650024414062,0.160217285156,0.137390136719,0.975341796875,27.1875,-217.375,153.75,9.26,-0.01,-0.01
1541194541753074884,183,0,/imu_data_acquisition2,238223.0,-0.05908203125,0.14013671875,0.147766113281,0.977294921875,17.5,-253.375,112.375,6.68,-12.55,13.73
1541194541763597965,184,0,/imu_data_acquisition2,238233.0,-6.103515625e-05,-6.103515625e-05,-6.103515625e-05,0.9794921875,10.625,-273.9375,62.0625,4.2,-11.57,11.31
1541194541775362968,185,0,/imu_data_acquisition2,238245.0,-0.0501708984375,0.0955200195312,0.156982421875,0.981689453125,1.0625,-271.25,21.25,-0.39,-8.43,10.61
1541194541780910968,186,0,/imu_data_acquisition2,238253.0,-0.0558471679688,0.0750122070312,0.160400390625,0.982604980469,-107.6875,-231.1875,18.875,-16.19,-35.69,16.39
1541194541791871070,187,0,/imu_data_acquisition2,238263.0,-0.0568237304688,0.050048828125,0.145385742188,0.986450195312,-42.5625,-282.375,-199.25,-16.71,-10.54,-0.67
1541194541804254055,188,0,/imu_data_acquisition2,238273.0,-0.0518798828125,0.028076171875,0.129760742188,0.989807128906,31.5,-256.25,-200.125,-7.41,18.01,-4.67
1541194541810590982,189,0,/imu_data_acquisition2,238283.0,-0.00408935546875,-6.103515625e-05,-6.103515625e-05,0.991760253906,-0.25,-4.4375,-0.0625,-20.97,16.75,-0.01
1541194541822611093,190,0,/imu_data_acquisition2,238294.0,-0.0545654296875,0.00640869140625,0.109619140625,0.992431640625,-55.75,-122.5,-87.8125,-8.77,5.9,8.45
1541194541832995891,191,0,/imu_data_acquisition2,238302.0,-0.05712890625,-0.00146484375,0.104919433594,0.992858886719,-40.0,-86.5625,-60.5625,-11.09,0.34,6.8
1541194541846347093,192,0,/imu_data_acquisition2,238317.0,-0.0579223632812,-0.0052490234375,0.100769042969,0.993225097656,-13.3125,-40.8125,-51.625,-8.99,-2.86,9.28
1541194541854120969,193,0,/imu_data_acquisition2,238325.0,-0.0595092773438,-0.005126953125,0.0974731445312,0.993469238281,-18.6875,5.8125,-39.375,-12.34,-10.08,20.25
1541194541863620996,194,0,/imu_data_acquisition2,238333.0,-0.0581665039062,-0.007080078125,0.0931396484375,0.993957519531,13.3125,-21.4375,-52.875,-8.81,-8.76,14.53
1541194541873261928,195,0,/imu_data_acquisition2,238345.0,-0.0556640625,-0.00885009765625,0.0875244140625,0.994567871094,27.875,-19.5625,-68.1875,-8.76,-5.93,6.31
1541194541883836984,196,0,/imu_data_acquisition2,238355.0,-0.053955078125,-0.00927734375,0.0813598632812,0.995178222656,18.9375,-2.75,-73.75,-7.42,-6.82,5.59
1541194541897156953,197,0,/imu_data_acquisition2,238364.0,-0.05419921875,-0.0078125,0.0746459960938,0.995727539062,-1.3125,21.8125,-78.0625,-6.13,-8.38,7.46
1541194541900234937,198,0,/imu_data_acquisition2,238372.0,-0.0551147460938,-0.00531005859375,0.066650390625,0.996215820312,-9.4375,35.3125,-13.0625,-3.66,-7.64,10.83
1541194541913465976,199,0,/imu_data_acquisition2,238384.0,-0.0564575195312,-0.00286865234375,0.0570678710938,0.996765136719,-14.0,36.125,-111.75,-3.19,-5.6,10.78
1541194541925503969,200,0,/imu_data_acquisition2,238394.0,-0.0581665039062,-0.00103759765625,0.0464477539062,0.997253417969,-18.625,30.125,-124.5625,-2.0,-3.21,8.99
1541194541930855989,201,0,/imu_data_acquisition2,238403.0,-0.0601196289062,0.000732421875,0.0354614257812,0.99755859375,-22.125,29.3125,-128.3125,0.03,0.57,8.91
1541194541942755937,202,0,/imu_data_acquisition2,238414.0,-0.0623168945312,0.00238037109375,0.02490234375,0.997741699219,-25.1875,28.0625,-123.75,1.34,1.48,9.8
1541194541956089019,203,0,/imu_data_acquisition2,238423.0,-6.103515625e-05,-6.103515625e-05,-6.103515625e-05,0.997802734375,-25.1875,21.625,-114.875,2.27,2.41,10.96
1541194541960793018,204,0,/imu_data_acquisition2,238433.0,-0.0662231445312,0.0035400390625,0.00628662109375,0.997802734375,-20.0625,7.125,-104.3125,3.32,3.38,10.95
1541194541972358942,205,0,/imu_data_acquisition2,238444.0,-6.103515625e-05,-6.103515625e-05,-6.103515625e-05,0.997741699219,-14.125,-10.125,-90.125,4.46,4.12,10.8
1541194541986057996,206,0,/imu_data_acquisition2,238453.0,-0.0680541992188,-0.00067138671875,-0.00738525390625,0.997680664062,-7.1875,-29.0625,-74.875,4.7,3.88,10.74
1541194541990912914,207,0,/imu_data_acquisition2,238463.0,-0.068115234375,-0.00506591796875,-0.01220703125,0.997619628906,-0.4375,-47.75,-60.125,4.86,3.34,10.49
1541194542002422094,208,0,/imu_data_acquisition2,238474.0,-0.06787109375,-0.010986328125,-0.015869140625,0.997497558594,3.25,-66.8125,-47.875,4.51,1.72,9.94
1541194542013983011,209,0,/imu_data_acquisition2,238483.0,-0.0050048828125,-6.103515625e-05,-6.103515625e-05,0.997375488281,5.25,-83.5,-38.1875,4.21,0.88,9.89
1541194542021065950,210,0,/imu_data_acquisition2,238493.0,-0.0670776367188,-0.0267333984375,-0.0206298828125,0.997192382812,6.3125,-98.5625,-31.0625,3.54,0.12,10.22
1541194542033128976,211,0,/imu_data_acquisition2,238504.0,-0.0668334960938,-0.036376953125,-0.022216796875,0.996826171875,4.5,-112.8125,-26.25,2.12,-1.45,10.34
1541194542043679952,212,0,/imu_data_acquisition2,238513.0,-0.0669555664062,-0.0469970703125,-0.0234985351562,0.996398925781,0.5625,-124.25,-23.75,1.35,-2.27,10.29
1541194542050606012,213,0,/imu_data_acquisition2,238522.0,-0.0674438476562,-0.0582275390625,-0.0247192382812,0.995727539062,-3.5,-132.125,-7.375,0.43,-2.86,10.27
1541194542061871051,214,0,/imu_data_acquisition2,238533.0,-0.0682983398438,-0.0699462890625,-0.0260620117188,0.994873046875,-8.5625,-137.6875,-25.0625,-0.55,-3.18,10.31
1541194542073312044,215,0,/imu_data_acquisition2,238543.0,-0.0696411132812,-0.081787109375,-0.0276489257812,0.993835449219,-14.375,-139.9375,-27.375,-2.43,-3.43,9.4
1541194542080364942,216,0,/imu_data_acquisition2,238552.0,-0.0712890625,-0.093505859375,-0.0138549804688,0.992614746094,-18.1875,-137.875,-30.0,-3.56,-3.02,8.81
1541194542091615915,217,0,/imu_data_acquisition2,238564.0,-0.0731201171875,-0.104797363281,-0.0314331054688,0.991333007812,-4.3125,-0.0625,-0.0625,-4.48,-2.41,7.87
1541194542103266000,218,0,/imu_data_acquisition2,238573.0,-0.0750732421875,-0.115051269531,-0.0332641601562,0.989990234375,-22.875,-121.1875,-12.3125,-6.34,-0.83,7.22
1541194542110214948,219,0,/imu_data_acquisition2,238582.0,-0.0773315429688,-0.123962402344,-0.03466796875,0.988647460938,-26.25,-106.0625,-21.875,-7.08,-0.03,6.87
1541194542122071981,220,0,/imu_data_acquisition2,238594.0,-0.080078125,-0.131103515625,-0.0355224609375,0.987487792969,-30.9375,-85.5625,-12.5,-7.64,0.02,5.42
1541194542132910966,221,0,/imu_data_acquisition2,238604.0,-0.083251953125,-0.135803222656,-0.0357055664062,0.986572265625,-4.3125,-0.0625,-0.0625,-8.65,-0.4,5.41
1541194542140815973,222,0,/imu_data_acquisition2,238612.0,-0.0868530273438,-0.138061523438,-0.03515625,0.985961914062,-41.1875,-29.5625,9.0625,-9.36,-0.8,6.58
1541194542151590108,223,0,/imu_data_acquisition2,238623.0,-0.0908813476562,-0.138305664062,-0.0341796875,0.985595703125,-45.125,-5.8125,17.875,-9.46,-1.34,7.32
1541194542166390895,224,0,/imu_data_acquisition2,238633.0,-0.0952758789062,-0.136962890625,-0.0327758789062,0.985412597656,-49.875,11.8125,24.5625,-2.18,-0.01,-0.01
1541194542173638105,225,0,/imu_data_acquisition2,238642.0,-0.0952758789062,-0.136962890625,-0.0327758789062,0.985412597656,-52.5,19.4375,27.125,-10.1,-2.9,8.76
1541194542182854890,226,0,/imu_data_acquisition2,238654.0,-0.104553222656,-0.132080078125,-0.0299682617188,0.985229492188,-53.125,30.3125,26.625,-10.22,-3.99,7.61
1541194542191163063,227,0,/imu_data_acquisition2,238663.0,-0.108215332031,-0.127868652344,-0.0292358398438,0.985412597656,-42.9375,47.375,19.5,-8.81,-4.62,4.71
1541194542203514099,228,0,/imu_data_acquisition2,238674.0,-0.110107421875,-0.121154785156,-0.0297241210938,0.986083984375,-24.5625,79.25,5.4375,-14.48,-9.96,-3.78
1541194542214384078,229,0,/imu_data_acquisition2,238682.0,-0.105102539062,-0.11181640625,-0.0321655273438,0.987609863281,53.8125,116.0,-23.0,-14.43,6.53,-2.73
1541194542220890998,230,0,/imu_data_acquisition2,238693.0,-0.0953369140625,-0.0944213867188,-0.0347290039062,0.990356445312,107.4375,214.125,-19.5,-8.1,8.03,15.19
1541194542235661983,231,0,/imu_data_acquisition2,238705.0,-0.0953369140625,-0.0944213867188,-0.0347290039062,0.990356445312,80.375,172.3125,-1.875,5.82,10.41,25.76
1541194542242059946,232,0,/imu_data_acquisition2,238713.0,-0.0800170898438,-0.0667724609375,-0.036376953125,0.993896484375,90.375,163.5625,-1.8125,-3.62,7.12,22.98
1541194542251806974,233,0,/imu_data_acquisition2,238723.0,-0.075439453125,-0.0576171875,-0.0354614257812,0.994873046875,51.0,109.6875,16.375,6.44,-14.67,17.06
1541194542263880968,234,0,/imu_data_acquisition2,238735.0,-0.0711059570312,-0.0498657226562,-0.03662109375,0.995544433594,47.75,94.375,-9.5625,-1.22,2.35,22.28
1541194542343756914,235,0,/imu_data_acquisition2,238743.0,-0.0711059570312,-0.0498657226562,-0.00537109375,0.995544433594,40.75,-32.6875,1.75,1.13,5.31,13.15
1541194542384509086,236,0,/imu_data_acquisition2,238752.0,-0.0678100585938,-0.052734375,-0.0360717773438,0.995666503906,27.5,-50.8125,14.25,5.29,1.38,-0.01
1541194542391521930,237,0,/imu_data_acquisition2,238764.0,-0.0659790039062,-0.0574951171875,-0.032958984375,0.99560546875,-2.125,-7.0625,17.8125,2.62,-2.42,9.78
1541194542394279956,238,0,/imu_data_acquisition2,238774.0,-0.0667724609375,-0.0576171875,-0.0321044921875,0.99560546875,-8.9375,-2.0625,10.25,-0.12,-0.38,12.33
1541194542396024942,239,0,/imu_data_acquisition2,238782.0,-0.00494384765625,-6.103515625e-05,-6.103515625e-05,0.995544433594,-7.0,-5.0625,6.5625,1.37,-0.01,-0.01
1541194542400842905,240,0,/imu_data_acquisition2,238793.0,-0.0674438476562,-0.0579833984375,-0.0315551757812,0.995544433594,-2.8125,-8.3125,3.25,1.97,-0.98,9.45
1541194542402937889,241,0,/imu_data_acquisition2,238803.0,-0.0676879882812,-0.0586547851562,-0.03125,0.995483398438,-3.875,-2.9375,1.625,2.06,-0.87,9.89
1541194542405106067,242,0,/imu_data_acquisition2,238813.0,-0.00555419921875,-6.103515625e-05,-6.103515625e-05,0.995483398438,-3.75,-4.625,0.3125,1.85,-0.9,9.96
1541194542415316104,243,0,/imu_data_acquisition2,238823.0,-0.005859375,-6.103515625e-05,-6.103515625e-05,0.995422363281,-4.0,-2.1875,0.3125,1.29,-1.09,9.65
1541194542418765068,244,0,/imu_data_acquisition2,238832.0,-0.0687255859375,-0.0125732421875,-6.103515625e-05,0.995361328125,-4.5,-0.0625,-0.0625,2.25,-1.14,9.64
1541194542421364068,245,0,/imu_data_acquisition2,238842.0,-0.006591796875,-6.103515625e-05,-6.103515625e-05,0.995361328125,-4.5,-1.3125,0.125,1.27,-0.71,-0.01
1541194542423171043,246,0,/imu_data_acquisition2,238853.0,-0.0693969726562,-0.0597534179688,-0.0311279296875,0.995300292969,-4.75,-0.0625,-0.0625,1.29,-1.73,10.86
1541194542425405979,247,0,/imu_data_acquisition2,238864.0,-0.070068359375,-0.0599365234375,-0.031005859375,0.995239257812,-2.9375,-4.9375,-0.375,2.64,-0.5,8.74
1541194542426485061,248,0,/imu_data_acquisition2,238872.0,-0.070068359375,-0.0599365234375,-0.031005859375,0.995239257812,-4.6875,0.875,0.5,1.03,-0.01,-0.01
1541194542427486896,249,0,/imu_data_acquisition2,238883.0,-0.0704345703125,-0.0598754882812,-0.0310668945312,0.995239257812,-5.75,-2.3125,-0.3125,1.75,-0.01,-0.01
1541194542429152965,250,0,/imu_data_acquisition2,238892.0,-0.0709228515625,-0.06005859375,-0.0310668945312,0.995178222656,-5.75,-2.3125,-0.3125,1.79,-0.69,9.82
1541194542434695959,251,0,/imu_data_acquisition2,238907.0,-0.0718994140625,-0.0601806640625,-0.0314331054688,0.9951171875,-6.4375,0.125,-2.0,1.29,-0.85,10.05
1541194542442351102,252,0,/imu_data_acquisition2,238914.0,-0.0718994140625,-0.0601806640625,-0.0314331054688,0.9951171875,-8.875,1.1875,-2.5625,1.83,-1.26,9.68
1541194542453960895,253,0,/imu_data_acquisition2,238924.0,-0.0726318359375,-0.06005859375,-0.0316772460938,0.995056152344,-7.875,0.4375,-3.75,1.33,-0.8,9.74
1541194542460653066,254,0,/imu_data_acquisition2,238933.0,-0.0733032226562,-0.06005859375,-0.0320434570312,0.994995117188,-10.8125,2.25,-3.4375,1.06,-1.3,9.93
1541194542472157001,255,0,/imu_data_acquisition2,238943.0,-0.0741577148438,-0.0598754882812,-0.0324096679688,0.994934082031,-10.75,-2.125,-4.6875,1.66,-1.62,9.49
1541194542483082056,256,0,/imu_data_acquisition2,238953.0,-0.0750732421875,-0.06005859375,-0.0328369140625,0.994812011719,-9.1875,-7.625,-4.4375,1.92,-0.01,-0.01
1541194542491765975,257,0,/imu_data_acquisition2,238964.0,-0.0133666992188,-6.103515625e-05,-6.103515625e-05,0.994689941406,-6.375,-15.6875,-3.5625,2.69,-0.87,9.34
1541194542504714965,258,0,/imu_data_acquisition2,238976.0,-0.0767822265625,-0.063720703125,-0.033447265625,0.994445800781,-4.0,-20.4375,-1.4375,2.59,-0.93,8.91
1541194542514269113,259,0,/imu_data_acquisition2,238984.0,-0.0767822265625,-0.063720703125,-0.033447265625,0.994445800781,-4.4375,-16.0,2.5625,2.31,-1.17,10.06
1541194542520520925,260,0,/imu_data_acquisition2,238993.0,-0.0772094726562,-0.0650634765625,-0.033203125,0.994323730469,-3.875,-14.0625,5.4375,2.4,-0.01,-0.01
1541194542533056020,261,0,/imu_data_acquisition2,239004.0,-0.07763671875,-0.066162109375,-0.0326538085938,0.994262695312,-2.5625,-6.3125,6.0625,2.32,-0.95,8.97
1541194542543203115,262,0,/imu_data_acquisition2,239015.0,-0.077880859375,-0.066650390625,-0.0321044921875,0.994201660156,-1.3125,-3.625,5.3125,1.1,-1.53,10.84
1541194542554477930,263,0,/imu_data_acquisition2,239025.0,-0.0780639648438,-0.00445556640625,-6.103515625e-05,0.994201660156,-1.25,-3.8125,3.375,2.12,-0.01,-0.01
1541194542565084934,264,0,/imu_data_acquisition2,239036.0,-0.078369140625,-0.0671997070312,-0.0311279296875,0.994140625,-2.1875,-0.375,2.4375,1.98,-0.83,9.24
1541194542572137117,265,0,/imu_data_acquisition2,239043.0,-0.078369140625,-0.0671997070312,-0.0155029296875,0.994140625,-2.1875,-0.375,2.4375,1.31,-1.44,10.55
1541194542579746007,266,0,/imu_data_acquisition2,239052.0,-6.103515625e-05,-6.103515625e-05,-6.103515625e-05,0.994140625,-1.6875,-2.8125,1.0625,2.02,-0.92,9.27
1541194542594801902,267,0,/imu_data_acquisition2,239066.0,-0.0786743164062,-0.067626953125,-0.031005859375,0.994140625,-1.9375,-0.9375,0.25,1.86,-1.12,-0.01
1541194542603080034,268,0,/imu_data_acquisition2,239075.0,-0.078857421875,-0.0676879882812,-0.0310668945312,0.994079589844,-1.625,-2.4375,0.0,1.6,-1.27,9.6
1541194542613332986,269,0,/imu_data_acquisition2,239084.0,-0.0789794921875,-0.06787109375,-0.031005859375,0.994079589844,-1.4375,-2.3125,-0.0625,1.31,-1.3,9.81
1541194542623194932,270,0,/imu_data_acquisition2,239095.0,-0.0791015625,-0.0680541992188,-0.031005859375,0.994079589844,-1.5625,-1.5625,0.0,1.27,-1.47,9.89
1541194542634383916,271,0,/imu_data_acquisition2,239106.0,-0.079345703125,-0.0684814453125,-0.031005859375,0.994018554688,-0.875,-2.9375,-0.0625,1.06,-1.37,10.0
1541194542644057989,272,0,/imu_data_acquisition2,239114.0,-0.079345703125,-0.0684814453125,-0.031005859375,0.994018554688,-0.6875,-2.4375,-0.1875,1.26,-1.07,9.58
1541194542653439998,273,0,/imu_data_acquisition2,239125.0,-0.0794067382812,-0.0686645507812,-0.031005859375,0.994018554688,-0.75,-3.5,-0.5,1.36,-0.01,-0.01
1541194542664833068,274,0,/imu_data_acquisition2,239133.0,-0.0794677734375,-0.0064697265625,-6.103515625e-05,0.993957519531,-0.5,-3.375,-0.9375,1.11,-0.01,-0.01
1541194542671555995,275,0,/imu_data_acquisition2,239144.0,-0.0794677734375,-0.0692749023438,-0.031005859375,0.993957519531,-1.0,-4.25,-1.1875,1.21,-1.1,9.72
1541194542683316946,276,0,/imu_data_acquisition2,239153.0,-0.079345703125,-0.0694580078125,-0.0311279296875,0.993957519531,-1.0,-4.25,-1.1875,1.18,-1.39,9.88
1541194542692225933,277,0,/imu_data_acquisition2,239164.0,-0.0792236328125,-0.0697021484375,-0.0311889648438,0.993957519531,-0.875,-5.25,-0.875,1.52,-1.21,9.55
1541194542702097892,278,0,/imu_data_acquisition2,239174.0,-0.0792236328125,-0.0701293945312,-0.03125,0.993896484375,-0.5625,-5.3125,-0.5,1.54,-1.3,9.57
1541194542714976072,279,0,/imu_data_acquisition2,239184.0,-0.0791625976562,-0.070556640625,-0.0311889648438,0.993896484375,-0.3125,-5.5625,0.125,1.49,-1.31,9.64
1541194542724139928,280,0,/imu_data_acquisition2,239195.0,-0.0791015625,-0.071044921875,-0.0311889648438,0.993835449219,0.125,-5.0,0.75,1.61,-1.23,9.65
1541194542733793020,281,0,/imu_data_acquisition2,239204.0,-0.0791015625,-0.0714721679688,-0.0310668945312,0.993835449219,0.125,-5.0,0.75,1.12,-1.27,9.74
1541194542753595113,283,0,/imu_data_acquisition2,239225.0,-0.0791015625,-0.0722045898438,-0.03076171875,0.993774414062,0.625,-5.5,-0.0625,2.0,-0.01,-0.01
1541194542762528896,284,0,/imu_data_acquisition2,239234.0,-0.0789184570312,-0.0728149414062,-0.0307006835938,0.993774414062,-0.5625,0.375,0.25,1.42,-0.01,-0.01
1541194542779159069,285,0,/imu_data_acquisition2,239243.0,-0.0786743164062,-0.0728759765625,-0.0307006835938,0.993774414062,-0.5625,0.375,0.25,1.42,-1.06,9.82
1541194542787863969,286,0,/imu_data_acquisition2,239254.0,-6.103515625e-05,-6.103515625e-05,-6.103515625e-05,0.993774414062,-0.625,-2.0625,-0.6875,1.5,-1.26,9.97
1541194542791748046,287,0,/imu_data_acquisition2,239264.0,-6.103515625e-05,-6.103515625e-05,-6.103515625e-05,0.993774414062,-0.3125,-2.125,-1.375,1.34,-1.38,9.99
1541194542808614015,288,0,/imu_data_acquisition2,239274.0,-6.103515625e-05,-6.103515625e-05,-6.103515625e-05,0.993713378906,-0.3125,-2.125,-1.375,1.6,-1.11,9.38
1541194542814157962,289,0,/imu_data_acquisition2,239285.0,-0.0785522460938,-0.0736083984375,-0.031005859375,0.993713378906,-0.75,-2.0,-1.125,1.28,-1.33,9.87
1541194542821439027,290,0,/imu_data_acquisition2,239293.0,-0.07861328125,-0.0737915039062,-0.0310668945312,0.993713378906,-0.75,-2.0,-1.125,1.07,-1.18,9.64
1541194542841353893,291,0,/imu_data_acquisition2,239306.0,-0.0786743164062,-0.073974609375,-0.0311889648438,0.99365234375,-0.75,-1.0625,-1.0625,1.45,-1.41,9.95
1541194542846782922,292,0,/imu_data_acquisition2,239315.0,-0.0787353515625,-0.0740966796875,-0.03125,0.99365234375,-0.3125,-3.6875,-1.25,1.95,-0.01,-0.01
1541194542852329015,293,0,/imu_data_acquisition2,239324.0,-6.103515625e-05,-6.103515625e-05,-6.103515625e-05,0.99365234375,0.1875,-2.625,-1.125,1.6,-1.25,-0.01
1541194542870352029,294,0,/imu_data_acquisition2,239336.0,-0.07861328125,-0.07470703125,-0.0314331054688,0.993591308594,1.125,-1.5,-0.4375,1.61,-1.49,10.08
1541194542876336097,295,0,/imu_data_acquisition2,239343.0,-6.103515625e-05,-6.103515625e-05,-6.103515625e-05,0.993591308594,1.125,-1.5,-0.4375,1.61,-1.49,10.08
1541194542882133007,296,0,/imu_data_acquisition2,239354.0,-0.078369140625,-0.0750122070312,-0.0313720703125,0.993591308594,1.4375,-1.875,-0.25,1.11,-0.86,9.74
1541194542894160985,297,0,/imu_data_acquisition2,239365.0,-0.0783081054688,-0.0751342773438,-0.0313720703125,0.993591308594,1.125,0.0625,0.6875,2.37,-1.01,9.17
1541194542903238058,298,0,/imu_data_acquisition2,239375.0,-0.0781860351562,-0.0751342773438,-0.0313110351562,0.993591308594,2.375,-1.4375,0.1875,1.56,-1.03,9.5
1541194542913371086,299,0,/imu_data_acquisition2,239385.0,-0.0780029296875,-0.0752563476562,-0.0313110351562,0.993591308594,1.9375,1.125,0.8125,1.23,-1.59,10.47
1541194542919517993,300,0,/imu_data_acquisition2,239392.0,-0.0778198242188,-0.0126953125,-6.103515625e-05,0.99365234375,1.9375,1.125,0.8125,1.23,-1.59,10.47
1541194542935297012,301,0,/imu_data_acquisition2,239405.0,-0.0151977539062,-6.103515625e-05,-6.103515625e-05,0.99365234375,1.75,-0.4375,0.875,1.64,-1.03,9.51
1541194542943686962,302,0,/imu_data_acquisition2,239415.0,-0.0775146484375,-0.0750732421875,-0.0310668945312,0.99365234375,2.9375,0.5,0.5,1.41,-1.02,8.88
1541194542954267978,303,0,/imu_data_acquisition2,239425.0,-0.0772094726562,-0.0750732421875,-0.0154418945312,0.993713378906,2.9375,0.5,0.5,0.72,-0.79,9.48
1541194542962996959,304,0,/imu_data_acquisition2,239435.0,-0.0145263671875,-6.103515625e-05,-6.103515625e-05,0.993713378906,2.9375,3.3125,0.6875,1.52,-1.53,10.61
1541194542972779989,305,0,/imu_data_acquisition2,239443.0,-0.0767822265625,-0.0746459960938,-0.031005859375,0.993774414062,2.9375,3.3125,0.6875,1.52,-1.53,10.61
1541194542980504989,306,0,/imu_data_acquisition2,239452.0,-0.0767211914062,-0.0743408203125,-0.031005859375,0.993774414062,0.8125,4.0625,0.4375,1.77,-2.49,11.02
1541194542992713928,307,0,/imu_data_acquisition2,239464.0,-0.0765991210938,-0.0118408203125,-6.103515625e-05,0.993774414062,1.5625,-0.0625,-1.0,1.59,-1.01,-0.01
1541194543003406047,308,0,/imu_data_acquisition2,239475.0,-0.0764770507812,-0.0741577148438,-0.0310668945312,0.993835449219,1.1875,2.0625,-0.375,1.26,-1.37,10.05
1541194543013269901,309,0,/imu_data_acquisition2,239484.0,-0.0763549804688,-0.0740356445312,-0.0154418945312,0.993835449219,1.25,1.625,0.125,2.36,-0.65,8.98
1541194543022202968,310,0,/imu_data_acquisition2,239493.0,-0.0762329101562,-0.073974609375,-0.0310668945312,0.993835449219,1.25,0.8125,0.4375,2.36,-0.65,8.98
1541194543034050941,311,0,/imu_data_acquisition2,239504.0,-0.0761108398438,-0.0737915039062,-0.0310668945312,0.993896484375,1.8125,1.6875,0.5,1.4,-1.62,9.93
1541194543042468070,312,0,/imu_data_acquisition2,239514.0,-0.0758666992188,-0.0735473632812,-0.031005859375,0.993896484375,2.75,2.875,0.9375,1.42,-0.94,9.64
1541194543053934097,313,0,/imu_data_acquisition2,239525.0,-0.0756225585938,-0.0732421875,-0.0308837890625,0.993957519531,3.125,3.9375,1.5,2.37,-1.04,9.59
1541194543063890933,314,0,/imu_data_acquisition2,239535.0,-0.0753173828125,-0.0728759765625,-0.0307006835938,0.994018554688,3.625,2.625,2.25,2.11,-0.97,9.21
1541194543069519996,315,0,/imu_data_acquisition2,239542.0,-0.0750122070312,-0.0726318359375,-0.014892578125,0.994079589844,3.625,2.625,2.25,2.11,-0.97,9.21
1541194543080667018,316,0,/imu_data_acquisition2,239552.0,-0.0120239257812,-6.103515625e-05,-6.103515625e-05,0.994140625,4.3125,6.3125,3.0,1.72,-1.42,9.85
1541194543092883110,317,0,/imu_data_acquisition2,239564.0,-0.0741577148438,-0.0718994140625,-0.0299682617188,0.994201660156,4.375,6.0,4.3125,2.32,-1.08,-0.01
1541194543101887941,318,0,/imu_data_acquisition2,239574.0,-0.0737915039062,-0.0712890625,-0.013916015625,0.994262695312,4.6875,7.125,5.1875,2.23,-0.95,9.56
1541194543112683057,319,0,/imu_data_acquisition2,239585.0,-0.0733642578125,-0.0707397460938,-0.029052734375,0.994384765625,4.9375,6.6875,5.5625,1.88,-0.75,10.12
1541194543121577978,320,0,/imu_data_acquisition2,239593.0,-0.0728759765625,-0.070068359375,-0.0286865234375,0.994445800781,5.6875,7.5625,4.5625,1.88,-0.75,10.12
1541194543130584955,321,0,/imu_data_acquisition2,239603.0,-0.072509765625,-0.0695190429688,-0.0283203125,0.994567871094,4.6875,6.3125,4.5625,2.1,-1.37,9.86
1541194543146294116,322,0,/imu_data_acquisition2,239615.0,-0.0722045898438,-0.0689697265625,-0.0280151367188,0.99462890625,3.625,6.1875,3.9375,2.48,-1.35,9.45
1541194543154633998,323,0,/imu_data_acquisition2,239625.0,-0.0718994140625,-0.0682373046875,-0.0277709960938,0.994689941406,3.6875,8.6875,3.3125,2.39,-0.93,-0.01
1541194543162825107,324,0,/imu_data_acquisition2,239635.0,-0.0714721679688,-0.00457763671875,-6.103515625e-05,0.994812011719,4.625,13.625,2.625,2.4,-0.76,9.81
1541194543173185110,325,0,/imu_data_acquisition2,239644.0,-0.0712890625,-0.0656127929688,-0.0274658203125,0.994934082031,2.125,17.0625,2.5,2.4,-0.01,-0.01
1541194543185398101,326,0,/imu_data_acquisition2,239654.0,-0.0713500976562,-0.0643920898438,-0.0274658203125,0.994995117188,-1.0,14.75,1.0625,2.28,-1.17,9.8
1541194543192034959,327,0,/imu_data_acquisition2,239664.0,-0.0715942382812,-0.0628662109375,-0.0274047851562,0.995056152344,-3.375,18.125,2.25,2.89,-1.02,9.44
1541194543205965995,328,0,/imu_data_acquisition2,239675.0,-0.0714111328125,-0.062744140625,-0.0274658203125,0.9951171875,-3.4375,25.6875,3.25,2.61,-0.66,9.27
1541194543217767953,329,0,/imu_data_acquisition2,239686.0,-0.0709228515625,-0.0625,-0.0274658203125,0.9951171875,-0.4375,38.6875,7.6875,2.55,-0.91,9.54
1541194543221452951,330,0,/imu_data_acquisition2,239693.0,-0.0702514648438,-0.0613403320312,-0.0272216796875,0.995300292969,-0.4375,38.6875,7.6875,2.55,-0.91,9.54
1541194543233076095,331,0,/imu_data_acquisition2,239705.0,-0.0700073242188,-0.057373046875,-0.0266723632812,0.995544433594,1.875,46.75,9.8125,3.03,-0.67,9.04
1541194543243140935,332,0,/imu_data_acquisition2,239715.0,-0.0697631835938,-0.00543212890625,-6.103515625e-05,0.995849609375,2.75,58.75,14.375,4.57,-0.52,8.17
1541194543252620935,333,0,/imu_data_acquisition2,239725.0,-0.0693359375,-0.0143432617188,-6.103515625e-05,0.996215820312,3.4375,78.875,18.875,2.66,-0.79,9.2
1541194543263564109,334,0,/imu_data_acquisition2,239735.0,-6.103515625e-05,-6.103515625e-05,-6.103515625e-05,0.996704101562,2.0,108.5625,25.625,3.11,-0.62,9.19
1541194543271532058,335,0,/imu_data_acquisition2,239743.0,-0.0682373046875,-0.0264282226562,-0.0211181640625,0.9970703125,8.3125,115.5625,31.0625,3.11,-0.62,9.19
1541194543280682086,336,0,/imu_data_acquisition2,239753.0,-0.0670166015625,-0.014404296875,-0.018798828125,0.997497558594,12.4375,139.9375,36.6875,3.91,-0.06,9.49
1541194543293198108,337,0,/imu_data_acquisition2,239765.0,-0.0655517578125,0.00042724609375,-0.01611328125,0.997741699219,14.625,173.3125,-0.0625,4.98,0.89,10.69
1541194543303711891,338,0,/imu_data_acquisition2,239775.0,-0.064453125,0.0184936523438,-0.0125122070312,0.997680664062,9.0,210.8125,56.1875,5.41,1.72,10.18
1541194543313075065,339,0,/imu_data_acquisition2,239785.0,-6.103515625e-05,-6.103515625e-05,-6.103515625e-05,0.997131347656,-1.75,244.0625,69.375,2.6,2.81,10.35
1541194543322793960,340,0,/imu_data_acquisition2,239793.0,-0.0657958984375,0.0645751953125,-6.103515625e-05,0.995727539062,-24.6875,293.25,86.5,2.6,2.81,10.35
1541194543334875106,341,0,/imu_data_acquisition2,239805.0,-0.0076904296875,-6.103515625e-05,-6.103515625e-05,0.9931640625,-59.75,335.0625,100.1875,0.38,1.81,11.46
1541194543343072891,342,0,/imu_data_acquisition2,239815.0,-0.0780029296875,0.123291015625,0.0128784179688,0.989196777344,-6.5625,-0.0625,-0.0625,14.45,2.38,23.53
1541194543355551004,343,0,/imu_data_acquisition2,239825.0,-0.0884399414062,0.153747558594,0.0225830078125,0.98388671875,-136.625,357.5625,127.4375,15.19,19.36,29.8
1541194543364008903,344,0,/imu_data_acquisition2,239835.0,-6.103515625e-05,-6.103515625e-05,-6.103515625e-05,0.978515625,-89.75,312.3125,110.5625,15.19,19.36,29.8
1541194543372935056,345,0,/imu_data_acquisition2,239843.0,-0.0927124023438,0.199951171875,0.0361938476562,0.974731445312,17.9375,228.375,93.0625,5.11,9.93,38.25
1541194543380933046,346,0,/imu_data_acquisition2,239852.0,-0.0890502929688,0.204650878906,0.0492553710938,0.973510742188,11.4375,41.1875,165.1875,23.58,6.99,11.52
1541194543393709897,347,0,/imu_data_acquisition2,239865.0,-0.0835571289062,0.197021484375,0.065673828125,0.974609375,20.1875,-111.125,193.75,15.83,-4.34,15.66
1541194543403435945,348,0,/imu_data_acquisition2,239875.0,-0.0774536132812,0.189636230469,0.0816040039062,0.975402832031,28.25,-107.0,190.4375,9.96,-10.44,14.95
1541194543416167020,349,0,/imu_data_acquisition2,239886.0,-0.0713500976562,0.178955078125,0.0953979492188,0.976623535156,30.6875,-144.75,161.6875,7.09,-10.61,9.28
1541194543421947956,350,0,/imu_data_acquisition2,239894.0,-0.0657348632812,0.164245605469,0.106506347656,0.978454589844,25.875,-190.125,125.9375,7.09,-10.61,9.28
1541194543433240890,351,0,/imu_data_acquisition2,239903.0,-0.06103515625,0.147033691406,0.114501953125,0.980590820312,19.125,-215.4375,85.5625,4.57,-10.19,10.49
1541194543441020965,352,0,/imu_data_acquisition2,239913.0,-0.0575561523438,0.129577636719,0.119323730469,0.982666015625,10.125,-214.6875,46.625,2.0,-9.91,11.43
1541194543454555988,353,0,/imu_data_acquisition2,239926.0,-0.0550537109375,0.111694335938,0.121398925781,0.984741210938,1.9375,-215.625,13.4375,-5.21,-6.65,9.07
1541194543464720964,354,0,/imu_data_acquisition2,239935.0,-6.103515625e-05,-6.103515625e-05,-6.103515625e-05,0.986755371094,-4.375,-218.5,-15.0625,-5.21,-6.65,9.07
1541194543469662904,355,0,/imu_data_acquisition2,239942.0,-0.0523681640625,0.0753784179688,0.119201660156,0.988586425781,-11.6875,-212.8125,-36.25,-7.45,-6.57,9.1
1541194543485088109,356,0,/imu_data_acquisition2,239953.0,-0.0521850585938,0.0586547851562,0.115966796875,0.990173339844,-17.4375,-195.5,-50.6875,-9.31,-6.34,8.71
1541194543493901968,357,0,/imu_data_acquisition2,239964.0,-0.05224609375,0.0435180664062,0.111450195312,0.991455078125,-17.3125,-175.0625,-63.5,-11.88,-4.77,7.01
1541194543504740953,358,0,/imu_data_acquisition2,239976.0,-0.0520629882812,0.0304565429688,0.106018066406,0.992553710938,-11.8125,-7.1875,-0.0625,-12.28,-4.14,7.84
1541194543514518022,359,0,/imu_data_acquisition2,239986.0,-0.0048828125,-6.103515625e-05,-6.103515625e-05,0.993408203125,-6.8125,-119.25,-76.4375,-12.58,-4.57,10.02
1541194543520730018,360,0,/imu_data_acquisition2,239992.0,-0.0514526367188,0.0120239257812,0.09423828125,0.994140625,-4.0625,-91.0,-74.75,-12.14,-5.64,10.3
1541194543531166076,361,0,/imu_data_acquisition2,240003.0,-0.0509643554688,0.005615234375,0.0883178710938,0.994750976562,-0.375,-73.0,-74.5,-11.52,-5.76,9.06
1541194543544918060,362,0,/imu_data_acquisition2,240016.0,-0.0503540039062,0.0006103515625,0.0820922851562,0.995361328125,2.8125,-55.8125,-12.875,-10.72,-5.72,8.05
1541194543557611942,363,0,/imu_data_acquisition2,240028.0,-0.0497436523438,-0.00262451171875,0.0755004882812,0.995910644531,3.8125,-34.625,-80.1875,-9.56,-5.55,7.68
1541194543563514947,364,0,/imu_data_acquisition2,240036.0,-0.0494995117188,-0.004150390625,-6.103515625e-05,0.996398925781,1.9375,-13.625,-84.3125,-6.59,-4.74,8.64
1541194543573740005,365,0,/imu_data_acquisition2,240044.0,-0.0496215820312,-0.00433349609375,0.0609741210938,0.996887207031,-1.5,2.125,-88.8125,-4.93,-3.81,8.91
1541194543581980943,366,0,/imu_data_acquisition2,240053.0,-0.0504150390625,-0.0035400390625,0.052978515625,0.997314453125,-8.9375,14.6875,-94.125,-3.55,-2.43,9.06
1541194543593396902,367,0,/imu_data_acquisition2,240065.0,-0.00433349609375,-6.103515625e-05,-6.103515625e-05,0.997680664062,-8.9375,14.6875,-94.125,-0.75,-0.34,9.57
1541194543607101917,368,0,/imu_data_acquisition2,240078.0,-0.0524291992188,-0.0023193359375,0.03759765625,0.997924804688,-14.8125,9.9375,-87.125,1.54,-0.01,-0.01
1541194543614752054,369,0,/imu_data_acquisition2,240086.0,-0.0535888671875,-0.0025634765625,0.0308227539062,0.998107910156,-13.5,2.3125,-80.0,1.54,1.33,9.35
1541194543624207019,370,0,/imu_data_acquisition2,240094.0,-0.0545043945312,-0.0035400390625,0.0247802734375,0.998229980469,-11.125,-8.0,-72.1875,3.41,2.23,9.39
1541194543630629062,371,0,/imu_data_acquisition2,240103.0,-0.05517578125,-0.00567626953125,0.01953125,0.998291015625,-8.75,-21.4375,-63.1875,3.99,-0.01,-0.01
1541194543642477989,372,0,/imu_data_acquisition2,240114.0,-0.0555419921875,-0.00909423828125,0.0150756835938,0.998291015625,-5.3125,-37.0625,-6.4375,4.32,-0.01,-0.01
1541194543655390977,373,0,/imu_data_acquisition2,240127.0,-0.0556640625,-0.0138549804688,0.011474609375,0.998291015625,-3.0,-53.9375,-45.6875,4.07,2.51,9.27
1541194543670397996,374,0,/imu_data_acquisition2,240134.0,-0.0557250976562,-0.00421142578125,-6.103515625e-05,0.998229980469,-2.0625,-69.125,-35.9375,4.07,2.51,9.27
1541194543673402070,375,0,/imu_data_acquisition2,240144.0,-0.0558471679688,-0.0270385742188,0.0069580078125,0.998046875,-2.3125,-83.5625,-26.1875,3.79,2.1,9.35
1541194543683372974,376,0,/imu_data_acquisition2,240153.0,-0.055908203125,-0.0353393554688,0.00592041015625,0.997802734375,-2.125,-98.0,-17.6875,3.13,1.66,9.85
1541194543693192005,377,0,/imu_data_acquisition2,240162.0,-0.05615234375,-0.0447387695312,0.005615234375,0.997375488281,-3.5,-110.9375,-9.75,1.94,0.98,10.41
1541194543704258918,378,0,/imu_data_acquisition2,240175.0,-0.056640625,-0.0551147460938,0.00592041015625,0.996826171875,-6.6875,-122.9375,-2.8125,1.25,0.35,10.42
1541194543714699029,379,0,/imu_data_acquisition2,240187.0,-0.0572509765625,-0.0662231445312,0.0067138671875,0.996154785156,-8.0625,-131.875,2.0625,-1.15,-0.87,10.73
1541194543721239089,380,0,/imu_data_acquisition2,240192.0,-0.0579833984375,-0.0779418945312,0.00775146484375,0.995239257812,-9.3125,-139.25,4.9375,-1.15,-0.87,-0.01
1541194543731755971,381,0,/imu_data_acquisition2,240203.0,-0.0588989257812,-0.0117797851562,-6.103515625e-05,0.994140625,-11.3125,-142.875,7.25,-2.05,-0.73,10.43
1541194543743019104,382,0,/imu_data_acquisition2,240213.0,-0.06005859375,-0.101867675781,0.0104370117188,0.992919921875,-14.6875,-143.0,10.1875,-2.76,-0.48,9.75
1541194543758022069,383,0,/imu_data_acquisition2,240228.0,-0.0615234375,-0.113098144531,0.01220703125,0.991577148438,-19.125,-117.5625,19.5,-5.02,0.54,8.6
1541194543767060995,384,0,/imu_data_acquisition2,240238.0,-0.063232421875,-0.122863769531,0.0142822265625,0.990295410156,-19.125,-117.5625,19.5,-6.04,0.78,9.47
1541194543775619029,385,0,/imu_data_acquisition2,240248.0,-0.0651245117188,-0.131042480469,0.0167236328125,0.989074707031,-4.875,-0.0625,-0.0625,-6.68,1.01,-0.01
1541194543780098915,386,0,/imu_data_acquisition2,240253.0,-0.0673217773438,-0.138000488281,0.0195922851562,0.987976074219,-23.5625,-85.3125,32.1875,-6.68,1.01,9.65
1541194543793509006,387,0,/imu_data_acquisition2,240265.0,-0.0701293945312,-0.1435546875,0.02294921875,0.986877441406,-29.9375,-68.75,39.9375,-8.04,0.55,9.83
1541194543804478883,388,0,/imu_data_acquisition2,240275.0,-0.0736694335938,-0.147766113281,0.0266723632812,0.985900878906,-4.625,-0.0625,-0.0625,-8.73,-0.3,9.59
1541194543811750888,389,0,/imu_data_acquisition2,240284.0,-0.0773315429688,-0.150573730469,0.0303344726562,0.985107421875,-37.875,-36.0,47.25,-9.21,-1.4,9.38
1541194543820940971,390,0,/imu_data_acquisition2,240293.0,-0.0807495117188,-0.151611328125,0.0338134765625,0.984558105469,-34.6875,-15.0625,45.8125,-10.21,-3.31,10.09
1541194543836338043,391,0,/imu_data_acquisition2,240307.0,-0.0836181640625,-0.151550292969,0.0367431640625,0.984191894531,-28.375,-2.1875,39.4375,-10.99,-5.12,8.34
1541194543846170902,392,0,/imu_data_acquisition2,240316.0,-0.0846557617188,-0.149597167969,0.0386352539062,0.984375,-7.5,22.125,25.9375,-10.67,-5.33,5.88
1541194543856710910,393,0,/imu_data_acquisition2,240327.0,-0.00616455078125,-6.103515625e-05,-6.103515625e-05,0.984985351562,7.75,47.6875,11.4375,-13.05,-4.7,4.72
1541194543866128921,394,0,/imu_data_acquisition2,240333.0,-0.0823974609375,-0.138854980469,0.0387573242188,0.986083984375,25.125,79.0,-4.0,-13.42,-9.45,-8.36
1541194543870132923,395,0,/imu_data_acquisition2,240342.0,-0.012451171875,-6.103515625e-05,-6.103515625e-05,0.98876953125,92.3125,175.875,-28.75,-15.94,1.74,3.16
1541194543881783962,396,0,/imu_data_acquisition2,240353.0,-0.0700073242188,-0.112121582031,0.0335083007812,0.990661621094,60.5,143.3125,-29.4375,8.38,-1.08,19.16
1541194543891658067,397,0,/imu_data_acquisition2,240362.0,-0.0648193359375,-0.102478027344,0.029296875,0.9921875,60.4375,116.5625,-48.75,3.91,7.55,21.48
1541194543900639057,398,0,/imu_data_acquisition2,240373.0,-0.0580444335938,-0.0944213867188,0.0269165039062,0.993469238281,80.125,95.25,-30.0,0.2,17.04,7.13
1541194543914585113,399,0,/imu_data_acquisition2,240386.0,-0.0549926757812,-0.00396728515625,-6.103515625e-05,0.994689941406,42.625,144.875,18.875,1.75,13.35,0.68
1541194543927172899,400,0,/imu_data_acquisition2,240393.0,-0.0578002929688,-0.00445556640625,-6.103515625e-05,0.99560546875,-25.75,178.6875,34.5,7.82,-18.16,29.44
1541194543930855989,401,0,/imu_data_acquisition2,240403.0,-0.0599365234375,-0.0562744140625,0.0291137695312,0.996215820312,-21.5,127.9375,-2.375,-20.94,-7.97,39.92
1541194543944273948,402,0,/imu_data_acquisition2,240416.0,-0.058349609375,-0.0648803710938,0.02978515625,0.995727539062,15.625,-102.8125,1.3125,3.27,4.01,-1.05
1541194543954778909,403,0,/imu_data_acquisition2,240425.0,-0.0560913085938,-0.0630493164062,0.0307006835938,0.995971679688,27.6875,20.1875,9.6875,-0.62,3.26,-0.01
1541194543961107015,404,0,/imu_data_acquisition2,240433.0,-0.0557250976562,-0.0653686523438,0.031982421875,0.995788574219,4.375,-28.1875,13.75,5.68,0.24,3.5
1541194543971155881,405,0,/imu_data_acquisition2,240443.0,-0.0570068359375,-0.0653686523438,0.0327758789062,0.995666503906,-13.875,-0.0625,10.5,-0.26,-1.57,13.82
1541194543983268022,406,0,/imu_data_acquisition2,240453.0,-0.0577392578125,-0.0662841796875,0.0338134765625,0.995544433594,-8.6875,-11.5625,11.9375,0.75,-1.28,10.74
1541194543990801095,407,0,/imu_data_acquisition2,240463.0,-0.0581665039062,-0.0665893554688,0.0349731445312,0.995483398438,-4.5,-4.5,14.125,1.03,-1.86,10.29
1541194544003581047,408,0,/imu_data_acquisition2,240475.0,-0.0584106445312,-0.0669555664062,0.0360107421875,0.995422363281,-2.0,-4.5625,11.75,0.83,-1.48,10.71
1541194544010627031,409,0,/imu_data_acquisition2,240482.0,-0.0585327148438,-0.0675048828125,0.0368041992188,0.995300292969,-0.8125,-7.0,9.1875,1.5,-1.4,10.28
1541194544021048069,410,0,/imu_data_acquisition2,240493.0,-0.0585327148438,-0.0681762695312,0.0374755859375,0.995239257812,0.0625,-8.75,7.75,1.92,-0.7,9.62
1541194544033545970,411,0,/imu_data_acquisition2,240505.0,-0.0586547851562,-0.0687255859375,0.0381469726562,0.995178222656,-0.875,-7.0,7.0625,1.48,-0.01,-0.01
1541194544043445110,412,0,/imu_data_acquisition2,240514.0,-0.0587158203125,-0.0693969726562,0.0386352539062,0.9951171875,-1.3125,-7.9375,5.625,1.68,-0.93,9.85
1541194544052495002,413,0,/imu_data_acquisition2,240524.0,-0.0588989257812,-0.0700073242188,0.0390014648438,0.995056152344,-1.625,-7.75,4.25,1.58,-0.86,-0.01
1541194544061824083,414,0,/imu_data_acquisition2,240533.0,-0.01220703125,-6.103515625e-05,-6.103515625e-05,0.994995117188,-2.25,-7.625,-0.0625,1.67,-0.85,-0.01
1541194544071597099,415,0,/imu_data_acquisition2,240543.0,-0.0592651367188,-0.0712280273438,0.0394897460938,0.994934082031,-2.4375,-6.375,1.8125,1.91,-0.79,9.74
1541194544083827972,416,0,/imu_data_acquisition2,240552.0,-0.0595703125,-0.0715942382812,0.03955078125,0.994873046875,-3.5,-4.3125,1.0625,1.98,-0.01,-0.01
1541194544090421915,417,0,/imu_data_acquisition2,240562.0,-0.0599365234375,-0.0718383789062,0.03955078125,0.994812011719,-4.375,-3.125,0.375,1.77,-1.02,9.83
1541194544102343082,418,0,/imu_data_acquisition2,240573.0,-0.060302734375,-0.0721435546875,0.03955078125,0.994812011719,-4.5,-3.25,-0.125,1.9,-0.83,9.46
1541194544114469051,419,0,/imu_data_acquisition2,240585.0,-0.013916015625,-6.103515625e-05,-6.103515625e-05,0.994750976562,-5.9375,-1.3125,-0.0625,1.52,-1.06,-0.01
1541194544121179103,420,0,/imu_data_acquisition2,240593.0,-0.061279296875,-0.072509765625,0.0394897460938,0.994689941406,-6.0,-2.625,-0.5,2.14,-1.08,9.72
1541194544133337020,421,0,/imu_data_acquisition2,240603.0,-0.061279296875,-0.0735473632812,0.039306640625,0.99462890625,-5.3125,-1.8125,-1.1875,2.2,-0.82,9.52
1541194544143074035,422,0,/imu_data_acquisition2,240614.0,-0.0616455078125,-0.07373046875,0.0391235351562,0.99462890625,-7.0625,1.0,-1.1875,1.44,-1.15,10.16
1541194544153340101,423,0,/imu_data_acquisition2,240625.0,-0.0621337890625,-0.0739135742188,0.038818359375,0.994567871094,-7.875,0.3125,-2.4375,1.51,-0.99,9.7
1541194544163192033,424,0,/imu_data_acquisition2,240632.0,-0.0628051757812,-0.0736694335938,0.0384521484375,0.994567871094,-8.5625,3.375,-0.0625,0.82,-0.98,10.3
1541194544176022052,425,0,/imu_data_acquisition2,240647.0,-0.0636596679688,-0.07373046875,0.0379638671875,0.994506835938,-10.0,-0.375,-5.1875,1.08,-1.36,9.8
1541194544181957960,426,0,/imu_data_acquisition2,240653.0,-0.064453125,-0.0740356445312,0.0374145507812,0.994445800781,-10.0,-3.0,-6.25,1.39,-1.32,9.84
1541194544191591024,427,0,/imu_data_acquisition2,240662.0,-0.06494140625,-0.0750732421875,0.036865234375,0.994384765625,-6.75,-11.125,-6.8125,2.05,-0.72,9.44
1541194544202238082,428,0,/imu_data_acquisition2,240674.0,-0.0653076171875,-0.0764770507812,0.0364990234375,0.994262695312,-5.1875,-16.25,-4.625,2.74,-0.69,9.09
1541194544212598085,429,0,/imu_data_acquisition2,240683.0,-0.0655517578125,-0.0778198242188,0.0364990234375,0.994140625,-3.5,-16.0,-0.0625,2.19,-0.97,9.29
1541194544219890117,430,0,/imu_data_acquisition2,240692.0,-0.06591796875,-0.078857421875,0.0368041992188,0.994018554688,-4.875,-0.0625,-0.0625,2.01,-1.34,9.83
1541194544231014966,431,0,/imu_data_acquisition2,240702.0,-6.103515625e-05,-6.103515625e-05,-6.103515625e-05,0.993896484375,-3.0,-9.625,5.75,1.35,-1.28,9.57
1541194544241693973,432,0,/imu_data_acquisition2,240713.0,-0.0663452148438,-0.0802612304688,0.037841796875,0.993835449219,-1.5,-7.4375,6.0,1.03,-1.57,10.69
1541194544250258922,433,0,/imu_data_acquisition2,240723.0,-0.0663452148438,-0.0806274414062,0.038330078125,0.993774414062,-0.375,-4.375,4.875,1.49,-1.31,10.27
1541194544264503002,434,0,/imu_data_acquisition2,240735.0,-0.06640625,-0.0808715820312,0.03857421875,0.993774414062,-0.9375,-3.3125,3.1875,1.67,-0.76,9.36
1541194544276799917,435,0,/imu_data_acquisition2,240742.0,-0.0665893554688,-0.0810546875,0.0387573242188,0.993713378906,-1.625,-2.375,2.0625,1.24,-1.28,10.57
1541194544388046026,436,0,/imu_data_acquisition2,240753.0,-0.0667114257812,-0.0813598632812,0.0388793945312,0.993713378906,-1.75,-3.6875,1.0,1.32,-0.8,-0.01
1541194544450917959,437,0,/imu_data_acquisition2,240763.0,-0.06689453125,-0.08154296875,0.0389404296875,0.99365234375,-2.375,-1.625,1.125,0.62,-1.68,10.76
1541194544454241037,438,0,/imu_data_acquisition2,240775.0,-0.0670166015625,-0.0820922851562,0.0390014648438,0.993591308594,-1.0,-6.625,-0.3125,2.4,-1.1,9.08
1541194544455957889,439,0,/imu_data_acquisition2,240783.0,-0.00457763671875,-6.103515625e-05,-6.103515625e-05,0.993591308594,-0.875,-1.375,0.625,1.18,-1.03,9.6
1541194544457865953,440,0,/imu_data_acquisition2,240793.0,-0.067138671875,-0.0824584960938,0.0390625,0.993591308594,-0.875,-3.25,0.4375,0.76,-1.56,10.42
1541194544459101915,444,0,/imu_data_acquisition2,240833.0,-6.103515625e-05,-6.103515625e-05,-6.103515625e-05,0.993408203125,0.1875,-6.25,-0.0625,1.65,-0.9,9.47
1541194544461096048,445,0,/imu_data_acquisition2,240841.0,-0.00457763671875,-6.103515625e-05,-6.103515625e-05,0.993408203125,-0.1875,-3.875,-0.125,0.8,-1.09,-0.01
1541194544462457895,446,0,/imu_data_acquisition2,240851.0,-0.0670166015625,-0.0849609375,0.0392456054688,0.993347167969,0.0625,-6.3125,-0.5,1.56,-1.08,-0.01
1541194544464540004,447,0,/imu_data_acquisition2,240861.0,-0.0670166015625,-0.0853881835938,0.0392456054688,0.993286132812,-0.0625,-5.125,-0.3125,1.22,-0.01,-0.01
1541194544465528011,448,0,/imu_data_acquisition2,240871.0,-0.0670166015625,-0.0859375,0.039306640625,0.993286132812,0.0625,-6.125,-0.5625,1.6,-0.99,9.47
1541194544466934919,449,0,/imu_data_acquisition2,240882.0,-0.0669555664062,-0.0863647460938,0.039306640625,0.993225097656,0.0625,-0.0625,-0.0625,1.57,-0.92,9.21
1541194544468817949,450,0,/imu_data_acquisition2,240891.0,-6.103515625e-05,-6.103515625e-05,-6.103515625e-05,0.993225097656,-0.5,-4.75,0.375,0.97,-1.55,10.44
1541194544471852064,451,0,/imu_data_acquisition2,240902.0,-0.0669555664062,-0.08740234375,0.0393676757812,0.9931640625,-0.1875,-7.375,-0.0625,2.12,-0.89,8.78
1541194544473126888,452,0,/imu_data_acquisition2,240911.0,-0.0670166015625,-0.08740234375,0.0393676757812,0.9931640625,-0.875,0.1875,0.25,2.07,-0.86,9.0
1541194544474863052,453,0,/imu_data_acquisition2,240922.0,-0.0670166015625,-0.0875854492188,0.0393676757812,0.993103027344,-0.25,-2.25,-0.3125,1.09,-1.47,10.22
1541194544476686954,454,0,/imu_data_acquisition2,240932.0,-0.0670166015625,-0.0877685546875,0.0394287109375,0.993103027344,-0.25,-2.3125,-0.3125,1.89,-0.01,-0.01
1541194544479500055,455,0,/imu_data_acquisition2,240942.0,-0.0045166015625,-6.103515625e-05,-6.103515625e-05,0.993103027344,-0.1875,-0.4375,0.25,1.17,-1.41,10.18
1541194544483707904,456,0,/imu_data_acquisition2,240952.0,-0.0670166015625,-0.0877685546875,0.0394287109375,0.993103027344,0.125,-0.3125,0.3125,1.34,-1.44,9.95
1541194544495284080,457,0,/imu_data_acquisition2,240968.0,-0.0669555664062,-0.087890625,0.0394287109375,0.993103027344,0.4375,-1.3125,-0.0625,1.15,-0.92,9.81
1541194544503334045,458,0,/imu_data_acquisition2,240973.0,-0.00445556640625,-6.103515625e-05,-6.103515625e-05,0.993103027344,0.25,-1.375,-0.3125,1.55,-1.49,9.89
1541194544511795043,459,0,/imu_data_acquisition2,240984.0,-0.0669555664062,-0.088134765625,0.0393676757812,0.993041992188,0.5,-1.625,-0.6875,1.55,-1.26,9.77
1541194544524116992,460,0,/imu_data_acquisition2,240993.0,-6.103515625e-05,-6.103515625e-05,-6.103515625e-05,0.993041992188,0.3125,-1.875,-0.9375,1.4,-1.13,9.9
1541194544530800104,461,0,/imu_data_acquisition2,241003.0,-0.00433349609375,-6.103515625e-05,-6.103515625e-05,0.993041992188,0.375,-2.3125,-1.375,1.62,-1.11,9.46
1541194544541254043,462,0,/imu_data_acquisition2,241013.0,-0.0667114257812,-0.0885009765625,0.0390625,0.993041992188,0.3125,-1.6875,-1.5,1.48,-1.1,9.63
1541194544552241086,463,0,/imu_data_acquisition2,241022.0,-0.0665283203125,-0.088623046875,0.0389404296875,0.993103027344,0.5625,-2.6875,-2.0,1.41,-1.04,9.64
1541194544560640096,464,0,/imu_data_acquisition2,241032.0,-0.0662841796875,-0.0886840820312,0.0387573242188,0.993103027344,0.5625,-2.8125,-2.0625,1.5,-1.04,-0.01
1541194544571263074,465,0,/imu_data_acquisition2,241043.0,-0.0660400390625,-0.0887451171875,0.03857421875,0.993103027344,0.4375,-2.5625,-1.9375,1.45,-1.0,9.69
1541194544583751916,466,0,/imu_data_acquisition2,241054.0,-0.06591796875,-0.0889892578125,0.0384521484375,0.993103027344,0.375,-3.0625,-2.0,1.84,-1.11,9.75
1541194544592760086,467,0,/imu_data_acquisition2,241064.0,-0.0657348632812,-0.0891723632812,0.0382690429688,0.993103027344,0.375,-1.75,-1.8125,1.77,-1.0,9.64
1541194544602850914,468,0,/imu_data_acquisition2,241074.0,-0.0656127929688,-0.0892333984375,0.0382080078125,0.993103027344,0.125,-1.6875,-1.1875,1.4,-1.33,10.04
1541194544611659049,469,0,/imu_data_acquisition2,241082.0,-0.0656127929688,-0.08935546875,0.0381469726562,0.993103027344,0.5,-1.375,-0.6875,1.42,-1.5,10.29
1541194544622992992,470,0,/imu_data_acquisition2,241094.0,-0.0656127929688,-0.0895385742188,0.0380249023438,0.993103027344,0.5,-2.5625,-1.3125,2.01,-0.61,9.16
1541194544634500980,471,0,/imu_data_acquisition2,241105.0,-0.0656127929688,-0.0895385742188,0.0380249023438,0.993103027344,0.4375,0.3125,-0.5625,1.28,-1.32,10.19
1541194544641675949,472,0,/imu_data_acquisition2,241113.0,-0.065185546875,-0.0892944335938,0.0379638671875,0.9931640625,1.125,-1.25,-0.8125,1.07,-0.86,9.31
1541194544651446104,473,0,/imu_data_acquisition2,241123.0,-0.065185546875,-0.089111328125,0.0379638671875,0.9931640625,0.6875,2.8125,-0.5625,1.02,-0.82,9.68
1541194544662149906,474,0,/imu_data_acquisition2,241132.0,-0.0650634765625,-0.0889892578125,0.0379028320312,0.9931640625,1.125,1.125,-0.625,1.03,-0.79,9.61
1541194544673398017,475,0,/imu_data_acquisition2,241144.0,-0.0650634765625,-0.0888061523438,0.0379028320312,0.993225097656,0.125,2.25,-0.5625,1.99,-1.84,10.04
1541194544682871103,476,0,/imu_data_acquisition2,241153.0,-0.0650634765625,-0.0888061523438,0.0379028320312,0.993225097656,-0.5625,2.125,-0.0625,1.51,-1.8,10.34
1541194544691445112,477,0,/imu_data_acquisition2,241162.0,-0.0650634765625,-0.088623046875,0.037841796875,0.993225097656,-0.5625,1.625,-0.3125,1.7,-1.38,9.8
1541194544701894044,478,0,/imu_data_acquisition2,241173.0,-0.0650634765625,-0.08837890625,0.0377807617188,0.993225097656,0.0,1.25,-0.1875,1.64,-1.31,9.82
1541194544712599039,479,0,/imu_data_acquisition2,241183.0,-0.0650634765625,-0.0881958007812,0.0377807617188,0.993225097656,0.5625,2.1875,-0.1875,1.37,-1.5,10.3
1541194544723392009,480,0,/imu_data_acquisition2,241192.0,-0.0650024414062,-0.0881958007812,0.0377807617188,0.993286132812,0.9375,-0.25,-0.0625,2.25,-0.92,9.0
1541194544732073068,481,0,/imu_data_acquisition2,241204.0,-0.0648803710938,-0.0880737304688,0.0377807617188,0.993286132812,1.625,1.375,0.25,1.81,-1.35,9.87
1541194544740818023,482,0,/imu_data_acquisition2,241212.0,-0.0648803710938,-0.0880737304688,0.0377807617188,0.993286132812,2.5,2.625,0.4375,1.5,-1.31,10.23
1541194544749876022,483,0,/imu_data_acquisition2,241222.0,-0.0645141601562,-0.0879516601562,0.037841796875,0.993286132812,2.125,-1.375,0.125,2.22,-0.72,8.83
1541194544761838912,484,0,/imu_data_acquisition2,241233.0,-6.103515625e-05,-6.103515625e-05,-6.103515625e-05,0.993347167969,2.875,2.125,0.0,0.78,-0.01,-0.01
1541194544774230957,485,0,/imu_data_acquisition2,241244.0,-0.0640258789062,-0.087890625,0.0379028320312,0.993347167969,2.9375,-1.5625,-0.5625,1.57,-1.33,9.86
1541194544779887914,486,0,/imu_data_acquisition2,241252.0,-0.0640258789062,-0.087890625,0.0379028320312,0.993347167969,2.875,2.125,-0.0625,1.35,-0.51,9.51
1541194544792570114,487,0,/imu_data_acquisition2,241263.0,-0.0637817382812,-0.0877075195312,0.0379028320312,0.993408203125,3.25,3.5,0.6875,1.62,-1.65,9.88
1541194544803277015,488,0,/imu_data_acquisition2,241273.0,-0.063232421875,-0.0872802734375,0.0379638671875,0.993469238281,3.3125,1.3125,-0.0625,2.39,-0.9,9.21
1541194544810897111,489,0,/imu_data_acquisition2,241282.0,-6.103515625e-05,-6.103515625e-05,-6.103515625e-05,0.993469238281,3.625,4.125,0.75,2.19,-1.45,9.9
1541194544821912050,490,0,/imu_data_acquisition2,241293.0,-0.0626220703125,-0.08642578125,0.0381469726562,0.993530273438,4.1875,5.3125,1.3125,2.61,-0.65,9.23
1541194544835262060,491,0,/imu_data_acquisition2,241305.0,-0.062255859375,-0.0858154296875,0.038330078125,0.99365234375,4.6875,6.75,1.875,2.06,-1.12,9.73
1541194544840399026,492,0,/imu_data_acquisition2,241312.0,-0.062255859375,-0.0858154296875,0.038330078125,0.99365234375,5.125,7.4375,2.5,2.38,-1.35,9.45
1541194544852813005,493,0,/imu_data_acquisition2,241323.0,-0.0618896484375,-0.0851440429688,0.0385131835938,0.993713378906,4.3125,7.75,2.8125,2.52,-1.23,9.28
1541194544863496065,494,0,/imu_data_acquisition2,241333.0,-0.061279296875,-0.083740234375,0.0389404296875,0.993835449219,3.4375,8.5625,2.6875,2.47,-1.48,9.69
1541194544873203992,495,0,/imu_data_acquisition2,241343.0,-0.0609741210938,-0.0050048828125,-6.103515625e-05,0.993896484375,3.875,7.0625,1.375,2.31,-1.35,10.18
1541194544881688117,496,0,/imu_data_acquisition2,241353.0,-0.0609741210938,-0.0831298828125,0.0390625,0.993896484375,2.8125,6.625,1.0,2.87,-0.7,-0.01
1541194544891212940,497,0,/imu_data_acquisition2,241362.0,-0.013916015625,-6.103515625e-05,-6.103515625e-05,0.993957519531,2.8125,6.625,1.0,2.29,-1.46,10.33
1541194544900976896,498,0,/imu_data_acquisition2,241373.0,-0.0606689453125,-0.0819702148438,0.0391845703125,0.994018554688,1.5,4.625,-0.0625,2.52,-1.39,9.92
1541194544912214040,499,0,/imu_data_acquisition2,241383.0,-0.060546875,-0.08154296875,0.0391235351562,0.994079589844,-1.0,6.5,2.1875,3.26,-0.01,-0.01
1541194544924942016,500,0,/imu_data_acquisition2,241395.0,-0.0609130859375,-0.0801391601562,0.0394897460938,0.994140625,-2.25,10.1875,3.25,3.12,-1.54,9.62
1541194544931382894,501,0,/imu_data_acquisition2,241403.0,-0.0611572265625,-0.0787963867188,0.0396728515625,0.994201660156,-2.125,15.4375,3.0625,3.29,-0.64,8.94
1541194544942426919,502,0,/imu_data_acquisition2,241414.0,-0.0611572265625,-0.0787963867188,0.0396728515625,0.994201660156,-2.5,25.0625,6.25,2.85,-0.79,9.13
1541194544953620910,503,0,/imu_data_acquisition2,241424.0,-0.0615234375,-0.07666015625,0.0400390625,0.994323730469,-0.875,33.625,8.75,2.53,-1.32,9.59
1541194544961354017,504,0,/imu_data_acquisition2,241433.0,-0.061767578125,-0.0737915039062,0.0405883789062,0.994506835938,-0.25,41.25,10.0625,2.43,-0.82,-0.01
1541194544973156929,505,0,/imu_data_acquisition2,241444.0,-0.0619506835938,-0.0703125,0.041259765625,0.994750976562,0.8125,49.9375,12.4375,3.3,-0.75,9.09
1541194544982542037,506,0,/imu_data_acquisition2,241452.0,-0.0621337890625,-0.0660400390625,0.0420532226562,0.994995117188,3.0625,64.75,-0.0625,4.41,-0.34,8.59
1541194544991297006,507,0,/imu_data_acquisition2,241463.0,-0.0621948242188,-0.0604858398438,0.0430297851562,0.995300292969,5.875,88.0,22.25,3.24,-0.03,8.63
1541194545003012895,508,0,/imu_data_acquisition2,241475.0,-0.0621337890625,-0.052978515625,0.04443359375,0.995666503906,2.75,113.875,30.375,2.77,-0.31,8.82
1541194545012001991,509,0,/imu_data_acquisition2,241483.0,-0.0624389648438,-0.043212890625,0.0464477539062,0.996032714844,14.125,120.0625,32.9375,2.67,-0.01,-0.01
1541194545023066043,510,0,/imu_data_acquisition2,241495.0,-0.0611572265625,-0.0199584960938,0.0513916015625,0.99658203125,16.75,150.3125,41.6875,3.23,-0.16,9.0
1541194545033379077,511,0,/imu_data_acquisition2,241504.0,-0.0611572265625,-0.0199584960938,0.0513916015625,0.99658203125,17.625,187.9375,50.5,2.2,0.01,9.57
1541194545042253971,512,0,/imu_data_acquisition2,241514.0,-0.060546875,-0.0037841796875,0.0546875,0.996643066406,12.0625,223.375,62.875,5.61,-0.61,10.08
