%time,field.header.seq,field.header.stamp,field.header.frame_id,field.time_stamp,field.quat_x,field.quat_y,field.quat_z,field.quat_w,field.gyro_x,field.gyro_y,field.gyro_z,field.accel_x,field.accel_y,field.accel_z
1542401877681236028,132,0,/imu_data_acquisition2,52642.0,0.04052734375,0.0394287109375,0.706604003906,0.705322265625,-6.625,-131.25,75.875,-14.95,-3.28,6.19
1542401877690592050,133,0,/imu_data_acquisition2,52651.0,0.0491333007812,0.0315551757812,0.709838867188,0.701965332031,6.125,-0.0625,-0.0625,-14.51,-2.87,3.88
1542401877700444936,134,0,/imu_data_acquisition2,52661.0,0.0491333007812,0.0315551757812,0.709838867188,0.701965332031,3.625,-129.875,45.875,-13.35,-2.97,1.21
1542401877711478948,135,0,/imu_data_acquisition2,52671.0,0.0573120117188,0.0238647460938,0.711975097656,0.699462890625,-9.1875,-111.25,28.4375,-10.87,-3.54,-2.82
1542401877721142053,136,0,/imu_data_acquisition2,52683.0,0.067138671875,0.0106201171875,-6.103515625e-05,0.697387695312,-20.125,-79.75,13.375,-10.27,-3.54,-3.04
1542401877731148004,137,0,/imu_data_acquisition2,52691.0,0.068115234375,0.00653076171875,0.713256835938,0.697570800781,-26.0625,-42.1875,0.5625,-9.56,-3.36,-3.02
1542401877741352081,138,0,/imu_data_acquisition2,52701.0,0.068115234375,0.00653076171875,0.713256835938,0.697570800781,-26.625,-0.1875,-10.875,-10.2,-2.3,1.02
1542401877748111009,139,0,/imu_data_acquisition2,52710.0,0.0665283203125,0.0050048828125,0.712585449219,0.698364257812,-26.6875,37.75,-20.6875,-10.64,-1.56,3.81
1542401877757858991,140,0,/imu_data_acquisition2,52720.0,0.0626831054688,0.0057373046875,0.711608886719,0.699768066406,-26.6875,37.75,-20.6875,-5.12,0.34,5.66
1542401877768682956,141,0,/imu_data_acquisition2,52730.0,0.0574951171875,0.00799560546875,0.710327148438,0.701477050781,-34.25,83.0,-28.5,1.43,0.04,19.97
1542401877779417037,142,0,/imu_data_acquisition2,52740.0,0.0504760742188,0.010986328125,0.709045410156,0.703308105469,-42.3125,98.5625,-29.4375,2.24,0.9,8.99
1542401877789572000,143,0,/imu_data_acquisition2,52750.0,0.0419921875,0.0144653320312,0.707702636719,0.705078125,-30.25,85.375,-42.3125,1.15,1.57,1.61
1542401877797863960,144,0,/imu_data_acquisition2,52760.0,0.0350341796875,0.0178833007812,0.705505371094,0.707580566406,-30.25,85.375,-42.3125,0.33,1.12,8.62
1542401877809505939,145,0,/imu_data_acquisition2,52770.0,0.0272827148438,0.0224609375,0.703369140625,0.7099609375,-27.125,101.875,-41.125,-2.89,1.81,14.18
1542401877820231914,146,0,/imu_data_acquisition2,52782.0,0.0113525390625,0.0379028320312,0.701843261719,0.711242675781,13.8125,136.0625,-6.1875,-5.31,1.75,15.63
1542401877839370012,147,0,/imu_data_acquisition2,52792.0,-6.103515625e-05,-6.103515625e-05,-6.103515625e-05,0.711242675781,19.6875,125.125,1.875,-5.3,-1.06,15.15
1542401877845813989,148,0,/imu_data_acquisition2,52806.0,0.005126953125,0.046630859375,0.701965332031,0.710632324219,2.5,108.125,-6.0625,-3.04,-2.36,12.71
1542401877851342916,149,0,/imu_data_acquisition2,52813.0,-0.00115966796875,0.05322265625,0.701599121094,0.710571289062,-0.3125,95.375,-15.8125,-2.52,-0.61,12.21
1542401877860976934,150,0,/imu_data_acquisition2,52820.0,-0.0068359375,0.0589599609375,0.700622558594,0.711059570312,-0.3125,95.375,-15.8125,-2.6,2.28,-0.01
1542401877872261047,151,0,/imu_data_acquisition2,52831.0,-0.0119018554688,0.0647583007812,0.699279785156,0.711791992188,10.375,86.5,-18.1875,-9.08,6.31,26.11
1542401877881537914,152,0,/imu_data_acquisition2,52843.0,-0.0202026367188,0.0757446289062,0.697326660156,0.712463378906,12.4375,74.4375,-8.9375,-6.41,2.55,13.35
1542401877893109083,153,0,/imu_data_acquisition2,52851.0,-0.0202026367188,0.0757446289062,0.697326660156,0.712463378906,-0.9375,36.6875,-2.5,0.23,0.7,7.09
1542401877899744987,154,0,/imu_data_acquisition2,52861.0,-0.0223999023438,0.077880859375,0.697082519531,0.71240234375,-9.625,24.875,0.6875,-2.15,-0.01,-0.01
1542401877911771059,155,0,/imu_data_acquisition2,52873.0,-0.0262451171875,0.0800170898438,0.697204589844,0.7119140625,-5.3125,-0.0625,-0.0625,-1.79,1.4,10.21
1542401877920298099,156,0,/imu_data_acquisition2,52881.0,-0.0262451171875,0.0800170898438,0.697204589844,0.7119140625,-2.8125,22.25,0.875,-1.98,0.83,10.74
1542401877932264089,157,0,/imu_data_acquisition2,52894.0,-0.0277099609375,0.0811767578125,0.697204589844,0.711669921875,-2.875,19.4375,0.5,-2.29,0.59,10.5
1542401877940721035,158,0,/imu_data_acquisition2,52902.0,-0.029052734375,0.0821533203125,0.697204589844,0.711547851562,-3.4375,16.25,-0.5625,-2.07,0.71,10.32
1542401877948278903,159,0,/imu_data_acquisition2,52910.0,-0.0302124023438,0.0829467773438,0.697204589844,0.71142578125,-3.4375,16.25,-0.5625,-1.68,0.59,9.9
1542401877960237026,160,0,/imu_data_acquisition2,52921.0,-0.0311279296875,0.08349609375,0.697143554688,0.711364746094,-3.25,12.0625,-0.6875,-1.49,0.69,10.18
1542401877971065044,161,0,/imu_data_acquisition2,52932.0,-0.0318603515625,0.0839233398438,0.697143554688,0.711303710938,-2.375,8.9375,1.0625,-2.26,0.55,10.28
1542401877979278087,162,0,/imu_data_acquisition2,52941.0,-0.0325317382812,0.0843505859375,0.697204589844,0.711181640625,-1.8125,8.9375,1.875,-1.84,0.43,10.12
1542401877991616964,163,0,/imu_data_acquisition2,52953.0,-0.0331420898438,0.0847778320312,0.697265625,0.710998535156,-0.875,8.4375,-0.375,-1.99,0.37,9.88
1542401878002482891,164,0,/imu_data_acquisition2,52963.0,-0.03369140625,0.085205078125,0.697265625,0.7109375,-0.875,8.4375,-0.375,-1.89,0.48,10.42
1542401878009025096,165,0,/imu_data_acquisition2,52970.0,-0.0341796875,0.0858154296875,0.697204589844,0.710876464844,0.875,8.875,0.1875,-1.79,0.63,10.0
1542401878022087097,166,0,/imu_data_acquisition2,52983.0,-0.03466796875,0.0863647460938,0.697204589844,0.710815429688,1.625,8.3125,0.3125,-2.08,0.8,10.39
1542401878032896041,167,0,/imu_data_acquisition2,52993.0,-0.03515625,0.0869750976562,-6.103515625e-05,0.710754394531,1.4375,7.4375,0.0625,-2.08,0.62,10.07
1542401878040937900,168,0,/imu_data_acquisition2,53003.0,-0.0358276367188,0.0880737304688,0.697082519531,0.710693359375,2.625,5.1875,0.5,-2.27,0.61,10.53
1542401878056282043,169,0,/imu_data_acquisition2,53013.0,-0.0358276367188,0.0880737304688,0.697082519531,0.710693359375,2.625,5.1875,0.5,-2.03,1.13,10.29
1542401878061922073,170,0,/imu_data_acquisition2,53022.0,-0.035888671875,0.0884399414062,0.697021484375,0.710632324219,2.9375,3.4375,0.5625,-1.88,1.15,9.96
1542401878070421934,171,0,/imu_data_acquisition2,53032.0,-0.0359497070312,0.0887451171875,0.697021484375,0.710632324219,0.625,3.125,-0.375,-2.01,0.76,9.86
1542401878085437059,172,0,/imu_data_acquisition2,53044.0,-0.0360717773438,0.0889282226562,0.697021484375,0.710632324219,-0.6875,3.5625,-0.625,-1.73,0.8,10.14
1542401878093693971,173,0,/imu_data_acquisition2,53054.0,-0.00506591796875,-6.103515625e-05,-6.103515625e-05,0.710632324219,-0.9375,3.9375,-0.9375,-1.78,0.74,9.65
1542401878099972963,174,0,/imu_data_acquisition2,53061.0,-0.03662109375,0.0892944335938,0.696899414062,0.710632324219,-0.9375,3.9375,-0.9375,-1.78,0.74,9.65
1542401878116555929,175,0,/imu_data_acquisition2,53073.0,-0.0369873046875,0.0895385742188,0.696838378906,0.710693359375,-0.875,4.5625,-1.0,-1.76,0.93,9.71
1542401878122452974,176,0,/imu_data_acquisition2,53083.0,-0.0372924804688,0.08984375,0.696716308594,0.710693359375,-0.5625,6.125,-1.3125,-2.01,0.69,9.94
1542401878130692005,177,0,/imu_data_acquisition2,53092.0,-0.0376586914062,0.0902099609375,0.696655273438,0.710754394531,-0.5,7.25,-1.25,-2.08,0.72,10.06
1542401878149599075,178,0,/imu_data_acquisition2,53102.0,-0.0380859375,0.0906982421875,0.696533203125,0.710754394531,-0.6875,7.5625,-1.25,-2.05,0.7,10.17
1542401878151551008,179,0,/imu_data_acquisition2,53111.0,-0.0386352539062,0.0911254882812,0.696411132812,0.710754394531,-0.6875,7.5625,-1.25,-1.88,0.65,10.0
1542401878160195112,180,0,/imu_data_acquisition2,53121.0,-0.0390625,0.091552734375,0.696350097656,0.710754394531,-0.5625,7.5,-1.3125,-2.09,0.63,10.07
1542401878168678045,181,0,/imu_data_acquisition2,53130.0,-0.0396118164062,0.0919799804688,0.696228027344,0.710815429688,-0.625,7.8125,-0.0625,-2.09,0.63,10.07
1542401878181036949,182,0,/imu_data_acquisition2,53142.0,-0.0401611328125,0.0924682617188,0.696105957031,0.710815429688,-0.75,7.5,-1.1875,-2.14,0.59,9.89
1542401878191060066,183,0,/imu_data_acquisition2,53152.0,-0.0407104492188,0.0928955078125,0.695983886719,0.710815429688,-0.625,7.3125,-0.0625,-1.99,0.62,10.08
1542401878198798894,184,0,/imu_data_acquisition2,53159.0,-0.041259765625,0.0933227539062,0.695922851562,0.710815429688,-0.625,7.3125,-1.125,-1.99,0.62,10.08
1542401878210453033,185,0,/imu_data_acquisition2,53171.0,-0.041748046875,0.0938110351562,0.69580078125,0.710815429688,-0.4375,7.4375,-1.125,-2.26,0.65,10.08
1542401878220839977,186,0,/imu_data_acquisition2,53181.0,-0.0422973632812,0.09423828125,0.695678710938,0.710876464844,-0.6875,7.3125,-1.5,-2.09,-0.01,-0.01
1542401878231760025,187,0,/imu_data_acquisition2,53192.0,-0.0428466796875,0.0946044921875,0.695556640625,0.710876464844,-1.75,7.6875,-2.0,-2.15,0.68,9.94
1542401878244350910,188,0,/imu_data_acquisition2,53202.0,-0.04345703125,0.0950317382812,0.695434570312,0.7109375,-2.0,7.5,-2.25,-1.9,0.59,9.76
1542401878251226902,189,0,/imu_data_acquisition2,53212.0,-0.0440673828125,0.0953369140625,-6.103515625e-05,0.710998535156,-2.0,7.5,-2.25,-2.2,0.51,9.9
1542401878258826017,190,0,/imu_data_acquisition2,53219.0,-0.0447387695312,0.095703125,0.695129394531,0.711120605469,-1.8125,8.5,-2.625,-2.2,0.51,9.9
1542401878269840955,191,0,/imu_data_acquisition2,53231.0,-0.0454711914062,0.09619140625,0.694946289062,0.711181640625,-1.9375,9.0,-2.375,-2.46,0.66,9.98
1542401878281352043,192,0,/imu_data_acquisition2,53242.0,-0.0462036132812,0.0966186523438,0.694763183594,0.711242675781,-2.125,8.8125,-2.5,-2.26,0.59,9.86
1542401878293521881,193,0,/imu_data_acquisition2,53253.0,-0.0469360351562,0.0970458984375,0.694580078125,0.711303710938,-2.0,8.5,-2.4375,-2.32,0.55,10.0
1542401878300092935,194,0,/imu_data_acquisition2,53261.0,-0.0476684570312,0.0974731445312,0.694396972656,0.711364746094,-2.0,8.5,-2.4375,-2.33,0.6,9.89
1542401878311635971,195,0,/imu_data_acquisition2,53273.0,-0.04833984375,0.0978393554688,0.694213867188,0.71142578125,-2.0625,7.9375,-2.625,-2.32,0.6,9.93
1542401878322093963,196,0,/imu_data_acquisition2,53279.0,-0.0490112304688,0.0982055664062,0.694030761719,0.711547851562,-2.1875,8.0625,-2.875,-2.32,0.6,-0.01
1542401878335004091,197,0,/imu_data_acquisition2,53293.0,-0.0504760742188,0.0989379882812,0.693603515625,0.711730957031,-2.1875,7.8125,-3.0,-2.52,0.57,9.96
1542401878341820955,198,0,/imu_data_acquisition2,53303.0,-0.0504760742188,0.0989379882812,0.693603515625,0.711730957031,-2.0,7.25,-2.875,-2.12,0.45,9.87
1542401878347950935,199,0,/imu_data_acquisition2,53309.0,-0.0510864257812,0.0992431640625,0.693420410156,0.711853027344,-2.0,7.25,-2.875,-2.12,0.45,9.87
1542401878360156059,200,0,/imu_data_acquisition2,53321.0,-0.0518188476562,0.0995483398438,0.693237304688,0.7119140625,-1.6875,7.6875,-2.6875,-2.22,0.26,9.86
1542401878368494987,201,0,/imu_data_acquisition2,53329.0,-0.0525512695312,0.0999755859375,0.693054199219,0.711975097656,-1.125,8.125,-2.375,-2.7,0.44,9.9
1542401878380527019,202,0,/imu_data_acquisition2,53342.0,-0.05322265625,0.100402832031,0.69287109375,0.712036132812,-0.625,8.25,-2.1875,-2.19,0.58,9.79
1542401878391282081,203,0,/imu_data_acquisition2,53353.0,-0.0538330078125,0.100891113281,0.692687988281,0.712158203125,-0.875,10.0625,-2.9375,-2.42,0.57,9.99
1542401878402241945,204,0,/imu_data_acquisition2,53362.0,-0.0545043945312,0.101440429688,0.692443847656,0.712219238281,-0.875,10.0625,-2.9375,-2.42,0.57,9.99
1542401878408725976,205,0,/imu_data_acquisition2,53370.0,-0.0553588867188,0.10205078125,0.692199707031,0.712341308594,-1.1875,10.75,-3.5625,-2.66,0.4,9.88
1542401878420886039,206,0,/imu_data_acquisition2,53382.0,-0.05615234375,0.102600097656,0.69189453125,0.712463378906,-0.6875,10.875,-3.375,-2.16,0.29,9.88
1542401878433842897,207,0,/imu_data_acquisition2,53393.0,-0.0570068359375,0.103210449219,0.691650390625,0.712524414062,-0.125,11.1875,-3.0,-2.72,0.54,9.84
1542401878441107034,208,0,/imu_data_acquisition2,53402.0,-0.0578002929688,0.103881835938,0.69140625,0.712585449219,0.5,11.6875,-2.6875,-2.39,0.7,10.04
1542401878455684900,209,0,/imu_data_acquisition2,53417.0,-0.0585327148438,0.104614257812,0.691223144531,0.712646484375,0.5,11.6875,-2.6875,-2.21,0.8,9.81
1542401878462867021,210,0,/imu_data_acquisition2,53424.0,-0.0592651367188,0.105285644531,0.69091796875,0.712768554688,-1.1875,12.625,-4.8125,-2.45,0.81,-0.01
1542401878469826936,211,0,/imu_data_acquisition2,53431.0,-0.0601196289062,0.10595703125,0.690612792969,0.712890625,-1.1875,12.625,-0.0625,-2.45,0.81,9.93
1542401878484399080,212,0,/imu_data_acquisition2,53444.0,-0.0611572265625,0.106689453125,0.690185546875,0.713073730469,-1.5625,15.5625,-5.4375,-2.6,0.73,9.8
1542401878492857933,213,0,/imu_data_acquisition2,53453.0,-0.0621948242188,0.107482910156,0.689819335938,0.713256835938,-1.5625,15.5625,-5.4375,-2.26,0.41,9.89
1542401878504020929,214,0,/imu_data_acquisition2,53460.0,-0.0632934570312,0.108337402344,0.689392089844,0.713439941406,-1.625,16.125,-5.875,-2.26,0.41,9.89
1542401878509287118,215,0,/imu_data_acquisition2,53470.0,-0.0643920898438,0.109252929688,0.68896484375,0.713623046875,-1.0,16.9375,-5.5625,-2.79,0.17,9.85
1542401878521694898,216,0,/imu_data_acquisition2,53483.0,-0.0654907226562,0.1103515625,0.688537597656,0.713745117188,-0.3125,18.125,-4.9375,-2.29,0.49,9.49
1542401878535213947,217,0,/imu_data_acquisition2,53496.0,-0.066650390625,0.111511230469,0.688171386719,0.713806152344,1.1875,22.6875,-5.0625,-2.08,0.66,9.93
1542401878553081989,219,0,/imu_data_acquisition2,53515.0,-0.0694580078125,0.114440917969,0.687194824219,0.714050292969,1.0,25.3125,-6.6875,-2.62,0.68,10.47
1542401878559501886,220,0,/imu_data_acquisition2,53520.0,-0.0711669921875,0.116149902344,0.6865234375,0.714233398438,0.25,28.5,-7.6875,-2.51,0.58,9.89
1542401878571091890,221,0,/imu_data_acquisition2,53533.0,-0.0731201171875,0.118041992188,0.685791015625,0.714416503906,-0.0625,32.25,-8.6875,-1.89,0.29,9.81
1542401878594384908,223,0,/imu_data_acquisition2,53556.0,-0.0777587890625,0.122497558594,0.684204101562,0.714660644531,0.0,40.5625,-9.1875,-2.93,0.44,10.07
1542401878600224971,224,0,/imu_data_acquisition2,53561.0,-0.0803833007812,0.125244140625,0.683410644531,0.714721679688,0.875,45.0625,-8.4375,-2.93,0.44,10.07
1542401878613796949,225,0,/imu_data_acquisition2,53575.0,-0.0831909179688,0.128234863281,0.6826171875,0.714660644531,1.3125,48.875,-7.6875,-2.66,0.34,10.35
1542401878624600887,226,0,/imu_data_acquisition2,53585.0,-0.0862426757812,0.131408691406,-6.103515625e-05,0.714477539062,1.1875,52.75,-6.8125,-2.52,0.5,9.96
1542401878652914047,228,0,/imu_data_acquisition2,53605.0,-0.0932006835938,0.138000488281,0.680236816406,0.7138671875,-2.0625,58.75,-6.4375,-1.76,0.96,8.24
1542401878653769969,229,0,/imu_data_acquisition2,53612.0,-0.0977172851562,0.141723632812,0.679260253906,0.713439941406,-7.375,69.5,-7.875,-1.76,0.96,8.24
1542401878658279895,230,0,/imu_data_acquisition2,53620.0,-0.104187011719,0.14599609375,0.678039550781,0.712829589844,-18.4375,90.75,-11.125,-3.08,0.73,9.87
1542401878676068067,231,0,/imu_data_acquisition2,53633.0,-0.111450195312,0.150390625,0.676574707031,0.712158203125,-24.625,97.8125,-14.4375,-2.48,0.47,9.55
1542401878693762063,233,0,/imu_data_acquisition2,53654.0,-0.127624511719,0.157348632812,0.672729492188,0.711608886719,-37.4375,96.9375,-24.3125,-4.26,0.88,9.67
1542401878703856945,234,0,/imu_data_acquisition2,53662.0,-0.1357421875,0.160766601562,0.670715332031,0.711242675781,-37.4375,96.9375,-24.3125,-4.26,0.88,9.67
1542401878714242935,235,0,/imu_data_acquisition2,53674.0,-0.143859863281,0.16455078125,0.668762207031,0.710632324219,-33.5625,110.0,-16.625,-4.33,0.59,9.92
1542401878722311973,236,0,/imu_data_acquisition2,53683.0,-0.152282714844,0.169006347656,0.666870117188,0.709594726562,-32.4375,123.5,-24.375,-4.13,0.37,9.7
1542401878732933998,237,0,/imu_data_acquisition2,53693.0,-6.103515625e-05,-6.103515625e-05,-6.103515625e-05,0.708740234375,-32.4375,123.5,-24.375,-5.66,0.34,9.22
1542401878743972063,238,0,/imu_data_acquisition2,53703.0,-0.17138671875,0.1806640625,0.660461425781,0.708312988281,-25.0625,139.0,-36.375,-4.25,0.4,9.83
1542401878750272989,239,0,/imu_data_acquisition2,53711.0,-0.180908203125,0.187866210938,0.656555175781,0.707763671875,-16.4375,144.0625,-34.0625,-4.25,0.4,9.83
1542401878763266086,240,0,/imu_data_acquisition2,53722.0,-0.1904296875,0.195861816406,0.652465820312,0.706848144531,-10.875,151.6875,-31.375,-3.42,0.23,10.23
1542401878771239995,241,0,/imu_data_acquisition2,53730.0,-0.201110839844,0.204772949219,0.647033691406,0.706420898438,-8.5625,170.3125,-46.75,-4.67,-0.44,9.74
1542401878781660079,242,0,/imu_data_acquisition2,53743.0,-0.212463378906,0.214965820312,0.640991210938,0.705505371094,-4.0625,188.625,-46.6875,-4.6,-1.27,9.71
1542401878792872905,243,0,/imu_data_acquisition2,53753.0,-6.103515625e-05,-6.103515625e-05,-6.103515625e-05,0.70458984375,15.6875,206.5,-48.6875,-3.79,-0.89,10.85
1542401878802059888,244,0,/imu_data_acquisition2,53760.0,-0.0153198242188,-6.103515625e-05,-6.103515625e-05,0.703674316406,46.0,229.5,-52.375,-4.81,-1.97,12.0
1542401878808398962,245,0,/imu_data_acquisition2,53770.0,-0.243530273438,0.260803222656,0.614990234375,0.703186035156,86.625,255.25,-60.375,-4.91,-1.69,12.64
1542401878822519063,246,0,/imu_data_acquisition2,53783.0,-0.25244140625,0.282958984375,0.601623535156,0.703063964844,128.25,288.1875,-73.5625,-5.89,-1.28,10.51
1542401878833532094,247,0,/imu_data_acquisition2,53794.0,-0.259582519531,0.307556152344,0.586364746094,0.702941894531,166.625,301.8125,-76.6875,-2.19,-0.5,8.45
1542401878841734886,248,0,/imu_data_acquisition2,53803.0,-0.264770507812,0.333618164062,0.56982421875,0.702758789062,197.375,304.25,-75.1875,-2.19,-0.5,8.45
1542401878850826025,249,0,/imu_data_acquisition2,53812.0,-0.269104003906,0.360961914062,0.551940917969,0.701904296875,216.625,316.6875,-74.125,-9.95,0.97,7.52
1542401878860893011,250,0,/imu_data_acquisition2,53820.0,-0.272216796875,0.386108398438,0.532958984375,0.701965332031,219.75,289.6875,-91.4375,-7.79,1.74,9.13
1542401878869533061,251,0,/imu_data_acquisition2,53830.0,-0.274353027344,0.407287597656,0.513732910156,0.703491210938,208.625,244.625,-111.0,-10.25,1.44,26.51
1542401878882879018,252,0,/imu_data_acquisition2,53844.0,-0.275695800781,0.420471191406,-6.103515625e-05,0.706848144531,157.9375,153.8125,-118.25,-1.97,5.83,22.25
1542401878893889904,253,0,/imu_data_acquisition2,53854.0,-0.277648925781,0.425537109375,0.484985351562,0.711730957031,91.9375,70.8125,-0.0625,-1.97,5.83,22.25
1542401878899636983,254,0,/imu_data_acquisition2,53861.0,-0.281188964844,0.425231933594,0.475952148438,0.716613769531,30.25,22.9375,-122.75,-0.14,8.52,15.87
1542401878911328077,255,0,/imu_data_acquisition2,53871.0,-0.287414550781,0.420288085938,0.471313476562,0.720153808594,-45.8125,-9.0,-107.0625,1.32,5.56,13.41
1542401878920846939,256,0,/imu_data_acquisition2,53881.0,-0.294921875,0.412475585938,0.469787597656,0.722595214844,-91.375,-32.4375,-90.375,-0.39,3.36,11.41
1542401878932322978,257,0,/imu_data_acquisition2,53894.0,-0.301147460938,0.403503417969,0.469909667969,0.725036621094,-95.125,-54.125,-74.625,-0.24,1.71,10.35
1542401878942611932,258,0,/imu_data_acquisition2,53902.0,-0.3046875,0.394592285156,0.470520019531,0.72802734375,-72.5,-72.9375,-59.6875,-0.24,1.71,10.35
1542401878950342893,259,0,/imu_data_acquisition2,53911.0,-0.305114746094,0.386047363281,0.471618652344,0.731750488281,-42.4375,-92.9375,-44.4375,-0.42,2.94,10.69
1542401878960556983,260,0,/imu_data_acquisition2,53921.0,-0.302734375,0.377502441406,0.473571777344,0.735961914062,-21.125,-113.625,-26.3125,-0.47,4.13,11.11
1542401878968522071,261,0,/imu_data_acquisition2,53929.0,-0.298461914062,0.368286132812,0.476989746094,0.740112304688,-15.0625,-135.0625,-7.1875,-1.8,4.98,10.87
1542401878982693910,262,0,/imu_data_acquisition2,53943.0,-0.29296875,0.358093261719,0.482177734375,0.743957519531,-18.4375,-155.5625,11.375,-1.76,4.38,10.42
1542401878992609024,263,0,/imu_data_acquisition2,53954.0,-0.286193847656,0.347106933594,0.488891601562,0.747436523438,-19.375,-173.25,30.0,-2.01,3.83,10.2
1542401879001288890,264,0,/imu_data_acquisition2,53959.0,-0.278076171875,0.335510253906,0.496765136719,0.750549316406,-17.375,-189.0,45.6875,-3.06,2.63,10.8
1542401879010169982,265,0,/imu_data_acquisition2,53971.0,-0.268737792969,0.3232421875,0.505554199219,0.753479003906,-14.3125,-204.625,57.375,-3.66,2.08,11.38
1542401879020519018,266,0,/imu_data_acquisition2,53981.0,-0.258056640625,0.310119628906,0.514892578125,0.75634765625,-9.75,-221.6875,65.375,-4.19,1.74,11.69
1542401879032380104,267,0,/imu_data_acquisition2,53992.0,-0.246276855469,0.295959472656,0.524719238281,0.75927734375,-8.0,-239.3125,70.0,-4.38,1.46,11.32
1542401879043239116,268,0,/imu_data_acquisition2,54004.0,-0.233825683594,0.280639648438,0.534606933594,0.762084960938,-9.4375,-253.6875,70.4375,-4.49,0.34,10.14
1542401879051574945,269,0,/imu_data_acquisition2,54012.0,-0.220947265625,0.264526367188,0.544189453125,0.764892578125,-10.0,-262.625,67.3125,-4.69,-0.1,9.79
1542401879058043003,270,0,/imu_data_acquisition2,54019.0,-0.207702636719,0.247985839844,0.553283691406,0.767639160156,-7.9375,-267.875,62.25,-4.81,-0.44,9.61
1542401879070604085,271,0,/imu_data_acquisition2,54031.0,-0.193969726562,0.231262207031,0.5615234375,0.770446777344,-1.9375,-270.5625,56.3125,-5.15,-0.69,10.0
1542401879082199096,272,0,/imu_data_acquisition2,54043.0,-0.179565429688,0.214721679688,0.568969726562,0.773254394531,7.4375,-271.3125,50.5,-5.38,-0.38,10.41
1542401879090272903,273,0,/imu_data_acquisition2,54051.0,-0.16455078125,0.198425292969,0.575622558594,0.776000976562,16.6875,-271.1875,45.6875,-5.43,0.28,10.83
1542401879100539922,274,0,/imu_data_acquisition2,54061.0,-0.149291992188,0.182434082031,0.581665039062,0.778503417969,21.6875,-269.125,42.8125,-5.32,1.38,11.13
1542401879111182928,275,0,/imu_data_acquisition2,54071.0,-0.134033203125,0.166687011719,0.587219238281,0.780639648438,23.75,-264.625,41.75,-5.52,1.59,11.58
1542401879118619918,276,0,/imu_data_acquisition2,54080.0,-0.118774414062,0.151428222656,0.592407226562,0.782287597656,27.8125,-258.1875,42.4375,-5.82,1.93,12.07
1542401879133096933,277,0,/imu_data_acquisition2,54094.0,-0.103332519531,0.137084960938,0.597290039062,0.783447265625,35.25,-250.5,44.375,-6.26,2.4,12.69
1542401879142682075,278,0,/imu_data_acquisition2,54102.0,-0.0875854492188,0.123657226562,0.601989746094,0.783996582031,43.75,-242.4375,49.1875,-7.33,3.75,13.6
1542401879149377107,279,0,/imu_data_acquisition2,54111.0,-0.0719604492188,0.111022949219,0.606872558594,0.78369140625,47.8125,-233.25,57.0,-7.6,4.31,13.03
1542401879160377025,280,0,/imu_data_acquisition2,54121.0,-0.0570068359375,0.0992431640625,0.611999511719,0.782531738281,45.9375,-219.6875,65.75,-7.89,4.27,12.25
1542401879170228958,281,0,/imu_data_acquisition2,54131.0,-0.043212890625,0.0885620117188,0.617431640625,0.780456542969,43.0,-200.375,74.125,-8.61,3.23,11.0
1542401879180573940,282,0,/imu_data_acquisition2,54141.0,-0.0305786132812,0.0794067382812,0.622985839844,0.777587890625,42.75,-176.6875,80.625,-9.62,3.11,11.48
1542401879192450046,283,0,/imu_data_acquisition2,54153.0,-0.0191040039062,0.07177734375,0.628601074219,0.774169921875,42.3125,-153.625,85.3125,-11.01,3.15,12.7
1542401879200781106,284,0,/imu_data_acquisition2,54160.0,-0.00848388671875,0.0651245117188,0.634399414062,0.770202636719,42.5,-137.875,89.75,-14.26,1.88,16.31
1542401879208565950,285,0,/imu_data_acquisition2,54170.0,0.0025634765625,0.0591430664062,0.640380859375,0.765808105469,50.9375,-134.8125,95.9375,-16.3,0.69,18.51
1542401879220873117,286,0,/imu_data_acquisition2,54182.0,0.0158081054688,0.0534057617188,0.646789550781,0.760620117188,72.1875,-148.4375,106.4375,-17.11,0.78,18.69
1542401879231296062,287,0,/imu_data_acquisition2,54192.0,0.031005859375,0.0469360351562,0.653686523438,0.754699707031,83.8125,-169.5625,118.75,-15.49,2.84,12.38
1542401879241358041,288,0,/imu_data_acquisition2,54203.0,0.0454711914062,0.0386962890625,0.661010742188,0.747985839844,63.9375,-179.625,128.125,-14.08,2.47,8.21
1542401879251715898,289,0,/imu_data_acquisition2,54212.0,0.0567016601562,0.0284423828125,0.668518066406,0.740966796875,19.625,-171.25,132.4375,-13.09,0.77,4.81
1542401879259736061,290,0,/imu_data_acquisition2,54220.0,0.0640869140625,0.0172729492188,0.675903320312,0.734008789062,-21.875,-148.875,129.75,-12.44,-1.78,2.49
1542401879269396066,291,0,/imu_data_acquisition2,54230.0,0.0690307617188,0.007080078125,0.682800292969,0.727294921875,-34.875,-121.5,122.0625,-12.95,-6.01,0.86
1542401879281898021,292,0,/imu_data_acquisition2,54243.0,0.0733032226562,-0.00048828125,0.688903808594,0.721130371094,-19.4375,-94.625,109.3125,-13.12,-5.97,0.26
1542401879291419029,293,0,/imu_data_acquisition2,54252.0,0.0771484375,-0.00543212890625,0.69384765625,0.715942382812,-3.25,-68.875,88.375,-12.69,-5.83,-0.45
1542401879299577951,294,0,/imu_data_acquisition2,54261.0,0.0799560546875,-0.00787353515625,0.697570800781,0.711975097656,8.0,-40.75,66.5625,-11.01,-4.25,-0.96
1542401879312704086,295,0,/imu_data_acquisition2,54271.0,0.0812377929688,-0.008056640625,0.700439453125,0.709045410156,12.4375,-9.6875,48.3125,-10.32,-3.11,-0.03
1542401879322491884,296,0,/imu_data_acquisition2,54283.0,0.08056640625,-0.00653076171875,0.702697753906,0.706909179688,8.625,20.4375,34.875,-10.06,-2.36,1.75
1542401879333024024,297,0,/imu_data_acquisition2,54294.0,0.07763671875,-0.00384521484375,0.704528808594,0.705444335938,0.25,48.625,25.1875,-9.93,-1.56,4.24
1542401879339322090,298,0,/imu_data_acquisition2,54300.0,0.0726928710938,-0.0003662109375,0.705993652344,0.704467773438,-11.6875,71.6875,17.5,-9.76,-2.45,5.39
1542401879350665092,299,0,/imu_data_acquisition2,54311.0,0.066650390625,0.00372314453125,0.707092285156,0.703979492188,-15.4375,85.0625,9.6875,-9.38,-3.36,5.84
1542401879359951019,300,0,/imu_data_acquisition2,54321.0,0.059814453125,0.00958251953125,0.707458496094,0.7041015625,-8.0625,106.4375,-2.8125,3.96,-1.87,4.47
1542401879369651079,301,0,/imu_data_acquisition2,54330.0,0.0507202148438,0.0166015625,0.707092285156,0.705139160156,-18.0,134.1875,-17.625,2.03,0.37,13.85
1542401879381432056,302,0,/imu_data_acquisition2,54342.0,0.0411376953125,0.0220336914062,0.705200195312,0.707458496094,-35.6875,124.1875,-40.5,-0.69,-0.69,8.0
1542401879391381025,303,0,/imu_data_acquisition2,54353.0,0.0314331054688,-6.103515625e-05,-6.103515625e-05,0.7099609375,-31.125,130.375,-45.0625,-2.16,-0.36,7.53
1542401879399656057,304,0,/imu_data_acquisition2,54360.0,0.0226440429688,0.0357666015625,0.701232910156,0.711669921875,-10.0625,135.6875,-34.25,-3.34,1.63,14.52
1542401879410356998,305,0,/imu_data_acquisition2,54371.0,0.0154418945312,0.0442504882812,0.7001953125,0.71240234375,10.0,131.1875,-20.0,-4.35,2.05,15.41
1542401879420357942,306,0,/imu_data_acquisition2,54381.0,-6.103515625e-05,-6.103515625e-05,-6.103515625e-05,0.712829589844,8.5,118.9375,-16.0,-4.36,1.0,14.35
1542401879429124116,307,0,/imu_data_acquisition2,54390.0,0.0023193359375,0.0582275390625,0.6982421875,0.713500976562,-2.125,106.625,-19.0,-2.92,0.76,12.22
1542401879442004919,308,0,/imu_data_acquisition2,54403.0,-0.00384521484375,0.06396484375,0.697143554688,0.714050292969,-3.875,99.0625,-18.5,-2.4,2.05,11.63
1542401879451574087,309,0,/imu_data_acquisition2,54412.0,-0.0098876953125,0.069580078125,0.696228027344,0.714416503906,-4.1875,96.6875,-15.1875,-2.33,3.6,11.76
1542401879458362102,310,0,/imu_data_acquisition2,54419.0,-0.01611328125,0.0745849609375,0.695617675781,0.71435546875,-10.8125,94.375,-8.75,-4.11,4.43,16.02
1542401879470247030,311,0,/imu_data_acquisition2,54431.0,-0.0213012695312,0.078125,0.695373535156,0.714050292969,-14.6875,72.8125,-3.875,-6.75,-1.4,14.04
1542401879480839014,312,0,/imu_data_acquisition2,54442.0,-0.0238037109375,0.0797119140625,0.6953125,0.713928222656,-8.0625,34.1875,-1.3125,0.05,0.61,6.84
1542401879488590002,313,0,/imu_data_acquisition2,54449.0,-0.0259399414062,0.081298828125,0.695434570312,0.713500976562,-5.1875,31.0625,3.4375,-1.86,0.99,12.66
1542401879500349998,314,0,/imu_data_acquisition2,54461.0,-0.0276489257812,0.0828857421875,0.695556640625,0.713134765625,-1.3125,27.6875,2.5,-1.92,1.59,10.5
1542401879510214090,315,0,/imu_data_acquisition2,54471.0,-0.029296875,0.0841674804688,0.695678710938,0.712768554688,-3.9375,24.5,2.875,-2.5,0.21,11.49
1542401879521218061,316,0,/imu_data_acquisition2,54480.0,-0.0306396484375,0.0851440429688,0.69580078125,0.712524414062,-3.3125,19.875,2.125,-2.41,0.19,10.59
1542401879536405086,317,0,/imu_data_acquisition2,54492.0,-0.03173828125,0.0860595703125,0.695861816406,0.712280273438,-2.125,16.625,1.625,-2.18,0.46,10.19
1542401879540076971,318,0,/imu_data_acquisition2,54500.0,-0.0325927734375,0.0867309570312,0.695861816406,0.712158203125,-1.5,13.0625,-0.25,-2.18,0.64,10.28
1542401879548715114,319,0,/imu_data_acquisition2,54510.0,-0.0333251953125,0.0873413085938,0.695861816406,0.712097167969,-1.4375,11.125,-0.5625,-2.01,0.95,10.34
1542401879558374881,320,0,/imu_data_acquisition2,54519.0,-0.0341186523438,0.087646484375,-6.103515625e-05,0.712097167969,-3.4375,9.1875,-1.25,-2.08,0.59,10.19
1542401879572284936,321,0,/imu_data_acquisition2,54531.0,-0.0348510742188,0.087890625,0.695678710938,0.712097167969,-4.375,8.25,-1.6875,-2.07,0.72,10.45
1542401879578380107,322,0,/imu_data_acquisition2,54540.0,-0.0042724609375,-6.103515625e-05,-6.103515625e-05,0.712158203125,-3.75,6.875,-1.3125,-1.91,0.39,9.66
1542401879589947938,323,0,/imu_data_acquisition2,54550.0,-0.0360717773438,0.0883178710938,0.695556640625,0.712158203125,-2.5,6.375,-0.875,-2.08,0.38,10.14
1542401879600403070,324,0,/imu_data_acquisition2,54561.0,-0.0364379882812,0.0885620117188,0.695556640625,0.712097167969,-1.25,5.4375,-0.4375,-1.53,0.62,10.04
1542401879608818054,325,0,/imu_data_acquisition2,54570.0,-0.0368041992188,0.0888671875,0.695495605469,0.712036132812,-0.75,5.0625,0.0,-1.71,0.79,10.02
1542401879619920969,326,0,/imu_data_acquisition2,54581.0,-0.0371704101562,0.0891723632812,0.695495605469,0.711975097656,-0.625,5.8125,-0.25,-2.19,0.89,10.45
1542401879630403041,327,0,/imu_data_acquisition2,54591.0,-0.0374755859375,0.0894775390625,0.695495605469,0.711975097656,-0.25,4.875,-0.5,-1.86,0.71,10.14
1542401879638752937,328,0,/imu_data_acquisition2,54600.0,-0.0377197265625,0.0896606445312,0.695495605469,0.7119140625,0.0625,3.8125,-0.375,-2.04,0.83,10.2
1542401879650866985,329,0,/imu_data_acquisition2,54611.0,-0.0379028320312,0.0899047851562,0.695495605469,0.7119140625,0.3125,3.6875,-0.375,-2.24,0.64,10.18
1542401879660600900,330,0,/imu_data_acquisition2,54621.0,-0.0380859375,0.090087890625,0.695434570312,0.711853027344,0.0,2.6875,-0.25,-2.01,0.84,9.7
1542401879668603897,331,0,/imu_data_acquisition2,54630.0,-0.0381469726562,0.0902709960938,0.695434570312,0.711853027344,0.8125,2.4375,-0.1875,-2.26,0.66,10.61
1542401879680748939,332,0,/imu_data_acquisition2,54641.0,-0.0382080078125,0.0904541015625,0.695434570312,0.711853027344,1.125,1.6875,-0.25,-1.98,0.63,10.03
1542401879689202070,333,0,/imu_data_acquisition2,54650.0,-0.0380859375,0.0906372070312,0.695434570312,0.711853027344,2.1875,0.6875,0.0,-1.84,0.94,9.98
1542401879698437929,334,0,/imu_data_acquisition2,54660.0,-0.0380249023438,0.0908203125,0.695373535156,0.711853027344,2.1875,1.125,-0.4375,-1.91,0.63,10.07
1542401879709609031,335,0,/imu_data_acquisition2,54671.0,-0.0380859375,0.091064453125,0.6953125,0.711853027344,1.8125,2.0,-0.625,-1.93,0.7,10.06
1542401879719960927,336,0,/imu_data_acquisition2,54681.0,-0.0381469726562,0.09130859375,0.695251464844,0.7119140625,1.3125,2.1875,-0.625,-2.01,0.75,9.99
1542401879728782892,337,0,/imu_data_acquisition2,54690.0,-0.0382080078125,0.0914916992188,0.695190429688,0.7119140625,1.125,2.5625,-0.6875,-1.91,0.66,9.84
1542401879740478992,338,0,/imu_data_acquisition2,54701.0,-0.038330078125,0.0917358398438,0.695190429688,0.7119140625,1.0,2.5,-0.5,-1.97,0.67,9.79
1542401879751827001,339,0,/imu_data_acquisition2,54712.0,-0.0385131835938,0.0919799804688,0.695190429688,0.7119140625,0.75,3.3125,-0.5625,-2.03,0.75,-0.01
1542401879759221076,340,0,/imu_data_acquisition2,54720.0,-0.0387573242188,0.0922241210938,0.695129394531,0.7119140625,0.375,3.25,-0.6875,-2.05,-0.01,-0.01
1542401879775742053,341,0,/imu_data_acquisition2,54730.0,-0.0389404296875,0.0924072265625,0.695068359375,0.7119140625,-0.25,3.375,-0.875,-1.98,-0.01,-0.01
1542401879778975963,342,0,/imu_data_acquisition2,54740.0,-0.0392456054688,0.0925903320312,0.695007324219,0.711975097656,-0.8125,3.625,-1.0625,-2.19,0.72,9.79
1542401879790016889,343,0,/imu_data_acquisition2,54751.0,-0.03955078125,0.0927734375,0.694885253906,0.711975097656,-1.3125,3.3125,-1.125,-2.05,0.88,9.77
1542401879797821044,344,0,/imu_data_acquisition2,54759.0,-0.0399780273438,0.0929565429688,0.69482421875,0.712036132812,-1.875,3.4375,-1.5625,-2.13,0.56,9.75
1542401879809712886,345,0,/imu_data_acquisition2,54770.0,-0.0404663085938,0.0930786132812,0.694702148438,0.712097167969,-2.375,4.3125,-1.8125,-2.13,0.62,9.88
1542401879819909095,346,0,/imu_data_acquisition2,54780.0,-0.0409545898438,0.0932006835938,0.694580078125,0.712158203125,-2.5625,4.3125,-1.75,-2.03,0.37,9.94
1542401879828989982,347,0,/imu_data_acquisition2,54790.0,-0.04150390625,0.0933837890625,0.694458007812,0.712219238281,-2.0,4.6875,-1.5625,-2.17,0.63,9.77
1542401879840802907,348,0,/imu_data_acquisition2,54801.0,-0.0419311523438,0.0935668945312,0.694396972656,0.712219238281,-1.4375,4.875,-1.125,-2.1,0.62,9.95
1542401879849653005,349,0,/imu_data_acquisition2,54810.0,-0.0423583984375,0.0938110351562,0.6943359375,0.712280273438,-1.5,5.0,-1.0625,-1.94,0.59,9.94
1542401879859692096,350,0,/imu_data_acquisition2,54820.0,-0.0428466796875,0.0940551757812,0.694213867188,0.712280273438,-1.6875,5.4375,-1.25,-2.14,0.7,10.0
1542401879868292093,351,0,/imu_data_acquisition2,54830.0,-0.0433349609375,0.0942993164062,0.694152832031,0.712280273438,-1.8125,5.625,-1.125,-2.12,0.56,-0.01
1542401879879765987,352,0,/imu_data_acquisition2,54840.0,-0.0438842773438,0.0946044921875,0.694030761719,0.712341308594,-1.9375,6.1875,-1.375,-2.31,0.7,9.93
1542401879890979051,353,0,/imu_data_acquisition2,54850.0,-0.0131225585938,-6.103515625e-05,-6.103515625e-05,0.712341308594,-2.0625,6.375,-1.5,-1.98,0.65,9.9
1542401879899146080,354,0,/imu_data_acquisition2,54860.0,-0.044921875,0.0950927734375,0.69384765625,0.71240234375,-2.0,5.5625,-1.3125,-2.35,0.75,9.76
1542401879909451961,355,0,/imu_data_acquisition2,54870.0,-0.0454711914062,0.095458984375,0.693725585938,0.71240234375,-2.125,6.1875,-1.625,-2.5,0.66,10.14
1542401879919466018,356,0,/imu_data_acquisition2,54880.0,-0.0460815429688,0.0956420898438,0.693603515625,0.712463378906,-2.375,5.625,-1.8125,-2.08,0.44,9.77
1542401879928884029,357,0,/imu_data_acquisition2,54890.0,-0.046630859375,0.0958862304688,0.693542480469,0.712524414062,-2.375,5.875,-0.0625,-2.07,0.62,9.67
1542401879938904047,358,0,/imu_data_acquisition2,54900.0,-0.047119140625,0.0960693359375,0.693420410156,0.712585449219,-2.375,5.9375,-1.8125,-2.02,0.65,10.02
1542401879949307918,359,0,/imu_data_acquisition2,54910.0,-0.0477294921875,0.0963134765625,0.693237304688,0.712646484375,-2.6875,6.375,-2.1875,-2.3,0.71,9.67
1542401879960793018,360,0,/imu_data_acquisition2,54922.0,-0.04833984375,0.0965576171875,0.693054199219,0.712707519531,-3.5,7.1875,-3.0,-1.88,0.52,9.81
1542401879968071937,361,0,/imu_data_acquisition2,54930.0,-0.049072265625,0.0967407226562,0.69287109375,0.712829589844,-4.1875,-0.0625,-0.0625,-2.34,0.61,10.06
1542401879978873968,362,0,/imu_data_acquisition2,54940.0,-0.0498657226562,0.096923828125,0.692687988281,0.712951660156,-4.625,7.8125,-3.75,-2.17,0.44,9.65
1542401879989428997,363,0,/imu_data_acquisition2,54950.0,-0.0507202148438,0.0971069335938,0.692443847656,0.713134765625,-4.6875,7.9375,-3.9375,-2.3,0.38,9.91
1542401879998611927,364,0,/imu_data_acquisition2,54960.0,-0.0515747070312,0.0972900390625,0.692199707031,0.713256835938,-4.4375,8.5625,-3.875,-2.08,0.7,9.63
1542401880011710882,365,0,/imu_data_acquisition2,54972.0,-0.0524291992188,0.0975952148438,0.691955566406,0.713439941406,-4.6875,9.375,-4.3125,-1.97,0.43,9.86
1542401880025450944,366,0,/imu_data_acquisition2,54983.0,-6.103515625e-05,-6.103515625e-05,-6.103515625e-05,0.713562011719,-4.75,10.8125,-4.6875,-2.24,0.51,9.98
1542401880033726930,367,0,/imu_data_acquisition2,54994.0,-6.103515625e-05,-6.103515625e-05,-6.103515625e-05,0.713745117188,-4.75,-0.0625,-0.0625,-2.29,0.4,9.74
1542401880040643930,368,0,/imu_data_acquisition2,55001.0,-0.0556640625,0.098876953125,0.69091796875,0.713989257812,-4.3125,13.6875,-5.5625,-2.18,0.35,9.99
1542401880054388999,369,0,/imu_data_acquisition2,55013.0,-0.0568237304688,0.0994873046875,0.690551757812,0.714111328125,-3.5625,14.6875,-5.25,-2.24,0.2,9.92
1542401880061328887,370,0,/imu_data_acquisition2,55021.0,-0.0580444335938,0.100158691406,0.690185546875,0.714294433594,-3.125,15.4375,-0.0625,-2.45,-0.01,-0.01
1542401880073754072,371,0,/imu_data_acquisition2,55032.0,-0.059326171875,0.100830078125,0.689819335938,0.714477539062,-2.6875,15.625,-5.3125,-2.45,0.2,-0.01
1542401880087321996,372,0,/imu_data_acquisition2,55041.0,-0.0604858398438,0.101684570312,0.689392089844,0.714660644531,-2.25,16.375,-5.3125,-2.72,0.44,9.56
1542401880098304033,373,0,/imu_data_acquisition2,55056.0,-0.0616455078125,0.102600097656,0.689025878906,0.714782714844,-1.5625,17.9375,-5.1875,-2.02,0.17,9.82
1542401880103444099,374,0,/imu_data_acquisition2,55065.0,-0.0629272460938,0.103698730469,0.688537597656,0.714965820312,-1.5625,19.4375,-6.3125,-2.33,0.45,10.28
1542401880108652114,375,0,/imu_data_acquisition2,55070.0,-0.0643920898438,0.104858398438,0.68798828125,0.715209960938,-1.8125,21.9375,-7.4375,-2.69,0.67,10.2
1542401880127877950,376,0,/imu_data_acquisition2,55085.0,-6.103515625e-05,-6.103515625e-05,-6.103515625e-05,0.715515136719,-2.0625,22.625,-8.625,-2.3,0.7,10.28
1542401880147017955,377,0,/imu_data_acquisition2,55099.0,-0.0675659179688,0.107299804688,0.686706542969,0.7158203125,-2.4375,24.1875,-9.25,-2.07,-0.03,9.76
1542401880148175001,378,0,/imu_data_acquisition2,55107.0,-0.0693359375,0.108825683594,0.68603515625,0.716064453125,-1.9375,27.1875,-8.6875,-1.75,0.46,9.88
1542401880153796911,379,0,/imu_data_acquisition2,55114.0,-0.0712890625,0.110656738281,0.685302734375,0.71630859375,-0.8125,32.25,-9.0625,-2.12,0.49,9.8
1542401880159600019,380,0,/imu_data_acquisition2,55121.0,-0.0736083984375,0.112854003906,0.684448242188,0.716491699219,-0.4375,37.8125,-10.3125,-2.46,0.4,10.36
1542401880169183015,381,0,/imu_data_acquisition2,55130.0,-0.0736083984375,0.112854003906,0.684448242188,0.716491699219,-0.5,43.0,-10.6875,-2.65,0.45,10.53
1542401880180248975,382,0,/imu_data_acquisition2,55141.0,-0.076171875,0.115417480469,-6.103515625e-05,0.716735839844,-0.625,47.4375,-11.125,-2.31,0.34,10.23
1542401880190747976,383,0,/imu_data_acquisition2,55151.0,-0.0791015625,0.1181640625,0.682495117188,0.716918945312,-0.4375,51.25,-11.9375,-2.47,0.3,10.15
1542401880199208021,384,0,/imu_data_acquisition2,55160.0,-0.0821533203125,0.121215820312,0.681457519531,0.717041015625,-0.6875,55.75,-13.75,-2.15,-0.07,9.96
1542401880209815979,385,0,/imu_data_acquisition2,55170.0,-0.0855712890625,0.124450683594,0.680236816406,0.71728515625,-1.5,60.125,-16.0,-2.26,0.39,9.85
1542401880220963001,386,0,/imu_data_acquisition2,55181.0,-0.0892944335938,0.127868652344,0.678833007812,0.717529296875,-1.875,65.875,-17.5,-2.19,1.22,9.08
1542401880229161977,387,0,/imu_data_acquisition2,55190.0,-0.0989990234375,0.135986328125,0.675537109375,0.717834472656,-10.5625,84.375,-19.0,-2.5,0.23,9.62
1542401880240865945,388,0,/imu_data_acquisition2,55202.0,-0.0989990234375,0.135986328125,0.675537109375,0.717834472656,-19.8125,107.5625,-22.5625,-3.41,0.89,10.34
1542401880250508069,389,0,/imu_data_acquisition2,55211.0,-0.106628417969,0.141174316406,0.673461914062,0.717712402344,-23.0625,117.375,-23.9375,-3.48,0.9,9.75
1542401880259253978,390,0,/imu_data_acquisition2,55220.0,-0.114990234375,0.146789550781,0.671203613281,0.717407226562,-30.6875,113.9375,-26.3125,-4.27,0.63,10.0
1542401880271007061,391,0,/imu_data_acquisition2,55230.0,-0.123596191406,0.151672363281,0.668884277344,0.717163085938,-37.125,108.1875,-27.0,-7.82,1.11,10.99
1542401880280728101,392,0,/imu_data_acquisition2,55241.0,-0.13232421875,0.155822753906,0.66650390625,0.716918945312,-43.4375,114.9375,-24.3125,-1.53,0.26,9.62
1542401880289954900,393,0,/imu_data_acquisition2,55251.0,-0.141723632812,0.160095214844,0.664306640625,0.716247558594,-39.3125,124.0,-23.3125,-4.67,0.33,9.77
1542401880299863100,394,0,/imu_data_acquisition2,55261.0,-0.1513671875,0.165100097656,0.661926269531,0.71533203125,-37.25,137.5625,-38.625,-5.14,0.12,9.57
1542401880309811115,395,0,/imu_data_acquisition2,55271.0,-0.161865234375,0.170776367188,0.658264160156,0.715026855469,-29.1875,151.8125,-46.6875,-4.5,0.64,9.39
1542401880321299076,396,0,/imu_data_acquisition2,55280.0,-0.172729492188,0.177673339844,0.653747558594,0.715026855469,-22.4375,157.125,-0.0625,-4.26,0.06,9.79
1542401880329960107,397,0,/imu_data_acquisition2,55291.0,-0.183288574219,0.185363769531,0.6494140625,0.714294433594,-20.375,165.875,-57.3125,-4.01,0.04,10.14
1542401880340182065,398,0,/imu_data_acquisition2,55301.0,-0.194519042969,0.193359375,0.643676757812,0.714477539062,-15.0625,182.625,-60.25,-4.3,-0.26,10.22
1542401880350425004,399,0,/imu_data_acquisition2,55312.0,-0.206298828125,0.202575683594,0.63720703125,0.714416503906,-7.3125,207.4375,-51.8125,-4.24,-0.37,9.86
1542401880358937025,400,0,/imu_data_acquisition2,55320.0,-0.21875,0.213745117188,0.630493164062,0.713439941406,-7.3125,207.4375,-51.8125,-4.79,-0.13,10.33
1542401880370366096,401,0,/imu_data_acquisition2,55331.0,-0.231384277344,0.226318359375,-6.103515625e-05,0.712158203125,14.9375,238.625,-60.375,-5.59,-0.7,10.89
1542401880380661010,402,0,/imu_data_acquisition2,55341.0,-0.244140625,0.240173339844,0.6142578125,0.7109375,31.4375,256.0,-68.6875,-6.21,-1.1,10.93
1542401880390286922,403,0,/imu_data_acquisition2,55351.0,-0.256896972656,0.255737304688,0.604064941406,0.709777832031,51.6875,279.9375,-79.625,-5.57,-0.8,10.99
1542401880401051044,404,0,/imu_data_acquisition2,55362.0,-0.269714355469,0.273315429688,0.591918945312,0.708679199219,72.1875,305.0,-89.6875,-6.04,-0.39,9.69
1542401880409457921,405,0,/imu_data_acquisition2,55370.0,-0.282592773438,0.293029785156,0.577697753906,0.70751953125,72.1875,305.0,-89.6875,-5.7,-0.91,8.57
1542401880420203924,406,0,/imu_data_acquisition2,55381.0,-0.293884277344,0.314270019531,0.561584472656,0.706787109375,103.8125,311.25,-98.0625,-9.05,0.29,7.35
1542401880429790973,407,0,/imu_data_acquisition2,55391.0,-0.304321289062,0.336791992188,0.544311523438,0.705444335938,129.375,321.875,-94.0625,-9.38,0.37,11.04
1542401880440098047,408,0,/imu_data_acquisition2,55401.0,-0.313903808594,0.359375,0.526550292969,0.70361328125,134.9375,286.0,-104.125,-8.85,1.57,24.13
1542401880450936079,409,0,/imu_data_acquisition2,55412.0,-0.321655273438,0.379455566406,0.508483886719,0.702880859375,126.8125,208.4375,-111.5,-8.81,4.21,29.4
1542401880459304094,410,0,/imu_data_acquisition2,55420.0,-0.326538085938,0.394104003906,0.492004394531,0.704284667969,126.8125,208.4375,-111.5,-8.81,4.21,29.4
1542401880470299005,411,0,/imu_data_acquisition2,55431.0,-0.328735351562,0.401916503906,0.480407714844,0.706848144531,91.25,110.3125,-91.5,-1.13,11.05,22.32
1542401880479959964,412,0,/imu_data_acquisition2,55441.0,-6.103515625e-05,-6.103515625e-05,-6.103515625e-05,0.709350585938,-16.1875,-3.6875,-40.5,1.09,5.65,13.41
1542401880490696907,413,0,/imu_data_acquisition2,55452.0,-0.332275390625,0.402709960938,0.471618652344,0.710632324219,-55.5,-36.75,-12.0,0.83,1.21,9.79
1542401880501131057,414,0,/imu_data_acquisition2,55461.0,-0.0064697265625,-6.103515625e-05,-6.103515625e-05,0.710754394531,-59.0625,-56.625,11.0,0.08,0.34,10.43
1542401880509769916,415,0,/imu_data_acquisition2,55470.0,-0.33544921875,0.392517089844,0.47802734375,0.710571289062,-59.0625,-56.625,11.0,-1.08,0.23,11.87
1542401880520608901,416,0,/imu_data_acquisition2,55481.0,-0.00592041015625,-6.103515625e-05,-6.103515625e-05,0.710632324219,-42.6875,-74.4375,28.6875,-3.22,0.67,12.96
1542401880530107021,417,0,/imu_data_acquisition2,55491.0,-0.330017089844,0.381591796875,0.489196777344,0.71142578125,-10.5,-126.875,49.125,-2.85,0.42,11.88
1542401880540903091,418,0,/imu_data_acquisition2,55502.0,-0.323791503906,0.374877929688,0.496032714844,0.713195800781,-11.0625,-157.1875,52.125,-2.48,0.82,10.53
1542401880552855014,419,0,/imu_data_acquisition2,55512.0,-0.316223144531,0.366333007812,0.503723144531,0.715576171875,-18.3125,-180.25,51.5625,-2.54,0.85,9.55
1542401880558854103,420,0,/imu_data_acquisition2,55520.0,-0.307983398438,0.35595703125,0.51220703125,0.718383789062,-18.3125,-180.25,51.5625,-2.54,0.85,9.55
1542401880570075988,421,0,/imu_data_acquisition2,55530.0,-0.300415039062,0.342895507812,0.521545410156,0.721252441406,-43.5,-203.0625,46.6875,-2.58,-0.94,8.5
1542401880582396030,422,0,/imu_data_acquisition2,55541.0,-0.292724609375,0.329772949219,0.530700683594,0.723815917969,-39.6875,-211.125,43.3125,-2.95,-2.11,8.52
1542401880590809106,423,0,/imu_data_acquisition2,55552.0,-0.284423828125,0.316101074219,0.539611816406,0.726684570312,-9.25,-227.4375,32.8125,-3.79,-1.69,9.73
1542401880601171016,424,0,/imu_data_acquisition2,55562.0,-0.273681640625,0.302429199219,0.547241210938,0.730895996094,1.375,-237.4375,28.3125,-4.24,-0.87,10.14
1542401880609011888,425,0,/imu_data_acquisition2,55570.0,-0.261840820312,0.288452148438,0.554321289062,0.735534667969,1.375,-237.4375,28.3125,-4.24,-0.87,-0.01
1542401880618119001,426,0,/imu_data_acquisition2,55579.0,-0.24951171875,0.273742675781,0.561096191406,0.740234375,2.5,-245.875,24.8125,-4.4,0.0,10.2
1542401880642133951,428,0,/imu_data_acquisition2,55602.0,-0.224426269531,0.242492675781,0.574401855469,0.748962402344,-2.0625,-261.375,23.1875,-5.61,0.21,10.97
1542401880651084899,429,0,/imu_data_acquisition2,55612.0,-0.211364746094,0.226257324219,0.580688476562,0.7529296875,6.75,-264.5625,21.6875,-5.75,0.36,10.78
1542401880659919023,430,0,/imu_data_acquisition2,55620.0,-0.197448730469,0.210083007812,0.586547851562,0.756896972656,6.75,-264.5625,21.6875,-5.75,0.36,10.78
1542401880670017957,431,0,/imu_data_acquisition2,55631.0,-0.182922363281,0.194213867188,0.591796875,0.760620117188,15.875,-264.8125,20.4375,-5.68,0.77,10.56
1542401880681124925,432,0,/imu_data_acquisition2,55642.0,-0.16796875,0.179016113281,0.596618652344,0.764099121094,32.375,-251.5,21.625,-5.75,1.45,9.96
1542401880692660093,433,0,/imu_data_acquisition2,55653.0,-0.15283203125,0.164672851562,0.600952148438,0.76708984375,39.625,-0.0625,-0.0625,-6.13,1.88,10.32
1542401880702840089,434,0,/imu_data_acquisition2,55663.0,-0.1376953125,0.151428222656,0.60498046875,0.769470214844,49.1875,-227.375,31.875,-6.9,2.33,11.47
1542401880709460020,435,0,/imu_data_acquisition2,55671.0,-0.122436523438,0.139526367188,0.608947753906,0.771179199219,49.1875,-227.375,31.875,-6.9,2.33,11.47
1542401880719809055,436,0,/imu_data_acquisition2,55680.0,-0.107055664062,0.128723144531,0.613159179688,0.772033691406,57.25,-217.5625,41.8125,-7.42,2.84,12.26
1542401880731920957,437,0,/imu_data_acquisition2,55693.0,-0.0919799804688,0.118713378906,0.617858886719,0.771789550781,53.4375,-189.625,66.75,-7.26,3.16,10.8
1542401880740972995,438,0,/imu_data_acquisition2,55702.0,-0.0779418945312,0.109680175781,0.623046875,0.7705078125,51.1875,-169.625,76.5,-7.57,2.62,10.52
1542401880751796960,439,0,/imu_data_acquisition2,55713.0,-0.06494140625,0.101806640625,0.628601074219,0.768310546875,51.1875,-169.625,76.5,-8.92,2.05,10.75
1542401880759318113,440,0,/imu_data_acquisition2,55720.0,-0.0529174804688,0.0953979492188,0.634338378906,0.765319824219,52.25,-148.4375,83.625,-1.24,-0.01,-0.01
1542401880769928932,441,0,/imu_data_acquisition2,55731.0,-0.041748046875,0.0904541015625,0.64013671875,0.761779785156,55.25,-128.1875,88.9375,-10.65,1.38,11.09
1542401880780899047,442,0,/imu_data_acquisition2,55742.0,-0.0311889648438,0.0870361328125,0.64599609375,0.757751464844,61.125,-109.875,93.1875,-11.72,0.89,11.57
1542401880792082071,443,0,/imu_data_acquisition2,55753.0,-0.020751953125,0.0848999023438,0.651977539062,0.753173828125,69.5625,-96.0625,98.0625,-14.43,0.75,14.57
1542401880801348924,444,0,/imu_data_acquisition2,55763.0,-0.0100708007812,0.0835571289062,0.658020019531,0.748229980469,78.25,-96.9375,104.375,-15.96,0.89,16.53
1542401880809478998,445,0,/imu_data_acquisition2,55770.0,0.0009765625,0.0818481445312,0.664123535156,0.743103027344,78.25,-96.9375,104.375,-15.96,0.89,16.53
1542401880819566965,446,0,/imu_data_acquisition2,55781.0,0.0123901367188,0.0782470703125,0.670043945312,0.738037109375,65.6875,-116.5625,103.375,-17.09,1.04,17.76
1542401880831660985,447,0,/imu_data_acquisition2,55793.0,0.03271484375,0.0619506835938,0.680969238281,0.728942871094,1.3125,-152.3125,90.3125,-14.39,0.14,9.14
1542401880842421054,448,0,/imu_data_acquisition2,55803.0,0.03271484375,0.0619506835938,0.680969238281,0.728942871094,1.3125,-152.3125,90.3125,-13.19,-1.22,5.41
1542401880852176904,449,0,/imu_data_acquisition2,55813.0,0.0397338867188,0.0509643554688,0.685546875,0.725158691406,-30.0625,-146.75,79.75,-11.85,-4.26,0.72
1542401880860292911,450,0,/imu_data_acquisition2,55821.0,0.0448608398438,0.0404052734375,0.689392089844,0.721923828125,-42.5625,-128.6875,67.1875,-11.85,-4.26,0.72
1542401880869564056,451,0,/imu_data_acquisition2,55830.0,0.049072265625,0.031982421875,0.6923828125,0.719177246094,-32.75,-103.5625,54.4375,-11.44,-5.02,-0.39
1542401880880893945,452,0,/imu_data_acquisition2,55842.0,0.0528564453125,0.0266723632812,0.694641113281,0.716918945312,-10.6875,-74.125,41.75,-10.89,-3.58,-0.98
1542401880890914916,453,0,/imu_data_acquisition2,55852.0,0.0557250976562,0.0242309570312,0.696105957031,0.71533203125,5.625,-7.9375,15.75,-10.65,-1.73,-0.26
1542401880901766061,454,0,/imu_data_acquisition2,55863.0,0.0565185546875,0.0240478515625,0.697021484375,0.714416503906,5.625,-7.9375,15.75,-10.59,-1.52,0.75
1542401880909025907,455,0,/imu_data_acquisition2,55870.0,0.0550537109375,0.0250244140625,0.697509765625,0.713989257812,-4.0,21.3125,6.1875,-10.59,-1.52,0.75
1542401880919769048,456,0,/imu_data_acquisition2,55881.0,0.051513671875,0.0272216796875,0.69775390625,0.713989257812,-12.125,47.5625,0.0,-10.67,-1.53,2.14
1542401880931762933,457,0,/imu_data_acquisition2,55893.0,0.04638671875,0.0306396484375,0.697692871094,0.714233398438,-14.75,71.4375,-6.0625,0.49,0.83,12.73
1542401880941843032,458,0,/imu_data_acquisition2,55903.0,0.0386352539062,0.0362548828125,0.697265625,0.71484375,-4.0625,-0.0625,-0.0625,2.29,0.54,16.92
1542401880951102972,459,0,/imu_data_acquisition2,55913.0,0.0305786132812,0.0406494140625,0.695983886719,0.716247558594,-15.625,-0.0625,-0.0625,-0.98,0.01,6.95
1542401880960539102,460,0,/imu_data_acquisition2,55922.0,0.022705078125,0.0449829101562,0.693969726562,0.718200683594,-30.375,99.75,-38.6875,-0.98,0.01,6.95
1542401880970458030,461,0,/imu_data_acquisition2,55931.0,-6.103515625e-05,-6.103515625e-05,-6.103515625e-05,0.720153808594,-28.5625,106.3125,-39.75,-0.85,0.25,6.65
1542401880980326890,462,0,/imu_data_acquisition2,55942.0,0.00701904296875,0.0562133789062,0.690185546875,0.721435546875,-11.625,115.375,-14.25,-1.41,0.98,10.51
1542401880992053031,463,0,/imu_data_acquisition2,55953.0,0.00079345703125,0.0635375976562,0.689025878906,0.721923828125,7.25,112.5625,-18.6875,-4.4,1.11,14.64
1542401881002554893,464,0,/imu_data_acquisition2,55963.0,-0.0047607421875,0.0698852539062,0.688049316406,0.722229003906,4.6875,99.5625,-15.0625,-3.69,0.24,13.48
1542401881009026050,465,0,/imu_data_acquisition2,55970.0,-0.00994873046875,0.0750732421875,0.68701171875,0.72265625,-1.125,86.1875,-16.3125,-3.69,0.24,13.48
1542401881020785093,466,0,/imu_data_acquisition2,55982.0,-0.0145874023438,0.079833984375,0.685974121094,0.723083496094,0.0625,78.25,-15.6875,-2.67,0.29,12.37
1542401881032619953,467,0,/imu_data_acquisition2,55992.0,-6.103515625e-05,-6.103515625e-05,-6.103515625e-05,0.723388671875,2.75,74.8125,-14.25,-2.25,1.4,11.61
1542401881042192935,468,0,/imu_data_acquisition2,56003.0,-0.0230712890625,0.0889892578125,0.68408203125,0.723571777344,-4.5625,63.4375,-6.25,-4.11,3.7,-0.01
1542401881051914930,469,0,/imu_data_acquisition2,56013.0,-0.027099609375,0.0925903320312,0.68359375,0.723449707031,-4.5625,63.4375,-6.25,-4.6,0.59,12.42
1542401881060635089,470,0,/imu_data_acquisition2,56021.0,-0.0299682617188,0.0945434570312,0.683349609375,0.723327636719,-8.4375,40.375,-3.875,-4.6,0.59,12.42
1542401881070019006,471,0,/imu_data_acquisition2,56030.0,-0.0317993164062,0.0953369140625,0.683227539062,0.723266601562,-9.0,21.25,-2.625,-0.2,1.71,7.27
1542401881082688093,472,0,/imu_data_acquisition2,56044.0,-0.03369140625,0.0961303710938,0.683227539062,0.723083496094,-7.9375,18.4375,-1.6875,-1.78,0.89,10.27
1542401881091284990,473,0,/imu_data_acquisition2,56053.0,-0.0352783203125,0.0968017578125,0.68310546875,0.723022460938,-7.9375,-0.0625,-0.0625,-1.72,0.68,10.65
1542401881103013992,474,0,/imu_data_acquisition2,56064.0,-0.03662109375,0.0972900390625,0.68310546875,0.722900390625,-7.3125,15.375,-0.8125,-2.23,0.63,10.21
1542401881109191894,475,0,/imu_data_acquisition2,56070.0,-0.0376586914062,0.09765625,0.683166503906,0.722717285156,-6.1875,11.875,0.625,-2.23,-0.01,-0.01
1542401881118748903,476,0,/imu_data_acquisition2,56080.0,-0.0385131835938,0.0980224609375,0.683166503906,0.72265625,-4.25,9.75,0.4375,-2.41,0.79,10.21
1542401881132513999,477,0,/imu_data_acquisition2,56093.0,-0.0391235351562,0.098388671875,0.68310546875,0.722595214844,-2.3125,8.0,-0.625,-1.79,0.73,9.97
1542401881143934965,478,0,/imu_data_acquisition2,56103.0,-0.0396118164062,0.0987548828125,0.68310546875,0.722534179688,-1.0,7.25,-0.5625,-1.7,0.48,10.0
1542401881153196096,479,0,/imu_data_acquisition2,56113.0,-0.0399780273438,0.0991821289062,0.683044433594,0.722473144531,-0.125,6.875,-0.5,-1.87,0.68,10.23
1542401881162295103,480,0,/imu_data_acquisition2,56123.0,-0.0403442382812,0.099609375,0.683044433594,0.722412109375,0.625,6.8125,-0.0625,-1.87,0.68,-0.01
1542401881168567895,481,0,/imu_data_acquisition2,56130.0,-0.0406494140625,0.10009765625,0.682983398438,0.722412109375,1.375,6.25,0.375,-1.76,0.83,10.04
1542401881182101964,482,0,/imu_data_acquisition2,56143.0,-0.0409545898438,0.100524902344,0.682983398438,0.722351074219,1.0,6.1875,0.3125,-1.84,0.87,9.83
1542401881193883895,483,0,/imu_data_acquisition2,56154.0,-0.041259765625,0.100891113281,0.682983398438,0.722290039062,-1.4375,6.6875,-0.0625,-1.96,0.99,10.43
1542401881206443071,484,0,/imu_data_acquisition2,56164.0,-0.041748046875,0.101257324219,0.682922363281,0.722229003906,-1.4375,6.6875,-0.0625,-1.83,0.7,10.14
1542401881211761951,485,0,/imu_data_acquisition2,56172.0,-0.0421752929688,0.101440429688,0.682922363281,0.72216796875,-2.0625,5.375,-0.4375,-1.83,0.7,10.14
1542401881220902919,486,0,/imu_data_acquisition2,56181.0,-0.0426025390625,0.101623535156,0.682922363281,0.722106933594,-2.0625,5.1875,-0.5625,-1.92,0.83,10.15
1542401881231529951,487,0,/imu_data_acquisition2,56190.0,-0.04296875,0.101806640625,-6.103515625e-05,0.722106933594,-2.0625,5.125,-0.75,-1.81,0.77,10.08
1542401881241651058,488,0,/imu_data_acquisition2,56203.0,-0.0433349609375,0.101867675781,0.682861328125,0.722106933594,-2.1875,5.4375,-1.0,-1.62,0.83,9.7
1542401881251461029,489,0,/imu_data_acquisition2,56212.0,-0.0438232421875,0.101928710938,0.682800292969,0.722106933594,-3.0625,6.8125,-1.3125,-1.78,0.59,10.16
1542401881258620977,490,0,/imu_data_acquisition2,56220.0,-0.0443725585938,0.102172851562,0.682739257812,0.72216796875,-3.1875,7.3125,-1.4375,-2.04,0.88,9.84
1542401881272113084,491,0,/imu_data_acquisition2,56231.0,-0.0138549804688,-6.103515625e-05,-6.103515625e-05,0.72216796875,-4.0,7.5625,-1.9375,-2.22,0.73,10.47
1542401881279052019,492,0,/imu_data_acquisition2,56240.0,-0.0455932617188,0.102478027344,0.682556152344,0.722229003906,-3.4375,6.3125,-1.5,-1.73,0.71,10.0
1542401881292572975,493,0,/imu_data_acquisition2,56253.0,-0.0462036132812,0.102661132812,0.682434082031,0.722229003906,-3.125,6.375,-1.5625,-2.19,0.76,10.42
1542401881302469968,494,0,/imu_data_acquisition2,56264.0,-0.0467529296875,0.102844238281,0.682373046875,0.722229003906,-3.1875,5.8125,-1.5,-1.76,0.7,10.21
1542401881307924032,495,0,/imu_data_acquisition2,56269.0,-0.0472412109375,0.102966308594,0.682250976562,0.722290039062,-3.25,4.8125,-1.5625,-1.76,0.7,10.21
1542401881319569110,496,0,/imu_data_acquisition2,56281.0,-0.0477294921875,0.10302734375,0.682189941406,0.722290039062,-3.0625,4.625,-1.5625,-2.12,0.65,9.98
1542401881332194089,497,0,/imu_data_acquisition2,56293.0,-0.0482177734375,0.103149414062,0.682067871094,0.722351074219,-2.875,5.125,-1.625,-2.14,-0.01,-0.01
1542401881343234062,498,0,/imu_data_acquisition2,56304.0,-6.103515625e-05,-6.103515625e-05,-6.103515625e-05,0.722412109375,-2.5,4.875,-1.375,-2.04,0.28,9.86
1542401881355076074,499,0,/imu_data_acquisition2,56314.0,-0.0490112304688,0.103515625,0.681945800781,0.722412109375,-1.375,5.0,-1.0,-1.81,0.54,9.94
1542401881361294031,500,0,/imu_data_acquisition2,56322.0,-0.04931640625,0.103881835938,0.681884765625,0.722351074219,-0.5625,5.4375,-0.5625,-1.81,0.54,9.94
1542401881371417045,501,0,/imu_data_acquisition2,56330.0,-0.0496826171875,0.104187011719,-6.103515625e-05,0.722290039062,0.1875,5.625,-0.3125,-1.77,0.71,9.87
1542401881379466056,502,0,/imu_data_acquisition2,56340.0,-0.0499877929688,0.1044921875,-6.103515625e-05,0.722290039062,0.0,6.5625,-0.0625,-1.99,0.78,9.9
1542401881392633914,503,0,/imu_data_acquisition2,56354.0,-0.05029296875,0.104797363281,0.681701660156,0.722290039062,-0.5,6.8125,-1.125,-1.89,0.63,9.6
1542401881402201890,504,0,/imu_data_acquisition2,56362.0,-0.05078125,0.105224609375,0.681579589844,0.722351074219,-0.8125,7.625,-1.5,-2.19,0.84,9.96
1542401881411032915,505,0,/imu_data_acquisition2,56373.0,-0.0513916015625,0.105529785156,0.681457519531,0.722351074219,-1.75,7.4375,-1.8125,-1.94,0.66,9.66
1542401881418528079,506,0,/imu_data_acquisition2,56380.0,-0.0519409179688,0.105895996094,0.681335449219,0.722412109375,-2.0,7.9375,-2.0,-2.0,0.51,9.96
1542401881432168960,507,0,/imu_data_acquisition2,56389.0,-0.052490234375,0.106140136719,0.681213378906,0.722473144531,-1.9375,7.75,-0.0625,-1.92,0.64,10.0
1542401881443171977,508,0,/imu_data_acquisition2,56403.0,-0.052978515625,0.106323242188,0.681091308594,0.722534179688,-2.0,7.75,-2.375,-1.89,0.59,9.84
1542401881454029083,509,0,/imu_data_acquisition2,56414.0,-0.0535888671875,0.106628417969,0.680908203125,0.722595214844,-2.5625,8.6875,-2.75,-2.3,0.7,9.7
1542401881459304094,510,0,/imu_data_acquisition2,56420.0,-0.0543212890625,0.106811523438,0.680725097656,0.722717285156,-3.1875,8.125,-2.9375,-2.11,0.3,9.74
1542401881470956087,511,0,/imu_data_acquisition2,56432.0,-0.0550537109375,0.107055664062,0.680480957031,0.722778320312,-3.375,8.8125,-3.3125,-2.18,0.52,10.1
1542401881482603073,512,0,/imu_data_acquisition2,56440.0,-0.0557250976562,0.107177734375,0.680297851562,0.722900390625,-3.5,8.75,-3.125,-1.98,0.53,9.8
1542401881489448070,513,0,/imu_data_acquisition2,56450.0,-0.0564575195312,0.107482910156,0.680114746094,0.723022460938,-3.125,8.8125,-3.1875,-2.32,0.51,9.72
1542401881503170967,514,0,/imu_data_acquisition2,56464.0,-0.0571899414062,0.107727050781,0.679870605469,0.723083496094,-3.125,8.8125,-3.3125,-2.12,0.38,9.89
1542401881511780977,515,0,/imu_data_acquisition2,56470.0,-0.057861328125,0.10791015625,0.6796875,0.723205566406,-2.8125,8.75,-3.1875,-2.12,0.38,9.89
1542401881519555091,516,0,/imu_data_acquisition2,56480.0,-0.05859375,0.108215332031,0.679443359375,0.723327636719,-2.5625,9.3125,-3.375,-2.27,-0.01,-0.01
1542401881532464981,517,0,/imu_data_acquisition2,56494.0,-0.0123901367188,-6.103515625e-05,-6.103515625e-05,0.723449707031,-2.25,9.4375,-3.4375,-2.19,0.6,9.98
