%time,field.header.seq,field.header.stamp,field.header.frame_id,field.time_stamp,field.quat_x,field.quat_y,field.quat_z,field.quat_w,field.gyro_x,field.gyro_y,field.gyro_z,field.accel_x,field.accel_y,field.accel_z
1541714684962388038,149,0,/imu_data_acquisition2,27139.0,-0.17724609375,0.219604492188,-6.103515625e-05,0.599975585938,67.9375,-122.5,-44.6875,-6.97,-3.12,5.24
1541714684972323894,150,0,/imu_data_acquisition2,27149.0,-0.167053222656,0.21728515625,0.746826171875,0.60595703125,69.25,-118.75,-43.5625,-6.87,-3.04,5.52
1541714684982480049,151,0,/imu_data_acquisition2,27158.0,-0.156860351562,0.215270996094,0.744995117188,0.611633300781,70.75,-115.6875,-41.375,-7.24,-3.4,6.74
1541714684989703893,152,0,/imu_data_acquisition2,27167.0,-0.146545410156,0.213195800781,0.743103027344,0.617126464844,71.75,-116.375,-39.5625,-7.36,-3.69,6.68
1541714685000463962,153,0,/imu_data_acquisition2,27177.0,-0.136047363281,0.2109375,0.741271972656,0.622497558594,70.625,-119.0,-6.5,-7.24,-3.9,6.16
1541714685012991905,154,0,/imu_data_acquisition2,27189.0,-0.125671386719,0.208435058594,0.739379882812,0.627746582031,67.3125,-119.5,-37.3125,-7.21,-3.98,5.61
1541714685023497104,155,0,/imu_data_acquisition2,27201.0,-0.115966796875,0.205627441406,0.737609863281,0.632629394531,59.125,-0.0625,-0.0625,-8.48,-3.93,6.42
1541714685035104990,156,0,/imu_data_acquisition2,27212.0,-0.106994628906,0.202209472656,0.735900878906,0.637268066406,47.75,-113.0,-35.75,-9.13,-3.87,6.6
1541714685040832996,157,0,/imu_data_acquisition2,27218.0,-0.0986938476562,0.197937011719,0.734436035156,0.6416015625,34.75,-0.0625,-0.0625,-9.13,-3.87,6.6
1541714685053354978,158,0,/imu_data_acquisition2,27231.0,-0.0906982421875,0.193054199219,0.733337402344,0.6455078125,25.3125,-115.0,-29.5,-10.29,-3.38,5.37
1541714685065558910,159,0,/imu_data_acquisition2,27242.0,-0.0830688476562,0.1875,0.732604980469,0.648986816406,15.8125,-115.5625,-24.1875,-11.24,-2.96,4.6
1541714685075469017,160,0,/imu_data_acquisition2,27252.0,-0.0757446289062,0.181579589844,0.732360839844,0.65185546875,8.25,-115.0625,-16.375,-14.69,-2.96,1.21
1541714685083785057,161,0,/imu_data_acquisition2,27261.0,-0.0689086914062,0.175476074219,0.732727050781,0.653869628906,0.6875,-110.9375,-5.1875,-14.69,-2.96,1.21
1541714685089768886,162,0,/imu_data_acquisition2,27267.0,-0.0629272460938,0.169555664062,0.733825683594,0.654846191406,-7.125,-100.6875,7.5,-15.72,-1.14,-0.01
1541714685126954078,165,0,/imu_data_acquisition2,27302.0,-0.0537719726562,0.154541015625,0.739135742188,0.653381347656,-31.1875,-44.625,18.1875,-20.97,-10.36,-1.44
1541714685134637117,166,0,/imu_data_acquisition2,27312.0,-0.0540161132812,0.151245117188,0.739807128906,0.653381347656,-32.5,-23.625,3.125,-20.74,-9.99,-1.2
1541714685138484001,167,0,/imu_data_acquisition2,27316.0,-0.0557861328125,0.14892578125,0.739135742188,0.654479980469,-31.8125,-4.1875,-19.75,-20.74,-9.99,-1.2
1541714685148509979,168,0,/imu_data_acquisition2,27326.0,-0.0584716796875,0.147888183594,0.737060546875,0.656860351562,-24.6875,12.625,-42.5625,-39.94,26.27,28.3
1541714685158312082,169,0,/imu_data_acquisition2,27336.0,-0.00616455078125,-6.103515625e-05,-6.103515625e-05,0.656372070312,91.9375,-2.125,15.125,-11.62,14.79,6.74
1541714685174271106,170,0,/imu_data_acquisition2,27352.0,-0.0318603515625,0.139526367188,0.746154785156,0.650207519531,21.4375,-0.0625,-0.0625,22.54,0.76,0.36
1541714685178572893,171,0,/imu_data_acquisition2,27356.0,-0.0197143554688,0.124145507812,0.749694824219,0.649719238281,-48.125,-226.125,45.9375,22.54,0.76,0.36
1541714685190222024,172,0,/imu_data_acquisition2,27368.0,-0.00628662109375,0.106323242188,0.750427246094,0.65234375,-55.3125,-259.875,-2.1875,20.41,2.44,-3.13
1541714685199889898,173,0,/imu_data_acquisition2,27376.0,-0.00360107421875,0.0953979492188,0.748352050781,0.656372070312,-73.4375,-113.625,-48.875,4.37,6.07,10.06
1541714685210889101,174,0,/imu_data_acquisition2,27388.0,-0.00927734375,0.0859375,0.745483398438,0.660949707031,-124.6875,-28.25,-69.75,0.97,1.88,6.73
1541714685225511074,175,0,/imu_data_acquisition2,27402.0,-0.017822265625,0.078857421875,0.742736816406,0.664733886719,-125.75,16.8125,-64.375,-1.56,-0.86,9.33
1541714685230166912,176,0,/imu_data_acquisition2,27407.0,-0.0286865234375,0.0741577148438,0.740051269531,0.667846679688,-123.625,55.875,-60.0,-3.24,-2.08,10.3
1541714685240817070,177,0,/imu_data_acquisition2,27418.0,-0.0386962890625,0.0718383789062,0.737915039062,0.669921875,-97.5625,68.3125,-44.5,-6.01,-0.07,12.1
1541714685251036882,178,0,/imu_data_acquisition2,27427.0,-0.0460815429688,0.069580078125,0.73681640625,0.6708984375,-12.5625,-0.0625,-0.0625,-5.53,-0.85,10.46
1541714685263410091,179,0,/imu_data_acquisition2,27439.0,-0.0507202148438,0.0665283203125,0.736206054688,0.671569824219,-62.8125,16.4375,-0.0625,-3.09,-0.07,8.97
1541714685274499893,180,0,/imu_data_acquisition2,27452.0,-0.0537109375,0.0630493164062,0.735595703125,0.672302246094,-53.0625,-1.8125,-15.75,-2.84,-0.2,9.35
1541714685279721021,181,0,/imu_data_acquisition2,27456.0,-0.0562133789062,0.0590209960938,0.734741210938,0.673461914062,-53.5,-10.625,-21.5625,-2.6,-1.42,9.9
1541714685290452957,182,0,/imu_data_acquisition2,27467.0,-0.0581665039062,0.0548706054688,0.733642578125,0.6748046875,-50.1875,-16.25,-24.0,-2.1,-2.0,9.89
1541714685304569959,183,0,/imu_data_acquisition2,27482.0,-0.0591430664062,0.0513305664062,0.732849121094,0.675842285156,-36.625,-19.8125,-18.4375,-2.31,-1.57,10.1
1541714685312449932,184,0,/imu_data_acquisition2,27488.0,-0.0592041015625,0.049072265625,0.732360839844,0.676574707031,-19.3125,-17.8125,-12.0,-1.56,0.57,9.43
1541714685334573030,186,0,/imu_data_acquisition2,27512.0,-0.0591430664062,0.04541015625,0.731140136719,0.678100585938,-17.0,-14.6875,-14.25,-2.18,1.93,9.12
1541714685341907978,187,0,/imu_data_acquisition2,27517.0,-0.0596313476562,0.0425415039062,0.730407714844,0.679077148438,-27.4375,-18.875,-17.0625,-1.3,1.76,9.81
1541714685355681896,188,0,/imu_data_acquisition2,27532.0,-0.060546875,0.0390014648438,0.729614257812,0.680053710938,-36.3125,-20.3125,-17.3125,-1.66,1.21,10.05
1541714685363873004,189,0,/imu_data_acquisition2,27541.0,-0.06201171875,0.0355834960938,0.728759765625,0.680969238281,-40.125,-14.75,-17.8125,-1.49,0.71,9.99
1541714685373003959,190,0,/imu_data_acquisition2,27548.0,-0.0637817382812,0.0322265625,0.727844238281,0.682006835938,-42.5,-11.125,-19.125,-1.54,0.45,9.75
1541714685382455110,191,0,/imu_data_acquisition2,27559.0,-0.0658569335938,0.0288696289062,0.726867675781,0.682983398438,-44.5,-8.75,-19.625,-1.6,-0.3,9.55
1541714685393901109,192,0,/imu_data_acquisition2,27571.0,-0.0679931640625,0.0255126953125,0.726013183594,0.683837890625,-45.5,-8.9375,-17.75,-2.07,-0.8,9.57
1541714685399416923,193,0,/imu_data_acquisition2,27577.0,-0.0701904296875,0.0222778320312,0.725280761719,0.684509277344,-44.5625,-6.5625,-15.1875,-2.06,-1.19,10.33
1541714685414302110,194,0,/imu_data_acquisition2,27591.0,-0.0721435546875,0.0193481445312,0.724609375,0.68505859375,-40.0,-6.375,-13.0,-1.13,-0.01,-0.01
1541714685428266048,195,0,/imu_data_acquisition2,27603.0,-0.073974609375,0.0172119140625,0.72412109375,0.685485839844,-33.1875,-1.5,-9.9375,-0.77,-1.35,9.4
1541714685429831027,196,0,/imu_data_acquisition2,27607.0,-0.0759887695312,0.015380859375,0.723693847656,0.685729980469,-31.375,2.25,-0.0625,-0.77,-1.35,9.4
1541714685442403078,197,0,/imu_data_acquisition2,27620.0,-0.0776977539062,0.0143432617188,0.723327636719,0.685974121094,-22.5,6.8125,-6.3125,-1.39,-1.5,9.86
1541714685453982114,198,0,/imu_data_acquisition2,27631.0,-0.07958984375,0.0140380859375,0.722961425781,0.686157226562,-18.0,14.0,-5.25,-1.92,-0.65,9.93
1541714685459270954,199,0,/imu_data_acquisition2,27637.0,-0.0813598632812,0.0142211914062,0.722534179688,0.686401367188,-11.875,17.0,-5.1875,-2.51,-1.25,9.59
1541714685475477933,200,0,/imu_data_acquisition2,27652.0,-0.0830078125,0.0145263671875,0.72216796875,0.686584472656,-10.6875,16.8125,-4.375,-1.43,-0.73,9.19
1541714685484647035,201,0,/imu_data_acquisition2,27660.0,-0.00640869140625,-6.103515625e-05,-6.103515625e-05,0.686767578125,-9.3125,16.25,-4.3125,-2.3,-1.06,9.71
1541714685489530086,202,0,/imu_data_acquisition2,27667.0,-0.085693359375,0.0156860351562,0.721557617188,0.686889648438,-2.5,16.6875,-2.625,-1.89,-0.81,-0.01
1541714685501427888,203,0,/imu_data_acquisition2,27679.0,-0.0868530273438,0.0164794921875,0.721252441406,0.68701171875,-2.5,16.6875,-2.625,-1.61,-0.63,9.5
1541714685519824028,205,0,/imu_data_acquisition2,27697.0,-0.0888671875,0.018310546875,0.720947265625,0.68701171875,-0.25,14.1875,0.1875,-1.88,-0.31,9.63
1541714685533093929,206,0,/imu_data_acquisition2,27709.0,-0.0897216796875,0.0189208984375,0.720886230469,0.68701171875,-2.1875,12.75,0.4375,-2.65,-0.63,9.83
1541714685541821002,207,0,/imu_data_acquisition2,27718.0,-0.090576171875,0.0194702148438,0.720825195312,0.686889648438,-2.0625,11.3125,1.0,-2.22,-0.55,9.59
1541714685549814939,208,0,/imu_data_acquisition2,27727.0,-0.09130859375,0.02001953125,0.720886230469,0.686767578125,-1.625,10.5625,1.6875,-1.84,-0.24,9.78
1541714685564429998,209,0,/imu_data_acquisition2,27742.0,-0.0921020507812,0.0205688476562,0.720886230469,0.686584472656,-2.0625,11.75,2.1875,-2.73,-0.92,9.69
1541714685573256969,210,0,/imu_data_acquisition2,27749.0,-0.0928344726562,0.0211791992188,0.721008300781,0.686401367188,-1.0625,10.6875,2.875,-2.02,-0.71,9.57
1541714685581957101,211,0,/imu_data_acquisition2,27758.0,-0.0936279296875,0.0217895507812,0.721069335938,0.686157226562,-1.5625,11.5625,3.375,-2.34,-0.9,9.73
1541714685594327926,212,0,/imu_data_acquisition2,27772.0,-0.094482421875,0.0223388671875,0.72119140625,0.685852050781,-2.25,11.75,3.6875,-2.13,-0.66,9.55
1541714685600775957,213,0,/imu_data_acquisition2,27777.0,-0.0953369140625,0.02294921875,0.721313476562,0.685607910156,-1.8125,12.25,3.4375,-2.27,-0.8,9.7
1541714685611783027,214,0,/imu_data_acquisition2,27788.0,-0.0963134765625,0.0238037109375,0.721374511719,0.685424804688,-1.5,15.3125,3.0,-2.6,-1.01,9.55
1541714685630333900,216,0,/imu_data_acquisition2,27807.0,-0.098876953125,0.02685546875,0.721374511719,0.684936523438,-0.25,18.875,2.375,-2.37,-0.81,9.73
1541714685642076969,217,0,/imu_data_acquisition2,27820.0,-0.100402832031,0.028564453125,0.721374511719,0.684631347656,0.25,20.375,2.4375,-2.45,-0.73,9.39
1541714685654738903,218,0,/imu_data_acquisition2,27832.0,-0.101745605469,0.02978515625,0.721313476562,0.684448242188,-0.625,21.75,2.125,-2.41,-0.39,9.75
1541714685660415887,219,0,/imu_data_acquisition2,27837.0,-0.103149414062,0.0310668945312,0.72119140625,0.684265136719,-0.625,22.375,1.8125,-1.98,-0.48,9.33
1541714685673320055,220,0,/imu_data_acquisition2,27851.0,-0.104797363281,0.0324096679688,0.721069335938,0.684143066406,-2.0,24.625,1.0,-2.48,-0.69,9.47
1541714685684823036,221,0,/imu_data_acquisition2,27861.0,-0.106506347656,0.0343627929688,0.720825195312,0.684020996094,-1.4375,26.5625,-0.5625,-2.35,-0.46,9.47
1541714685690565109,222,0,/imu_data_acquisition2,27867.0,-0.108520507812,0.0363159179688,0.720520019531,0.683898925781,-2.1875,28.0,-1.0,-2.77,-0.89,9.63
1541714685702102899,223,0,/imu_data_acquisition2,27879.0,-0.110473632812,0.038330078125,0.72021484375,0.683837890625,-1.9375,29.375,-1.625,-2.32,-0.5,9.21
1541714685714438915,224,0,/imu_data_acquisition2,27889.0,-0.112609863281,0.04052734375,0.719787597656,0.683837890625,-3.625,31.25,-2.875,-2.64,-0.35,9.3
1541714685720467090,225,0,/imu_data_acquisition2,27897.0,-0.11474609375,0.042724609375,0.719299316406,0.683776855469,-5.6875,32.25,-3.6875,-2.44,-0.23,9.42
1541714685732350111,226,0,/imu_data_acquisition2,27910.0,-0.117248535156,0.0448608398438,0.71875,0.683837890625,-7.125,35.125,-5.1875,-2.78,-0.57,9.54
1541714685744796991,227,0,/imu_data_acquisition2,27921.0,-0.1201171875,0.0469360351562,0.717895507812,0.684143066406,-4.6875,41.6875,-8.1875,-2.85,-0.12,9.54
1541714685750200033,228,0,/imu_data_acquisition2,27927.0,-0.123352050781,0.0491943359375,0.716796875,0.684509277344,-5.625,47.1875,-10.4375,-2.8,-0.8,9.25
1541714685762625932,229,0,/imu_data_acquisition2,27940.0,-6.103515625e-05,-6.103515625e-05,-6.103515625e-05,0.684936523438,-4.9375,50.3125,-10.9375,-3.2,-0.38,9.4
1541714685777383089,230,0,/imu_data_acquisition2,27954.0,-0.130310058594,0.0540161132812,0.714538574219,0.685241699219,-8.125,51.25,-10.125,-3.83,-0.63,9.48
1541714685783157110,231,0,/imu_data_acquisition2,27958.0,-0.13427734375,0.0562133789062,0.71337890625,0.685485839844,-12.25,52.5625,-10.9375,-3.35,-0.33,9.52
1541714685791733980,232,0,/imu_data_acquisition2,27969.0,-0.138305664062,0.0582885742188,0.712158203125,0.685791015625,-13.75,52.5625,-11.625,-3.25,-0.66,9.53
1541714685800348997,233,0,/imu_data_acquisition2,27976.0,-0.142211914062,0.0606689453125,0.710754394531,0.686218261719,-10.125,53.75,-14.25,-3.89,-0.96,9.62
1541714685809218883,234,0,/imu_data_acquisition2,27987.0,-0.146179199219,0.0630493164062,0.709106445312,0.686889648438,-9.75,55.5625,-17.3125,-3.81,-0.97,-0.01
1541714685820924997,235,0,/imu_data_acquisition2,27997.0,-0.150207519531,0.0656127929688,0.707214355469,0.687744140625,-8.625,56.875,-21.5,-3.3,-0.88,-0.01
1541714685828113079,236,0,/imu_data_acquisition2,28006.0,-0.154235839844,0.0687255859375,0.705200195312,0.688598632812,-3.0,62.25,-21.3125,-2.68,-0.38,7.48
1541714685839888095,237,0,/imu_data_acquisition2,28017.0,-0.158508300781,0.0722045898438,0.703369140625,0.689208984375,-3.5625,66.625,-16.875,-2.96,-0.97,9.92
1541714685850801944,238,0,/imu_data_acquisition2,28027.0,-0.158508300781,0.0722045898438,0.703369140625,0.689208984375,-5.75,70.4375,-15.25,-3.25,-2.24,9.88
1541714685858239889,239,0,/imu_data_acquisition2,28036.0,-0.167907714844,0.080078125,0.699523925781,0.690002441406,-0.6875,78.375,-15.6875,-2.1,-2.09,8.65
1541714685870044946,240,0,/imu_data_acquisition2,28047.0,-0.173156738281,0.0851440429688,0.697448730469,0.690124511719,1.25,-0.0625,-0.0625,-3.98,-3.03,10.59
1541714685879858970,241,0,/imu_data_acquisition2,28057.0,-0.178466796875,0.0908203125,0.695373535156,0.690185546875,5.6875,94.5625,-11.125,-4.17,-2.55,9.89
1541714685889537096,242,0,/imu_data_acquisition2,28067.0,-0.183654785156,0.0968627929688,0.693420410156,0.68994140625,9.0625,96.6875,-6.4375,-0.7,-0.01,-0.01
1541714685903723955,243,0,/imu_data_acquisition2,28079.0,-0.188720703125,0.103637695312,0.691833496094,0.689208984375,14.3125,101.125,1.4375,-4.77,-1.47,9.75
1541714685914530038,244,0,/imu_data_acquisition2,28091.0,-0.193603515625,0.110900878906,0.6904296875,0.688110351562,19.0625,103.1875,8.25,-4.22,-0.64,9.14
1541714685919986009,245,0,/imu_data_acquisition2,28097.0,-0.198486328125,0.118347167969,0.689331054688,0.686645507812,18.8125,105.3125,13.4375,-3.93,-0.7,8.68
1541714685931783914,246,0,/imu_data_acquisition2,28107.0,-0.203735351562,0.125915527344,0.688293457031,0.684753417969,16.375,109.3125,17.0625,-3.81,-0.34,8.77
1541714685941379070,247,0,/imu_data_acquisition2,28117.0,-0.203735351562,0.125915527344,0.688293457031,0.684753417969,11.5,112.5625,18.8125,-4.37,0.01,9.25
1541714685949264049,248,0,/imu_data_acquisition2,28127.0,-0.215576171875,0.140991210938,0.686096191406,0.680358886719,8.125,117.9375,17.9375,-4.13,0.81,9.5
1541714685971882104,249,0,/imu_data_acquisition2,28139.0,-0.222595214844,0.148803710938,0.684631347656,0.677917480469,2.8125,128.0625,16.4375,-5.44,0.65,9.77
1541714685979470014,250,0,/imu_data_acquisition2,28147.0,-0.230651855469,0.157104492188,0.682678222656,0.67529296875,-1.0625,141.4375,13.0,-5.5,1.24,10.48
1541714685980623006,251,0,/imu_data_acquisition2,28157.0,-0.23974609375,0.165832519531,0.679748535156,0.673034667969,-2.6875,155.9375,2.1875,-3.77,0.99,11.17
1541714685991770982,252,0,/imu_data_acquisition2,28168.0,-0.251892089844,0.172058105469,0.676330566406,0.67041015625,-47.0625,161.875,-12.375,-4.48,5.5,10.71
1541714686001137018,253,0,/imu_data_acquisition2,28177.0,-6.103515625e-05,-6.103515625e-05,-6.103515625e-05,0.668823242188,-38.4375,198.3125,-38.25,-4.75,4.63,10.71
1541714686009258985,254,0,/imu_data_acquisition2,28187.0,-0.279235839844,0.195434570312,0.659484863281,0.670043945312,42.0,257.9375,-77.0625,-6.18,-1.06,10.59
1541714686021099090,255,0,/imu_data_acquisition2,28198.0,-0.294921875,0.211608886719,0.645690917969,0.671813964844,39.875,292.375,-106.125,-5.23,1.91,10.46
1541714686030090093,256,0,/imu_data_acquisition2,28207.0,-0.315551757812,0.228088378906,0.629028320312,0.6728515625,6.8125,-0.0625,-0.0625,-3.69,0.88,9.83
1541714686039302110,257,0,/imu_data_acquisition2,28217.0,-0.339538574219,0.244506835938,0.609985351562,0.672912597656,-16.6875,380.875,-155.5625,-7.32,1.0,12.2
1541714686050798892,258,0,/imu_data_acquisition2,28228.0,-0.364013671875,0.259643554688,0.590698242188,0.671691894531,-35.0,378.125,-154.5,-8.06,4.82,14.69
1541714686059369087,259,0,/imu_data_acquisition2,28237.0,-0.364013671875,0.259643554688,-6.103515625e-05,0.671691894531,-32.6875,288.375,-62.3125,-7.72,29.39,-0.01
1541714686070691108,260,0,/imu_data_acquisition2,28248.0,-0.38720703125,0.279541015625,0.583740234375,0.656616210938,-59.75,108.0625,125.75,0.98,20.82,23.26
1541714686081545114,261,0,/imu_data_acquisition2,28258.0,-0.38720703125,0.279541015625,0.583740234375,0.656616210938,-61.3125,20.0625,223.25,6.5,10.45,11.77
1541714686090157032,262,0,/imu_data_acquisition2,28268.0,-0.38623046875,0.284912109375,0.596801757812,0.643005371094,-82.1875,33.0,239.5625,2.36,2.83,11.62
1541714686101304054,263,0,/imu_data_acquisition2,28279.0,-0.38720703125,0.29443359375,0.62255859375,0.613037109375,-81.4375,29.875,208.4375,-2.43,-5.29,15.0
1541714686109682083,264,0,/imu_data_acquisition2,28287.0,-0.38720703125,0.29443359375,0.62255859375,0.613037109375,-59.625,4.625,157.5625,-1.89,-5.22,15.19
1541714686121094942,265,0,/imu_data_acquisition2,28298.0,-0.386596679688,0.296630859375,0.631958007812,0.602661132812,-40.75,-20.8125,100.3125,-2.4,-4.08,16.46
1541714686131439924,266,0,/imu_data_acquisition2,28308.0,-0.382385253906,0.294677734375,0.643798828125,0.593688964844,-26.9375,-47.125,56.6875,-2.93,1.68,16.37
1541714686139278888,267,0,/imu_data_acquisition2,28316.0,-0.382385253906,0.294677734375,0.643798828125,0.593688964844,-23.1875,-74.5,33.1875,-2.88,4.55,15.23
1541714686149955034,268,0,/imu_data_acquisition2,28327.0,-0.378662109375,0.290710449219,0.6484375,0.592956542969,-25.75,-96.9375,31.0625,-2.92,6.58,13.45
1541714686161591053,269,0,/imu_data_acquisition2,28338.0,-0.368225097656,0.279663085938,0.660095214844,0.592041015625,-29.9375,-109.625,44.0625,-3.29,7.73,11.78
1541714686169558048,270,0,/imu_data_acquisition2,28347.0,-0.368225097656,0.279663085938,0.660095214844,0.592041015625,-29.4375,-115.125,64.8125,-4.81,7.42,9.33
1541714686180917024,271,0,/imu_data_acquisition2,28358.0,-0.361755371094,0.274291992188,0.667541503906,0.590148925781,-22.625,-116.1875,85.3125,-5.64,6.27,8.27
1541714686191615104,272,0,/imu_data_acquisition2,28369.0,-0.354309082031,0.269775390625,0.675842285156,0.587341308594,-9.75,-113.25,99.9375,-6.28,4.7,7.2
1541714686200124979,273,0,/imu_data_acquisition2,28376.0,-0.346008300781,0.2666015625,0.684326171875,0.583862304688,-9.75,-113.25,99.9375,-7.63,1.83,7.3
1541714686219535112,274,0,/imu_data_acquisition2,28396.0,-0.328125,0.264099121094,0.699462890625,0.577331542969,22.125,-98.125,99.375,-7.43,0.92,7.46
1541714686223653078,275,0,/imu_data_acquisition2,28401.0,-0.00653076171875,-6.103515625e-05,-6.103515625e-05,0.575134277344,31.875,-94.1875,86.9375,-9.03,-0.56,9.9
1541714686231640100,276,0,/imu_data_acquisition2,28408.0,-0.319030761719,0.263793945312,0.70556640625,0.575134277344,40.375,-99.1875,72.125,-9.05,-1.02,10.5
1541714686243858098,277,0,/imu_data_acquisition2,28421.0,-0.3095703125,0.263305664062,0.710815429688,0.574096679688,42.375,-107.25,57.375,-8.75,-1.25,-0.01
1541714686250566005,278,0,/imu_data_acquisition2,28427.0,-0.299743652344,0.262145996094,0.715454101562,0.574096679688,44.125,-114.375,45.5,-8.14,-1.29,8.81
1541714686261655092,279,0,/imu_data_acquisition2,28438.0,-0.289672851562,0.260375976562,0.719482421875,0.574951171875,44.5625,-116.625,34.875,-7.94,-1.37,8.26
1541714686270591974,280,0,/imu_data_acquisition2,28448.0,-0.279663085938,0.25830078125,0.723022460938,0.576477050781,46.875,-118.0,27.1875,-7.41,-1.84,7.74
1541714686282227039,281,0,/imu_data_acquisition2,28458.0,-0.26953125,0.256042480469,0.72607421875,0.578430175781,50.9375,-118.625,21.25,-7.26,-1.96,7.62
1541714686288676023,282,0,/imu_data_acquisition2,28466.0,-0.25927734375,0.253845214844,0.728698730469,0.580810546875,50.9375,-118.625,21.25,-7.26,-1.96,7.62
1541714686300472974,283,0,/imu_data_acquisition2,28477.0,-0.248962402344,0.251586914062,-6.103515625e-05,0.58349609375,53.0,-119.5625,16.25,-7.09,-3.25,7.44
1541714686311444997,284,0,/imu_data_acquisition2,28488.0,-0.238464355469,0.249145507812,0.732788085938,0.586608886719,59.125,-125.0,4.5625,-2.05,-0.01,-0.01
1541714686319605112,285,0,/imu_data_acquisition2,28497.0,-0.227722167969,0.246704101562,0.734252929688,0.590087890625,62.25,-128.25,-0.8125,-6.91,-0.72,-0.01
1541714686332734107,286,0,/imu_data_acquisition2,28509.0,-0.216674804688,0.244140625,0.735290527344,0.593933105469,63.4375,-129.4375,-5.1875,-7.3,-3.48,6.22
1541714686341572999,287,0,/imu_data_acquisition2,28517.0,-0.205505371094,0.241455078125,0.736022949219,0.598083496094,63.625,-129.8125,-8.125,-7.46,-3.7,6.08
1541714686349145889,288,0,/imu_data_acquisition2,28527.0,-0.194396972656,0.238708496094,0.736511230469,0.602294921875,63.625,-129.8125,-8.125,-7.6,-4.11,5.79
1541714686361028909,289,0,/imu_data_acquisition2,28538.0,-0.183471679688,0.235778808594,0.736755371094,0.606567382812,58.9375,-126.75,-16.3125,-7.44,-5.14,4.89
1541714686373238086,290,0,/imu_data_acquisition2,28548.0,-0.172912597656,0.232666015625,0.736694335938,0.610961914062,56.6875,-122.875,-23.625,-7.62,-5.42,5.16
1541714686380285024,291,0,/imu_data_acquisition2,28558.0,-0.162780761719,0.2294921875,0.736083984375,0.615661621094,55.6875,-119.75,-32.1875,-7.54,-5.2,5.43
1541714686390666007,292,0,/imu_data_acquisition2,28567.0,-0.153076171875,0.226318359375,0.734924316406,0.620666503906,55.6875,-119.75,-32.1875,-7.28,-4.77,5.73
1541714686400522947,293,0,/imu_data_acquisition2,28577.0,-0.143676757812,0.222900390625,0.733276367188,0.626098632812,53.625,-118.375,-40.3125,-7.55,-4.19,5.96
1541714686409895896,294,0,/imu_data_acquisition2,28587.0,-0.134460449219,0.21923828125,0.731262207031,0.631713867188,49.5,-120.25,-46.3125,-7.74,-1.16,-0.01
1541714686427237987,295,0,/imu_data_acquisition2,28598.0,-6.103515625e-05,-6.103515625e-05,-6.103515625e-05,0.637329101562,45.3125,-121.3125,-45.0625,-7.84,-3.44,5.77
1541714686435414075,296,0,/imu_data_acquisition2,28610.0,-0.116149902344,0.211120605469,0.727172851562,0.642761230469,39.6875,-121.0625,-40.8125,-8.34,-2.92,5.4
1541714686440067052,297,0,/imu_data_acquisition2,28618.0,-0.107299804688,0.20654296875,0.725402832031,0.647766113281,31.4375,-119.3125,-34.875,-8.87,-2.86,5.25
1541714686450771093,298,0,/imu_data_acquisition2,28627.0,-0.0988159179688,0.201599121094,0.723999023438,0.652221679688,31.4375,-119.3125,-34.875,-9.49,-2.97,4.99
1541714686464251995,299,0,/imu_data_acquisition2,28639.0,-0.0908813476562,0.1962890625,0.722961425781,0.656127929688,13.125,-114.5,-22.5,-10.71,-3.05,3.98
1541714686471093893,300,0,/imu_data_acquisition2,28648.0,-0.0835571289062,0.190551757812,0.722351074219,0.659484863281,4.5625,-109.5625,-17.3125,-11.56,-2.93,3.67
1541714686482331037,301,0,/imu_data_acquisition2,28659.0,-0.076904296875,0.184631347656,0.722045898438,0.662292480469,-2.125,-103.25,-11.9375,-12.22,-2.78,3.07
1541714686490235090,302,0,/imu_data_acquisition2,28667.0,-0.0708618164062,0.178588867188,0.722045898438,0.664611816406,-2.125,-103.25,-11.9375,-12.22,-2.78,3.07
1541714686499768972,303,0,/imu_data_acquisition2,28677.0,-0.0656127929688,0.172668457031,0.722473144531,0.666259765625,-8.8125,-95.25,-4.8125,-13.13,-2.78,2.45
1541714686511790990,304,0,/imu_data_acquisition2,28688.0,-0.0613403320312,0.166931152344,0.723266601562,0.667236328125,-24.0625,-71.125,7.75,-16.16,-3.84,0.19
1541714686521449089,305,0,/imu_data_acquisition2,28699.0,-0.0582275390625,0.161499023438,0.724426269531,0.667663574219,-34.0,-53.8125,9.125,-17.44,-4.56,-0.36
1541714686531510114,306,0,/imu_data_acquisition2,28709.0,-0.0567626953125,0.156433105469,0.725646972656,0.667663574219,-40.8125,-37.9375,6.875,-19.03,-5.77,-0.95
1541714686538368940,307,0,/imu_data_acquisition2,28716.0,-0.056640625,0.151794433594,0.726745605469,0.66748046875,-40.8125,-37.9375,6.875,-19.03,-5.77,-0.95
1541714686550308942,308,0,/imu_data_acquisition2,28727.0,-0.0579833984375,0.147888183594,0.727416992188,0.667541503906,-46.1875,-19.6875,-0.1875,-23.86,-6.79,-1.55
1541714686562335014,309,0,/imu_data_acquisition2,28739.0,-0.0587768554688,0.149597167969,0.727233886719,0.667297363281,32.1875,-157.375,124.1875,-15.5,34.0,17.85
1541714686570883989,310,0,/imu_data_acquisition2,28748.0,-0.0457153320312,0.143249511719,0.734497070312,0.661743164062,9.375,-226.375,60.5625,-13.63,4.6,13.32
1541714686581885099,311,0,/imu_data_acquisition2,28759.0,-0.0304565429688,0.131408691406,0.738525390625,0.66064453125,-64.5,-255.875,-12.5625,1.92,-1.13,10.6
1541714686589930057,312,0,/imu_data_acquisition2,28766.0,-0.0181884765625,0.113037109375,0.739013671875,0.663940429688,-64.5,-255.875,-12.5625,1.92,-1.13,-0.01
1541714686600084066,313,0,/imu_data_acquisition2,28777.0,-0.00677490234375,0.09619140625,0.73828125,0.667541503906,-56.0625,-236.8125,-25.8125,14.22,7.67,0.79
1541714686612050056,314,0,/imu_data_acquisition2,28788.0,-0.00836181640625,0.0856323242188,0.735900878906,0.671630859375,-101.625,-74.4375,-56.9375,2.15,-0.04,5.42
1541714686621673107,315,0,/imu_data_acquisition2,28799.0,-6.103515625e-05,-6.103515625e-05,-6.103515625e-05,0.674743652344,-136.0625,-4.0,-52.0625,-0.84,0.36,8.4
1541714686631680965,316,0,/imu_data_acquisition2,28809.0,-0.0269775390625,0.0718994140625,-6.103515625e-05,0.677917480469,-126.4375,50.9375,-59.8125,-2.26,-0.48,10.61
1541714686638696908,317,0,/imu_data_acquisition2,28816.0,-0.0377807617188,0.0687255859375,0.728698730469,0.680358886719,-111.0625,67.125,-51.375,-2.26,-0.48,10.61
1541714686649548053,318,0,/imu_data_acquisition2,28827.0,-0.0480346679688,0.0675048828125,0.726867675781,0.681762695312,-91.0625,78.375,-35.4375,-7.14,-0.03,11.57
1541714686662424087,319,0,/imu_data_acquisition2,28839.0,-0.0558471679688,0.0654296875,0.725830078125,0.682495117188,-63.9375,13.375,-18.5625,-2.44,0.01,8.83
1541714686671590089,320,0,/imu_data_acquisition2,28849.0,-0.0604248046875,0.0621948242188,0.725036621094,0.683227539062,-57.9375,-3.4375,-18.5,-2.34,-0.21,8.87
1541714686681792020,321,0,/imu_data_acquisition2,28859.0,-0.0636596679688,0.058349609375,0.724304199219,0.68408203125,-60.375,-7.375,-23.5625,-3.06,-0.42,9.92
1541714686691355943,322,0,/imu_data_acquisition2,28866.0,-0.0668334960938,0.0540771484375,0.723266601562,0.685241699219,-60.375,-7.375,-7.5625,-3.06,-0.42,9.92
1541714686700203895,323,0,/imu_data_acquisition2,28877.0,-0.0691528320312,0.0497436523438,0.722106933594,0.6865234375,-54.3125,-15.25,-25.75,-3.31,-1.9,10.26
1541714686711683034,324,0,/imu_data_acquisition2,28888.0,-0.070556640625,0.0453491210938,0.72119140625,0.687683105469,-47.125,-23.6875,-21.3125,-1.59,-2.56,9.89
1541714686721551895,325,0,/imu_data_acquisition2,28899.0,-0.071044921875,0.0419921875,0.720581054688,0.6884765625,-17.375,-11.125,-11.5625,-0.84,-1.76,9.21
1541714686732193946,326,0,/imu_data_acquisition2,28909.0,-0.0714111328125,0.0402221679688,0.720031738281,0.689086914062,-17.375,-11.125,-11.5625,-2.66,0.8,9.87
1541714686738389968,327,0,/imu_data_acquisition2,28916.0,-0.0718994140625,0.039306640625,0.719482421875,0.689697265625,-11.0625,-3.125,-10.75,-2.66,0.8,9.87
1541714686749566078,328,0,/imu_data_acquisition2,28926.0,-0.0723266601562,0.0377197265625,0.718872070312,0.690307617188,-16.3125,-9.0625,-11.625,-2.11,0.8,9.59
1541714686762618064,329,0,/imu_data_acquisition2,28939.0,-0.072998046875,0.0355834960938,0.718200683594,0.691101074219,-22.75,-11.9375,-14.1875,-2.14,0.56,10.21
1541714686771439075,330,0,/imu_data_acquisition2,28949.0,-0.073974609375,0.033203125,0.717346191406,0.691955566406,-27.125,-10.5,-17.0,-2.05,-0.01,-0.01
1541714686781835079,331,0,/imu_data_acquisition2,28959.0,-0.075439453125,0.0307006835938,0.716430664062,0.692932128906,-31.9375,-7.8125,-18.5,-2.19,0.17,10.06
1541714686791254043,332,0,/imu_data_acquisition2,28967.0,-0.0768432617188,0.0281982421875,0.715454101562,0.69384765625,-31.25,-7.9375,-18.0625,-2.19,0.17,10.06
1541714686799976110,333,0,/imu_data_acquisition2,28977.0,-0.0782470703125,0.0256958007812,0.714599609375,0.694641113281,-31.875,-8.25,-16.875,-1.79,0.24,9.8
1541714686811837911,334,0,/imu_data_acquisition2,28988.0,-0.0797119140625,0.0230712890625,0.7138671875,0.695373535156,-33.3125,-8.1875,-15.1875,-1.88,-0.3,9.58
1541714686821599006,335,0,/imu_data_acquisition2,28999.0,-0.0814819335938,0.0203857421875,-6.103515625e-05,0.695983886719,-36.25,-7.1875,-13.75,-1.58,-0.93,9.98
1541714686832348108,336,0,/imu_data_acquisition2,29010.0,-0.0830688476562,0.0177612304688,0.712463378906,0.696533203125,-35.0,-7.5,-13.5625,-1.26,-2.06,9.25
1541714686838332891,337,0,/imu_data_acquisition2,29016.0,-0.08447265625,0.0155029296875,0.7119140625,0.697021484375,-30.0625,-6.25,-10.625,-1.26,-2.06,9.25
1541714686849639892,338,0,/imu_data_acquisition2,29026.0,-0.0863037109375,0.0137939453125,0.71142578125,0.697265625,-28.875,1.5,-8.1875,-1.79,-1.84,9.87
1541714686862751007,339,0,/imu_data_acquisition2,29039.0,-0.087890625,0.0128784179688,0.711059570312,0.697509765625,-20.625,6.125,-6.5,-1.46,-1.69,9.37
1541714686871387958,340,0,/imu_data_acquisition2,29049.0,-0.0894775390625,0.0123291015625,0.710693359375,0.697631835938,-17.375,9.4375,-4.5,-1.99,-1.28,9.65
1541714686881963968,341,0,/imu_data_acquisition2,29059.0,-0.0910034179688,0.01220703125,0.710388183594,0.697814941406,-13.6875,11.875,-4.6875,-2.56,-1.4,9.77
1541714686890952110,342,0,/imu_data_acquisition2,29067.0,-0.0924682617188,0.0122680664062,0.710021972656,0.697998046875,-10.5625,13.1875,-4.6875,-2.56,-1.4,9.77
1541714686899537086,343,0,/imu_data_acquisition2,29077.0,-0.0936279296875,0.0125732421875,0.709655761719,0.698181152344,-7.125,12.5625,-4.375,-2.05,-1.01,9.83
1541714686910553932,344,0,/imu_data_acquisition2,29087.0,-0.0947265625,0.012939453125,0.709289550781,0.698364257812,-5.6875,13.125,-4.0,-2.19,-1.01,9.83
1541714686921963930,345,0,/imu_data_acquisition2,29099.0,-0.095703125,0.0135498046875,0.708984375,0.698547363281,-2.6875,13.125,-3.4375,-2.67,-1.02,10.03
1541714686932533979,346,0,/imu_data_acquisition2,29110.0,-0.0967407226562,0.0142822265625,0.708740234375,0.698669433594,-1.9375,15.0,-2.25,-2.08,-0.47,9.74
1541714686938359022,347,0,/imu_data_acquisition2,29116.0,-6.103515625e-05,-6.103515625e-05,-6.103515625e-05,0.698669433594,-2.1875,15.0,-1.25,-2.08,-0.47,9.74
1541714686950592994,348,0,/imu_data_acquisition2,29127.0,-0.0986328125,0.0156860351562,0.708435058594,0.698669433594,-1.875,12.8125,0.1875,-2.66,-1.06,9.49
1541714686963068962,349,0,/imu_data_acquisition2,29139.0,-0.0995483398438,0.0162353515625,0.708374023438,0.698608398438,-3.0,12.25,0.4375,-2.61,-0.96,9.67
1541714686971704959,350,0,/imu_data_acquisition2,29149.0,-0.100341796875,0.0166625976562,0.708374023438,0.698486328125,-3.5,10.0625,1.25,-2.15,-0.68,-0.01
1541714686982562065,351,0,/imu_data_acquisition2,29160.0,-0.101196289062,0.0169677734375,0.708312988281,0.698364257812,-4.5,10.0,1.3125,-2.11,-1.0,9.62
1541714686990087032,352,0,/imu_data_acquisition2,29167.0,-0.101989746094,0.0173950195312,0.708374023438,0.6982421875,-2.875,10.25,1.4375,-2.11,-1.0,9.62
1541714687000307083,353,0,/imu_data_acquisition2,29177.0,-0.102844238281,0.0179443359375,0.708374023438,0.698120117188,-2.5,11.8125,1.6875,-2.29,-0.77,9.64
1541714687008615970,354,0,/imu_data_acquisition2,29186.0,-0.103698730469,0.0185546875,0.708374023438,0.697937011719,-2.1875,11.625,2.4375,-2.22,-1.27,9.45
1541714687022164106,355,0,/imu_data_acquisition2,29199.0,-0.104614257812,0.0191040039062,0.708374023438,0.69775390625,-3.25,12.6875,1.6875,-2.31,-0.9,9.67
1541714687032577991,356,0,/imu_data_acquisition2,29210.0,-0.105651855469,0.0198364257812,0.708374023438,0.697631835938,-2.4375,14.25,1.75,-2.16,-0.96,9.34
1541714687038548946,357,0,/imu_data_acquisition2,29216.0,-0.106811523438,0.0206909179688,0.708312988281,0.697509765625,-2.5625,16.6875,1.3125,-2.16,-0.96,9.34
1541714687049822092,358,0,/imu_data_acquisition2,29227.0,-0.108215332031,0.0220336914062,0.708251953125,0.697265625,-2.4375,18.0,1.5625,-2.46,-1.08,9.57
1541714687060162067,359,0,/imu_data_acquisition2,29237.0,-0.109497070312,0.0235595703125,0.708190917969,0.697082519531,-2.3125,20.0,1.1875,-1.97,-0.54,9.36
1541714687071841001,360,0,/imu_data_acquisition2,29249.0,-0.110900878906,0.025390625,0.708068847656,0.696899414062,-2.6875,22.9375,1.0625,-2.2,-0.45,9.31
1541714687081916093,361,0,/imu_data_acquisition2,29259.0,-0.112426757812,0.0274047851562,0.707885742188,0.69677734375,-1.9375,23.3125,0.0625,-2.53,-0.76,9.28
1541714687091499090,362,0,/imu_data_acquisition2,29267.0,-0.0050048828125,-6.103515625e-05,-6.103515625e-05,0.696594238281,-4.1875,25.6875,-0.5,-2.75,-1.01,9.58
1541714687099817037,363,0,/imu_data_acquisition2,29277.0,-0.1162109375,0.03076171875,0.707336425781,0.696533203125,-2.5,27.5,-1.0625,-2.37,-0.01,-0.01
1541714687110156059,364,0,/imu_data_acquisition2,29286.0,-0.118225097656,0.0322265625,0.70703125,0.696533203125,-4.1875,29.5625,-1.1875,-2.61,-1.15,9.44
1541714687122270107,365,0,/imu_data_acquisition2,29300.0,-0.120483398438,0.0338134765625,0.706604003906,0.696472167969,-5.625,32.1875,-0.0625,-2.84,-0.97,9.35
1541714687132544994,366,0,/imu_data_acquisition2,29310.0,-0.122863769531,0.035400390625,0.7060546875,0.696533203125,-6.0,33.6875,-3.0,-2.84,-1.09,9.53
1541714687138331890,367,0,/imu_data_acquisition2,29316.0,-0.125427246094,0.0369262695312,0.70556640625,0.696472167969,-8.5625,35.125,-3.125,-2.84,-1.09,-0.01
1541714687149612903,368,0,/imu_data_acquisition2,29326.0,-0.127990722656,0.0387573242188,0.704895019531,0.696594238281,-5.0625,37.75,-4.3125,-1.91,-1.41,8.68
1541714687161237001,369,0,/imu_data_acquisition2,29338.0,-0.130737304688,0.0411987304688,0.703979492188,0.696838378906,-1.5,44.3125,-7.0625,-2.87,-0.94,9.42
1541714687173101902,370,0,/imu_data_acquisition2,29350.0,-0.133972167969,0.0435791015625,0.703002929688,0.697082519531,-6.0,47.375,-7.9375,-3.13,-0.82,8.93
1541714687182514905,371,0,/imu_data_acquisition2,29360.0,-0.137329101562,0.046142578125,-6.103515625e-05,0.697265625,-5.625,50.6875,-7.625,-3.07,-0.62,9.3
1541714687190458059,372,0,/imu_data_acquisition2,29367.0,-0.140991210938,0.0486450195312,0.700988769531,0.697387695312,-8.125,52.875,-7.6875,-2.74,-0.54,9.41
1541714687199373006,373,0,/imu_data_acquisition2,29377.0,-0.144836425781,0.0513305664062,0.699829101562,0.697570800781,-8.6875,55.3125,-8.5625,-2.85,-0.67,9.31
1541714687210916042,374,0,/imu_data_acquisition2,29388.0,-0.148803710938,0.053955078125,0.698608398438,0.69775390625,-9.6875,56.75,-9.1875,-2.77,-0.2,9.05
1541714687223675012,375,0,/imu_data_acquisition2,29400.0,-0.152709960938,0.0570068359375,0.697326660156,0.697937011719,-5.9375,59.5,-9.4375,-2.49,-1.04,9.56
1541714687232245922,376,0,/imu_data_acquisition2,29410.0,-0.157043457031,0.0606079101562,0.695678710938,0.698364257812,-4.0625,68.375,-13.625,-2.49,-1.04,9.56
1541714687240766048,377,0,/imu_data_acquisition2,29417.0,-0.161926269531,0.0643920898438,0.693603515625,0.698974609375,-6.875,75.125,-18.8125,-3.33,-2.28,10.22
1541714687251980066,378,0,/imu_data_acquisition2,29427.0,-0.166931152344,0.0682983398438,0.691528320312,0.699462890625,-6.875,-0.0625,-0.0625,-4.88,-3.38,12.67
1541714687258902072,379,0,/imu_data_acquisition2,29436.0,-0.171325683594,0.0724487304688,0.689453125,0.700073242188,0.8125,74.125,-17.8125,-2.62,-2.57,9.31
1541714687274315118,380,0,/imu_data_acquisition2,29450.0,-0.175476074219,0.077392578125,0.687316894531,0.700561523438,8.625,79.1875,-15.0,-4.45,-2.58,10.03
1541714687283792018,381,0,/imu_data_acquisition2,29461.0,-0.179809570312,0.0830688476562,0.685424804688,0.70068359375,12.875,82.8125,-2.6875,-2.79,-0.4,8.32
1541714687290841102,382,0,/imu_data_acquisition2,29467.0,-0.183837890625,0.0886840820312,0.683898925781,0.700439453125,12.875,82.8125,-2.6875,-2.79,-0.4,8.32
1541714687300523042,383,0,/imu_data_acquisition2,29477.0,-0.188171386719,0.09423828125,0.682922363281,0.699523925781,8.0,84.75,6.8125,-3.08,-1.13,8.73
1541714687309926033,384,0,/imu_data_acquisition2,29487.0,-0.19287109375,0.100341796875,0.682189941406,0.698059082031,7.6875,91.4375,14.4375,-5.04,-0.87,9.16
1541714687323208093,385,0,/imu_data_acquisition2,29500.0,-0.197814941406,0.10693359375,-6.103515625e-05,0.696228027344,8.9375,97.625,19.8125,-3.91,-0.15,9.41
1541714687336276054,386,0,/imu_data_acquisition2,29510.0,-0.203002929688,0.113647460938,0.681213378906,0.694091796875,7.125,101.4375,22.5625,-4.73,-0.01,9.79
1541714687340607881,387,0,/imu_data_acquisition2,29518.0,-0.208923339844,0.12060546875,0.680847167969,0.691589355469,1.875,109.25,25.6875,-4.72,0.37,10.11
1541714687350394010,388,0,/imu_data_acquisition2,29528.0,-0.215698242188,0.127685546875,0.680114746094,0.688903808594,-3.9375,117.75,23.8125,-4.49,0.24,10.18
1541714687364011049,389,0,/imu_data_acquisition2,29541.0,-0.223815917969,0.134826660156,0.678833007812,0.686218261719,-13.5,130.75,16.9375,-3.64,-0.04,11.21
1541714687370671987,390,0,/imu_data_acquisition2,29548.0,-0.233459472656,0.142883300781,0.676635742188,0.68359375,-16.9375,153.5625,9.1875,-3.64,-0.04,11.21
1541714687383272886,391,0,/imu_data_acquisition2,29560.0,-0.244995117188,0.150756835938,0.674255371094,0.68017578125,-35.375,168.1875,10.1875,-3.65,3.26,10.85
1541714687392235994,392,0,/imu_data_acquisition2,29569.0,-0.26025390625,0.156005859375,0.671569824219,0.675964355469,-88.5625,178.875,0.375,-2.98,-1.5,9.72
1541714687398689985,393,0,/imu_data_acquisition2,29576.0,-0.275268554688,0.166198730469,0.665344238281,0.673706054688,-34.75,224.5625,-28.0625,-5.68,-0.27,11.83
1541714687411864995,394,0,/imu_data_acquisition2,29587.0,-0.290405273438,0.1806640625,0.655029296875,0.673767089844,14.3125,268.3125,-0.0625,-3.3,0.19,9.87
1541714687422593116,395,0,/imu_data_acquisition2,29600.0,-0.3076171875,0.197021484375,0.641540527344,0.674499511719,20.1875,309.25,-93.25,-6.02,0.07,8.97
1541714687431279897,396,0,/imu_data_acquisition2,29608.0,-0.328857421875,0.214111328125,0.624633789062,0.675170898438,2.1875,357.9375,-127.625,-6.68,1.07,11.23
1541714687442985057,397,0,/imu_data_acquisition2,29620.0,-0.352478027344,0.23095703125,0.60595703125,0.674682617188,-18.6875,383.0625,-140.375,-7.11,2.02,11.83
1541714687450120925,398,0,/imu_data_acquisition2,29628.0,-0.376525878906,0.246643066406,0.587036132812,0.672912597656,-35.1875,381.5625,-138.75,-9.7,9.82,21.69
1541714687461914062,399,0,/imu_data_acquisition2,29638.0,-0.394287109375,0.259765625,0.574584960938,0.668518066406,-33.5,296.8125,-61.5625,-7.58,17.82,30.39
1541714687474554061,400,0,/imu_data_acquisition2,29650.0,-0.399780273438,0.268310546875,0.576843261719,0.659851074219,-32.625,121.375,99.375,3.81,14.14,17.38
1541714687481800079,401,0,/imu_data_acquisition2,29659.0,-0.398742675781,0.274353027344,-6.103515625e-05,0.649291992188,-31.5625,27.3125,180.0625,3.63,6.21,12.92
1541714687490617036,402,0,/imu_data_acquisition2,29667.0,-0.398803710938,0.279907226562,0.597900390625,0.636535644531,-59.25,31.1875,201.625,-1.15,-3.38,12.08
1541714687501200914,403,0,/imu_data_acquisition2,29678.0,-0.399230957031,0.284301757812,0.607971191406,0.624633789062,-61.5625,28.0,179.125,-1.16,-5.69,13.03
1541714687508538961,404,0,/imu_data_acquisition2,29686.0,-0.39892578125,0.286987304688,0.615661621094,0.615966796875,-45.25,10.1875,132.9375,-0.95,-4.7,13.89
1541714687521122932,405,0,/imu_data_acquisition2,29698.0,-0.398010253906,0.287780761719,0.620666503906,0.611145019531,-27.125,-8.125,79.0,-1.4,-2.74,15.36
1541714687531752109,406,0,/imu_data_acquisition2,29709.0,-0.396179199219,0.28662109375,0.6240234375,0.609497070312,-14.125,-15.6875,-0.0625,-1.16,3.46,15.84
1541714687540654897,407,0,/imu_data_acquisition2,29716.0,-0.393188476562,0.283630371094,0.627075195312,0.609680175781,-10.0625,-59.1875,16.6875,-0.9,6.16,14.99
1541714687552510976,408,0,/imu_data_acquisition2,29728.0,-0.389038085938,0.279052734375,0.631164550781,0.610290527344,-15.0,-84.625,17.375,-1.05,7.77,13.87
1541714687559397935,409,0,/imu_data_acquisition2,29737.0,-0.3837890625,0.273681640625,0.636779785156,0.610229492188,-21.25,-103.5625,33.6875,-2.32,8.78,11.49
1541714687573720932,410,0,/imu_data_acquisition2,29750.0,-0.377380371094,0.268188476562,0.644104003906,0.608947753906,-24.4375,-117.25,58.25,-3.27,8.22,10.42
1541714687583015918,411,0,/imu_data_acquisition2,29758.0,-0.369812011719,0.263061523438,0.652893066406,0.6064453125,-23.3125,-125.5,83.625,-4.36,7.15,9.65
1541714687589602947,412,0,/imu_data_acquisition2,29767.0,-0.361267089844,0.258666992188,0.66259765625,0.602966308594,-18.25,-129.5,103.8125,-6.31,4.49,8.28
1541714687600363969,413,0,/imu_data_acquisition2,29777.0,-0.351928710938,0.254943847656,0.672607421875,0.598937988281,-10.3125,-130.375,116.3125,-7.54,2.58,7.7
1541714687610968112,414,0,/imu_data_acquisition2,29788.0,-0.342163085938,0.251953125,0.682373046875,0.594848632812,-1.375,-127.4375,118.625,-8.24,0.96,7.73
1541714687618526935,415,0,/imu_data_acquisition2,29796.0,-0.33203125,0.249755859375,0.691162109375,0.59130859375,12.9375,-122.1875,111.5625,-1.15,-0.01,-0.01
1541714687630505084,416,0,/imu_data_acquisition2,29808.0,-0.321716308594,0.248107910156,0.698669433594,0.588928222656,27.375,-118.25,95.9375,-9.34,-1.2,9.19
1541714687640511989,417,0,/imu_data_acquisition2,29818.0,-0.311218261719,0.246765136719,0.704772949219,0.587829589844,39.875,-116.1875,77.625,-9.28,-0.81,9.83
1541714687651091098,418,0,/imu_data_acquisition2,29827.0,-0.300354003906,0.245361328125,0.7099609375,0.587890625,48.6875,-119.8125,61.9375,-9.11,-0.67,9.81
1541714687660746097,419,0,/imu_data_acquisition2,29837.0,-0.289306640625,0.243408203125,0.714477539062,0.588684082031,49.9375,-124.75,49.875,-9.26,-1.58,9.27
1541714687670763015,420,0,/imu_data_acquisition2,29848.0,-0.0126953125,-6.103515625e-05,-6.103515625e-05,0.590026855469,49.75,-127.5625,40.5625,-8.55,-1.77,8.1
1541714687681035995,421,0,/imu_data_acquisition2,29858.0,-0.267028808594,0.238586425781,0.722045898438,0.591979980469,54.5625,-129.625,31.6875,-0.82,-0.01,-0.01
1541714687690129041,422,0,/imu_data_acquisition2,29867.0,-0.255859375,0.236267089844,0.724792480469,0.594482421875,58.625,-127.75,22.4375,-8.25,-2.31,7.88
1541714687699172019,423,0,/imu_data_acquisition2,29877.0,-0.24462890625,0.234069824219,0.726989746094,0.597351074219,62.1875,-126.625,15.0,-8.23,-2.71,7.86
1541714687710407972,424,0,/imu_data_acquisition2,29888.0,-0.233520507812,0.231750488281,0.728759765625,0.6005859375,63.1875,-126.1875,9.125,-8.21,-2.99,7.7
1541714687725673913,425,0,/imu_data_acquisition2,29902.0,-0.222412109375,0.229309082031,0.730102539062,0.604064941406,64.4375,-126.5625,3.375,-8.12,-3.27,7.02
1541714687732023000,426,0,/imu_data_acquisition2,29909.0,-0.211120605469,0.226867675781,0.731079101562,0.607849121094,66.5625,-127.375,-1.5,-8.09,-3.19,6.8
1541714687740381002,427,0,/imu_data_acquisition2,29917.0,-0.199890136719,0.224426269531,0.731750488281,0.611755371094,67.875,-127.625,-5.25,-8.01,-3.29,6.39
1541714687749742984,428,0,/imu_data_acquisition2,29926.0,-0.188720703125,0.221801757812,-6.103515625e-05,0.615783691406,66.8125,-127.0625,-8.125,-7.98,-3.58,6.08
1541714687758966922,429,0,/imu_data_acquisition2,29937.0,-0.177734375,0.219116210938,0.732299804688,0.619812011719,64.75,-125.5625,-10.8125,-7.89,-4.2,5.84
1541714687772454977,430,0,/imu_data_acquisition2,29947.0,-0.167114257812,0.21630859375,0.732177734375,0.623901367188,62.6875,-123.125,-14.8125,-7.79,-4.44,5.82
1541714687779527902,431,0,/imu_data_acquisition2,29956.0,-6.103515625e-05,-6.103515625e-05,-6.103515625e-05,0.628173828125,60.625,-121.625,-20.25,-7.81,-1.97,-0.01
1541714687789789915,432,0,/imu_data_acquisition2,29967.0,-0.146606445312,0.210205078125,0.730773925781,0.632690429688,58.5,-121.0,-26.3125,-7.9,-4.34,6.33
1541714687800297975,433,0,/imu_data_acquisition2,29977.0,-0.136657714844,0.206787109375,0.7294921875,0.637512207031,56.625,-121.5625,-31.75,-7.58,-3.85,5.9
1541714687808721065,434,0,/imu_data_acquisition2,29986.0,-6.103515625e-05,-6.103515625e-05,-6.103515625e-05,0.642395019531,53.9375,-122.8125,-35.6875,-8.35,-4.02,6.03
1541714687819973945,435,0,/imu_data_acquisition2,29997.0,-0.1171875,0.199096679688,0.726379394531,0.647277832031,50.5,-122.25,-37.3125,-8.36,-3.42,5.5
1541714687831859111,436,0,/imu_data_acquisition2,30009.0,-0.107849121094,0.195007324219,0.724731445312,0.651977539062,46.4375,-120.4375,-36.5,-8.61,-3.18,5.36
1541714687838553905,437,0,/imu_data_acquisition2,30016.0,-0.098876953125,0.190673828125,0.723205566406,0.656372070312,40.875,-118.25,-34.125,-9.08,-3.01,5.36
1541714687850589036,438,0,/imu_data_acquisition2,30028.0,-0.09033203125,0.185974121094,0.721984863281,0.660278320312,34.0,-117.3125,-28.875,-10.3,-2.72,4.62
1541714687860436916,439,0,/imu_data_acquisition2,30037.0,-0.0822143554688,0.180847167969,0.721252441406,0.66357421875,24.8125,-115.875,-5.5,-11.01,-2.74,3.85
1541714687869271039,440,0,/imu_data_acquisition2,30047.0,-0.0745849609375,0.175354003906,0.721069335938,0.666137695312,15.5,-113.5625,-12.6875,-12.5,-3.19,3.12
1541714687881164073,441,0,/imu_data_acquisition2,30057.0,-0.067626953125,0.169677734375,0.721435546875,0.66796875,6.8125,-108.25,-3.125,-13.02,-3.07,1.82
1541714687889189958,442,0,/imu_data_acquisition2,30066.0,-0.0614624023438,0.1640625,0.722412109375,0.668884277344,-0.25,-99.875,7.8125,-15.39,-4.45,0.19
1541714687900141954,443,0,/imu_data_acquisition2,30076.0,-0.0564575195312,0.15869140625,0.723999023438,0.6689453125,-9.25,-86.5,17.375,-17.11,-5.99,-0.54
1541714687910751104,444,0,/imu_data_acquisition2,30087.0,-0.052978515625,0.153747558594,0.725769042969,0.668395996094,-18.5625,-68.8125,22.0,-18.05,-7.08,-1.55
1541714687918993949,445,0,/imu_data_acquisition2,30096.0,-0.0511474609375,0.149475097656,0.727478027344,0.667663574219,-25.6875,-49.8125,20.4375,-2.16,-0.01,-0.01
1541714687930740118,446,0,/imu_data_acquisition2,30107.0,-0.0510864257812,0.145874023438,0.728698730469,0.667175292969,-32.6875,-28.625,12.3125,-23.08,-9.41,-2.21
1541714687939985036,447,0,/imu_data_acquisition2,30117.0,-0.052734375,0.143310546875,0.729125976562,0.667114257812,-36.625,-6.0625,-0.625,-37.69,-6.14,8.71
1541714687951392889,448,0,/imu_data_acquisition2,30128.0,-0.0379028320312,0.133666992188,0.73681640625,0.66162109375,17.5625,-199.8125,126.9375,-17.21,25.81,11.95
1541714687958563089,449,0,/imu_data_acquisition2,30136.0,-0.0230712890625,0.123962402344,0.744201660156,0.655944824219,17.5625,-199.8125,126.9375,-11.62,14.75,11.91
1541714687970359086,450,0,/imu_data_acquisition2,30147.0,-0.00787353515625,0.109375,0.746887207031,0.655883789062,-14.6875,-247.9375,39.3125,-2.49,-2.22,12.7
1541714687981841087,451,0,/imu_data_acquisition2,30157.0,0.00042724609375,0.095947265625,0.745239257812,0.659851074219,-51.875,-182.625,-38.0625,27.78,-0.41,-2.58
1541714687989105939,452,0,/imu_data_acquisition2,30166.0,-0.00439453125,0.0866088867188,0.742736816406,0.663940429688,-117.0625,-35.0625,-61.4375,4.01,4.61,11.7
1541714687999994993,453,0,/imu_data_acquisition2,30177.0,-0.0133666992188,0.0792846679688,0.740478515625,0.667236328125,-132.0,18.125,-56.375,1.75,0.08,7.9
1541714688010545015,454,0,/imu_data_acquisition2,30187.0,-0.02392578125,0.0748901367188,0.737915039062,0.670288085938,-119.5625,55.25,-57.3125,-1.48,-0.74,8.39
1541714688019228935,455,0,/imu_data_acquisition2,30196.0,-0.0339965820312,0.0725708007812,0.735778808594,0.672424316406,-97.625,68.125,-45.25,-1.26,0.03,9.9
1541714688031183004,456,0,/imu_data_acquisition2,30207.0,-0.043212890625,0.0715942382812,0.734375,0.673522949219,-80.3125,72.375,-29.0,-6.91,-0.2,11.6
1541714688040283918,457,0,/imu_data_acquisition2,30217.0,-0.0497436523438,0.0690307617188,0.733581542969,0.674255371094,-72.875,36.125,-19.4375,-8.72,-1.6,11.3
1541714688049902915,458,0,/imu_data_acquisition2,30227.0,-0.05322265625,0.0657958984375,0.732849121094,0.675109863281,-55.0,3.8125,-17.8125,-2.38,-0.43,8.94
1541714688059880018,459,0,/imu_data_acquisition2,30236.0,-0.0560302734375,0.0621337890625,0.732116699219,0.676025390625,-52.625,-4.8125,-0.0625,-2.22,-0.85,9.18
1541714688070516109,460,0,/imu_data_acquisition2,30247.0,-0.0584106445312,0.05859375,0.731018066406,0.677307128906,-48.3125,-7.75,-23.5,-2.41,-0.07,9.6
1541714688080033063,461,0,/imu_data_acquisition2,30257.0,-0.0601196289062,0.05517578125,-6.103515625e-05,0.678466796875,-41.875,-12.5,-20.875,-2.44,-1.67,10.53
1541714688090894937,462,0,/imu_data_acquisition2,30268.0,-0.0608520507812,0.0526123046875,0.7294921875,0.679260253906,-26.9375,-14.6875,-14.0625,-1.19,-1.81,9.51
1541714688100837945,463,0,/imu_data_acquisition2,30277.0,-0.061279296875,0.0511474609375,0.729064941406,0.679809570312,-15.3125,-7.6875,-9.5625,-1.35,-1.89,9.74
1541714688110688924,464,0,/imu_data_acquisition2,30287.0,-0.061767578125,0.0504760742188,0.728637695312,0.680297851562,-9.3125,-1.6875,-8.375,-1.43,-0.73,9.52
1541714688118921041,465,0,/imu_data_acquisition2,30296.0,-0.0621948242188,0.0494384765625,0.728088378906,0.680847167969,-11.375,-4.75,-10.1875,-2.29,1.31,-0.01
1541714688130172967,466,0,/imu_data_acquisition2,30307.0,-0.0626831054688,0.047607421875,-6.103515625e-05,0.681518554688,-19.125,-10.0625,-11.625,-2.18,1.26,10.19
1541714688140278100,467,0,/imu_data_acquisition2,30317.0,-0.0634765625,0.0455322265625,0.726928710938,0.682250976562,-23.25,-10.125,-13.0,-1.96,0.86,9.79
1541714688149506092,468,0,/imu_data_acquisition2,30327.0,-0.0646362304688,0.0433349609375,0.726257324219,0.682983398438,-27.1875,-7.75,-14.4375,-1.84,0.67,9.98
1541714688160337924,469,0,/imu_data_acquisition2,30336.0,-0.0661010742188,0.0409545898438,0.725524902344,0.683776855469,-31.25,-6.25,-15.3125,-2.4,0.31,10.19
1541714688170523881,470,0,/imu_data_acquisition2,30347.0,-0.0673828125,0.0384521484375,0.724731445312,0.684631347656,-31.375,-9.0,-16.0625,-2.29,0.86,9.75
1541714688180761098,471,0,/imu_data_acquisition2,30358.0,-0.00616455078125,-6.103515625e-05,-6.103515625e-05,0.685363769531,-34.0,-11.9375,-14.5,-1.63,0.31,9.67
1541714688188467025,472,0,/imu_data_acquisition2,30366.0,-6.103515625e-05,-6.103515625e-05,-6.103515625e-05,0.685974121094,-35.25,-11.6875,-13.1875,-2.41,-0.44,9.7
1541714688199700117,473,0,/imu_data_acquisition2,30376.0,-0.071533203125,0.0297241210938,0.722900390625,0.686584472656,-36.1875,-10.75,-12.75,-2.44,-1.01,10.04
1541714688210488080,474,0,/imu_data_acquisition2,30387.0,-0.0726318359375,0.0270385742188,0.722412109375,0.687072753906,-31.3125,-12.125,-11.0,-1.36,-0.02,9.91
1541714688218676090,475,0,/imu_data_acquisition2,30396.0,-0.07421875,0.0247802734375,0.721984863281,0.687438964844,-31.75,-4.875,-8.6875,-1.42,-1.52,9.67
1541714688230043888,476,0,/imu_data_acquisition2,30407.0,-0.0758666992188,0.0230102539062,0.7216796875,0.687683105469,-28.5,0.125,-7.125,-1.48,-0.98,9.69
1541714688242259979,477,0,/imu_data_acquisition2,30418.0,-0.0775756835938,0.021728515625,0.721374511719,0.687805175781,-24.625,4.6875,-4.9375,-1.24,-0.85,9.27
1541714688249407052,478,0,/imu_data_acquisition2,30427.0,-0.0795288085938,0.0208740234375,0.721069335938,0.68798828125,-22.5,9.8125,-4.75,-1.29,-1.12,10.07
1541714688259577989,479,0,/imu_data_acquisition2,30437.0,-0.0814208984375,0.0205078125,0.720764160156,0.688110351562,-18.625,13.1875,-4.8125,-2.11,-1.58,9.42
1541714688272236108,480,0,/imu_data_acquisition2,30449.0,-6.103515625e-05,-6.103515625e-05,-6.103515625e-05,0.688293457031,-15.0625,13.6875,-5.0625,-2.0,-0.92,9.6
1541714688279820919,481,0,/imu_data_acquisition2,30457.0,-0.084716796875,0.0203857421875,0.720031738281,0.6884765625,-12.5625,14.25,-4.875,-2.04,-0.65,9.81
1541714688292911052,482,0,/imu_data_acquisition2,30469.0,-0.0862426757812,0.0204467773438,0.719665527344,0.688659667969,-11.3125,13.5625,-4.375,-1.27,-0.63,9.39
1541714688300050973,483,0,/imu_data_acquisition2,30476.0,-0.0862426757812,0.0204467773438,0.719665527344,0.688659667969,-10.25,16.5625,-4.5,-2.21,-1.33,9.78
1541714688311640977,484,0,/imu_data_acquisition2,30488.0,-0.08935546875,0.0213012695312,0.718933105469,0.68896484375,-7.25,18.0,-3.875,-1.78,-0.78,9.72
1541714688318572998,485,0,/imu_data_acquisition2,30496.0,-0.0909423828125,0.0220947265625,0.718627929688,0.689025878906,-7.3125,17.5625,-3.125,-1.89,-0.55,9.42
1541714688329674005,486,0,/imu_data_acquisition2,30506.0,-0.0142822265625,-6.103515625e-05,-6.103515625e-05,0.689086914062,-8.1875,16.5625,-2.0,-2.05,-0.79,9.74
1541714688341763019,487,0,/imu_data_acquisition2,30517.0,-0.0939331054688,0.02294921875,0.718200683594,0.689086914062,-8.3125,16.5625,-1.8125,-2.53,-0.87,9.56
1541714688349158048,488,0,/imu_data_acquisition2,30527.0,-0.0939331054688,0.02294921875,0.718200683594,0.689086914062,-7.625,15.25,-1.5625,-2.09,-0.56,9.47
1541714688360060930,489,0,/imu_data_acquisition2,30537.0,-0.0952758789062,0.0233764648438,0.718017578125,0.689086914062,-8.3125,15.6875,-1.1875,-2.32,-1.11,9.7
1541714688371875047,490,0,/imu_data_acquisition2,30547.0,-0.09814453125,0.0242309570312,0.717651367188,0.689025878906,-7.5,16.0625,-0.0625,-2.46,-1.05,9.63
1541714688382632017,491,0,/imu_data_acquisition2,30560.0,-0.0994873046875,0.0247802734375,0.717407226562,0.689025878906,-6.3125,16.25,-1.4375,-2.37,-1.29,9.62
1541714688390573978,492,0,/imu_data_acquisition2,30567.0,-0.0994873046875,0.0247802734375,0.717407226562,0.689025878906,-5.8125,19.5,-1.4375,-2.75,-1.18,9.68
1541714688400702953,493,0,/imu_data_acquisition2,30577.0,-0.1025390625,0.0263671875,0.716979980469,0.689025878906,-5.375,19.1875,-1.375,-1.95,-0.64,9.46
1541714688411282062,494,0,/imu_data_acquisition2,30587.0,-0.104187011719,0.0272216796875,0.716674804688,0.689025878906,-5.9375,21.4375,-1.625,-2.07,-0.85,9.71
1541714688419079065,495,0,/imu_data_acquisition2,30596.0,-0.106018066406,0.0284423828125,0.716369628906,0.689025878906,-4.9375,22.25,-1.625,-2.49,-1.08,9.24
1541714688430696964,496,0,/imu_data_acquisition2,30607.0,-0.106018066406,0.0284423828125,0.716369628906,0.689025878906,-4.3125,-0.0625,-0.0625,-2.62,-1.11,9.69
1541714688441745042,497,0,/imu_data_acquisition2,30617.0,-0.109741210938,0.0311279296875,0.715759277344,0.68896484375,-3.9375,24.875,-1.4375,-1.83,-0.64,9.41
1541714688449183940,498,0,/imu_data_acquisition2,30627.0,-0.111694335938,0.03271484375,0.715454101562,0.688903808594,-4.1875,27.375,-1.5,-2.53,-0.77,9.66
1541714688459908962,499,0,/imu_data_acquisition2,30637.0,-0.113647460938,0.0343627929688,0.715087890625,0.688842773438,-2.9375,28.8125,-1.375,-2.09,-0.93,9.09
1541714688471162080,500,0,/imu_data_acquisition2,30647.0,-6.103515625e-05,-6.103515625e-05,-6.103515625e-05,0.688842773438,-2.375,31.875,-2.125,-2.57,-0.83,9.7
1541714688481381893,501,0,/imu_data_acquisition2,30659.0,-0.118041992188,0.0379638671875,0.714233398438,0.688842773438,-4.0,34.1875,-2.25,-3.2,-0.93,9.93
1541714688491641044,502,0,/imu_data_acquisition2,30668.0,-0.118041992188,0.0379638671875,0.714233398438,0.688842773438,-6.125,34.4375,-2.5625,-2.18,-0.84,9.05
1541714688500097990,503,0,/imu_data_acquisition2,30677.0,-0.122985839844,0.0415649414062,0.713134765625,0.688903808594,-2.875,38.6875,-3.75,-2.16,-1.76,8.9
1541714688510780096,504,0,/imu_data_acquisition2,30688.0,-0.122985839844,0.0415649414062,0.713134765625,0.688903808594,-0.625,43.875,-6.25,-2.8,-1.12,9.14
1541714688520000934,505,0,/imu_data_acquisition2,30697.0,-0.125732421875,0.0440673828125,0.712341308594,0.689086914062,-1.375,45.8125,-6.1875,-2.73,-0.84,9.52
1541714688531316995,506,0,/imu_data_acquisition2,30707.0,-0.128601074219,0.0465698242188,0.711486816406,0.689270019531,-0.1875,48.1875,-5.625,-2.88,-0.84,8.96
1541714688541883945,507,0,/imu_data_acquisition2,30718.0,-0.131469726562,0.04931640625,0.710571289062,0.689453125,-2.25,51.3125,-5.75,-3.17,-0.67,9.71
1541714688549107074,508,0,/imu_data_acquisition2,30727.0,-0.134704589844,0.0521240234375,0.709716796875,0.689514160156,-3.625,52.9375,-0.0625,-3.18,-1.03,9.29
1541714688560417890,509,0,/imu_data_acquisition2,30737.0,-0.138122558594,0.0548706054688,0.708740234375,0.689636230469,-3.625,54.875,-6.6875,-3.19,-0.99,9.32
1541714688572845935,510,0,/imu_data_acquisition2,30747.0,-0.141662597656,0.0578002929688,0.707702636719,0.689758300781,-2.25,56.9375,-8.5,-2.73,-0.2,9.15
1541714688580404996,511,0,/imu_data_acquisition2,30758.0,-0.14892578125,0.0642700195312,0.705017089844,0.6904296875,-0.4375,60.9375,-13.1875,-2.77,-0.2,9.15
1541714688591568946,512,0,/imu_data_acquisition2,30768.0,-0.14892578125,0.0642700195312,0.705017089844,0.6904296875,2.25,64.25,-15.5625,-3.07,-0.07,8.7
1541714688601171970,513,0,/imu_data_acquisition2,30778.0,-0.152709960938,0.0679321289062,0.703247070312,0.690979003906,-0.5625,72.0625,-15.4375,-3.52,-0.68,7.1
1541714688609483957,514,0,/imu_data_acquisition2,30787.0,-0.157104492188,0.0719604492188,0.701416015625,0.691467285156,-5.375,80.3125,-17.9375,-2.24,-1.27,10.06
1541714688622180938,515,0,/imu_data_acquisition2,30798.0,-0.162292480469,0.0761108398438,0.699340820312,0.691955566406,-4.5,82.25,-17.875,-4.7,-3.55,11.18
1541714688632988929,516,0,/imu_data_acquisition2,30808.0,-0.167541503906,0.0803833007812,0.697143554688,0.692443847656,0.0,84.5625,-18.3125,-3.33,-2.42,10.67
1541714688639904975,517,0,/imu_data_acquisition2,30817.0,-0.172607421875,0.0850830078125,0.694885253906,0.692932128906,5.25,92.0,-14.1875,-3.73,-2.98,9.49
1541714688650477886,518,0,/imu_data_acquisition2,30827.0,-0.177795410156,0.0905151367188,0.692626953125,0.693176269531,5.25,92.0,-14.1875,-4.7,-1.42,10.29
1541714688660263061,519,0,/imu_data_acquisition2,30837.0,-0.183349609375,0.0968627929688,0.690551757812,0.692932128906,11.375,104.3125,-0.1875,-3.46,-0.38,8.66
1541714688681478977,521,0,/imu_data_acquisition2,30858.0,-0.0067138671875,-6.103515625e-05,-6.103515625e-05,0.690979003906,16.375,117.0625,14.8125,-4.72,-0.68,9.99
1541714688691646099,522,0,/imu_data_acquisition2,30869.0,-0.206115722656,0.126953125,0.684997558594,0.687194824219,14.0625,124.1875,18.25,-3.61,0.87,9.12
1541714688700829029,523,0,/imu_data_acquisition2,30878.0,-0.206115722656,0.126953125,0.684997558594,0.687194824219,2.3125,130.3125,20.5,-3.87,0.47,9.93
1541714688713793992,524,0,/imu_data_acquisition2,30888.0,-0.213256835938,0.135009765625,0.683837890625,0.6845703125,-4.125,139.8125,21.4375,-5.54,0.72,9.98
1541714688720022916,525,0,/imu_data_acquisition2,30897.0,-0.221313476562,0.143249511719,0.682556152344,0.681640625,-15.1875,152.1875,15.125,-5.45,0.83,10.82
1541714688731489896,526,0,/imu_data_acquisition2,30908.0,-0.230773925781,0.1513671875,0.680725097656,0.678588867188,-25.75,166.8125,6.1875,-4.06,0.18,10.92
1541714688741663932,527,0,/imu_data_acquisition2,30918.0,-0.00738525390625,-6.103515625e-05,-6.103515625e-05,0.675476074219,-30.1875,185.5625,-3.3125,-3.44,3.81,10.74
1541714688750580072,528,0,/imu_data_acquisition2,30926.0,-0.254089355469,0.168334960938,0.674438476562,0.672485351562,-30.1875,185.5625,-3.3125,-3.44,3.81,10.74
1541714688760662078,529,0,/imu_data_acquisition2,30937.0,-0.269409179688,0.1748046875,0.670227050781,0.669067382812,-72.125,193.0625,-17.5,-2.06,-4.72,11.4
1541714688771323919,530,0,/imu_data_acquisition2,30948.0,-0.285705566406,0.184143066406,0.662719726562,0.667297363281,42.875,292.25,-91.625,-1.93,-0.01,-0.01
1541714688782663106,531,0,/imu_data_acquisition2,30959.0,-0.300964355469,0.200744628906,0.649597167969,0.668640136719,30.25,331.0,-121.1875,-4.45,-0.26,9.3
1541714688793005943,532,0,/imu_data_acquisition2,30968.0,-0.3193359375,0.217895507812,0.633544921875,0.670166015625,6.6875,388.1875,-158.375,-6.26,2.18,11.26
1541714688799916028,533,0,/imu_data_acquisition2,30977.0,-0.342468261719,0.23583984375,0.613586425781,0.671264648438,6.6875,388.1875,-158.375,-7.97,1.08,12.16
