%time,field.header.seq,field.header.stamp,field.header.frame_id,field.time_stamp,field.quat_x,field.quat_y,field.quat_z,field.quat_w,field.gyro_x,field.gyro_y,field.gyro_z,field.accel_x,field.accel_y,field.accel_z
1542211256637705087,4026,0,/imu_data_acquisition2,57535.0,-0.0512084960938,-0.0897827148438,0.771057128906,0.628356933594,-2.4375,-110.8125,17.125,-3.98,-2.49,8.15
1542211256647175073,4027,0,/imu_data_acquisition2,57544.0,-0.0446166992188,-0.0953979492188,0.771728515625,0.627197265625,-1.875,-103.5625,5.25,-4.08,-2.76,8.54
1542211256657592058,4028,0,/imu_data_acquisition2,57555.0,-0.0382690429688,-0.100524902344,0.771606445312,0.626953125,-0.5625,-95.875,-8.625,-4.29,-2.48,8.22
1542211256666275978,4029,0,/imu_data_acquisition2,57563.0,-0.0321655273438,-0.105163574219,0.770690917969,0.627624511719,2.0,-89.3125,-22.375,-4.29,-1.78,7.55
1542211256684324979,4030,0,/imu_data_acquisition2,57574.0,-0.0263061523438,-0.109130859375,0.769226074219,0.629089355469,5.875,-79.875,-33.1875,-4.37,-0.97,7.34
1542211256688157081,4031,0,/imu_data_acquisition2,57586.0,-0.0209350585938,-0.112243652344,0.767333984375,0.631042480469,9.625,-69.3125,-39.8125,-4.48,0.27,8.01
1542211256701242923,4032,0,/imu_data_acquisition2,57595.0,-0.0159301757812,-0.11474609375,0.765258789062,0.633239746094,12.75,-60.9375,-42.5625,-4.46,0.6,8.34
1542211256706727981,4033,0,/imu_data_acquisition2,57604.0,-0.0110473632812,-0.11669921875,0.763305664062,0.635314941406,16.0625,-55.375,-40.75,-4.22,0.96,8.08
1542211256718466043,4034,0,/imu_data_acquisition2,57614.0,-0.00634765625,-0.1181640625,0.761596679688,0.637145996094,20.375,-50.625,-35.6875,-3.91,0.98,7.75
1542211256725259065,4035,0,/imu_data_acquisition2,57622.0,-0.00189208984375,-0.118896484375,0.76025390625,0.638610839844,25.0625,-44.0625,-29.6875,-3.89,0.73,7.97
1542211256737085103,4036,0,/imu_data_acquisition2,57634.0,0.00244140625,-0.119140625,0.75927734375,0.639770507812,29.3125,-38.875,-23.875,-3.8,0.39,8.22
1542211256747874975,4037,0,/imu_data_acquisition2,57643.0,0.006591796875,-0.118835449219,0.758605957031,0.640625,33.1875,-34.0625,-18.8125,-4.14,0.09,8.56
1542211256755408048,4038,0,/imu_data_acquisition2,57652.0,0.0106811523438,-0.118286132812,0.758056640625,0.641296386719,34.8125,-31.0,-15.4375,-4.13,-1.03,7.57
1542211256769093036,4039,0,/imu_data_acquisition2,57665.0,0.0143432617188,-0.117492675781,0.757568359375,0.641967773438,34.25,-26.625,-15.25,-4.26,-1.88,7.13
1542211256781054019,4040,0,/imu_data_acquisition2,57677.0,0.0176391601562,-0.116394042969,0.756896972656,0.642822265625,33.75,-19.375,-17.625,-1.01,-0.01,-0.01
1542211256785298109,4041,0,/imu_data_acquisition2,57682.0,0.0184326171875,-6.103515625e-05,-6.103515625e-05,0.642578125,12.625,-2.1875,3.1875,-9.75,-0.07,6.15
1542211256797389030,4042,0,/imu_data_acquisition2,57694.0,0.0158081054688,-0.11669921875,0.758178710938,0.641296386719,-27.3125,14.375,23.1875,-6.58,11.64,-0.01
1542211256808725118,4043,0,/imu_data_acquisition2,57703.0,0.00958251953125,-0.117431640625,0.763244628906,0.63525390625,-45.75,42.875,101.0,-19.55,1.05,9.92
1542211256817104101,4044,0,/imu_data_acquisition2,57715.0,-0.00189208984375,-0.119079589844,0.76953125,0.62744140625,-90.9375,80.9375,133.875,-4.28,-3.37,5.23
1542211256828222036,4045,0,/imu_data_acquisition2,57725.0,-0.0118408203125,-0.119567871094,0.777099609375,0.617797851562,-68.4375,73.0625,-0.0625,4.94,-10.88,9.85
1542211256838279008,4046,0,/imu_data_acquisition2,57734.0,-0.0193481445312,-0.1181640625,0.785827636719,0.606750488281,-30.625,62.75,176.25,2.05,-16.85,6.42
1542211256845954895,4047,0,/imu_data_acquisition2,57743.0,-0.0267944335938,-0.112854003906,0.794799804688,0.595703125,5.5,89.875,179.1875,-2.26,-25.19,8.34
1542211256857831001,4048,0,/imu_data_acquisition2,57755.0,-0.0350952148438,-0.106201171875,0.800903320312,0.588256835938,9.75,113.3125,126.8125,-0.99,-33.58,12.48
1542211256867475986,4049,0,/imu_data_acquisition2,57763.0,-0.0418701171875,-0.0983276367188,0.802734375,0.586669921875,29.0,115.9375,39.0625,-3.12,-18.92,16.61
1542211256876442909,4050,0,/imu_data_acquisition2,57773.0,-0.0447387695312,-0.0875244140625,0.802307128906,0.588745117188,83.625,105.0,-14.0625,-2.32,-0.01,-0.01
1542211256889208078,4051,0,/imu_data_acquisition2,57787.0,-0.0443725585938,-0.0759887695312,0.802795410156,0.589721679688,112.875,77.5,-0.5,-2.18,6.34,14.06
1542211256897110939,4052,0,/imu_data_acquisition2,57793.0,-0.044189453125,-0.0673828125,0.804321289062,0.588745117188,84.375,57.0,24.3125,-1.03,-1.38,11.6
1542211256906934976,4053,0,/imu_data_acquisition2,57804.0,-0.044921875,-0.0609741210938,0.805603027344,0.587585449219,55.9375,49.5,23.9375,-0.74,-0.22,10.48
1542211256918289899,4054,0,/imu_data_acquisition2,57813.0,-0.0459594726562,-0.0560913085938,0.806396484375,0.586853027344,39.375,43.25,15.75,-0.71,5.99,10.84
1542211256927712917,4055,0,/imu_data_acquisition2,57825.0,-0.0479736328125,-0.0062255859375,-6.103515625e-05,0.586181640625,14.5625,39.0625,13.4375,0.0,4.95,9.75
1542211256937825918,4056,0,/imu_data_acquisition2,57835.0,-0.0517578125,-0.05224609375,0.807495117188,0.585327148438,-18.1875,41.3125,14.5,-0.01,1.18,9.77
1542211256948327064,4057,0,/imu_data_acquisition2,57844.0,-0.0573120117188,-0.0528564453125,0.80810546875,0.583862304688,-44.5625,48.375,14.9375,-0.6,-1.11,10.26
1542211256957648992,4058,0,/imu_data_acquisition2,57854.0,-0.0634765625,-0.0537719726562,0.808288574219,0.582885742188,-52.25,52.0625,14.0625,-1.57,-3.31,10.78
1542211256967715024,4059,0,/imu_data_acquisition2,57865.0,-0.0695190429688,-0.0546264648438,0.808410644531,0.581970214844,-49.9375,51.375,12.6875,-1.14,-4.33,10.33
1542211256976145982,4060,0,/imu_data_acquisition2,57872.0,-0.0750732421875,-0.0549926757812,0.808471679688,0.581115722656,-42.875,49.9375,11.9375,-1.3,-4.79,10.06
1542211256987631082,4061,0,/imu_data_acquisition2,57884.0,-6.103515625e-05,-6.103515625e-05,-6.103515625e-05,0.580322265625,-30.5625,48.1875,12.25,-1.52,-5.23,9.96
1542211256998104095,4062,0,/imu_data_acquisition2,57894.0,-0.0839233398438,-0.0534057617188,0.808959960938,0.579406738281,-16.25,45.6875,13.6875,-1.38,-4.21,9.81
1542211257005326986,4063,0,/imu_data_acquisition2,57902.0,-0.0870361328125,-0.0513916015625,0.809326171875,0.578552246094,-2.25,42.875,14.75,-1.46,-3.19,9.89
1542211257017556905,4064,0,/imu_data_acquisition2,57914.0,-0.0894775390625,-0.0488891601562,0.809814453125,0.577758789062,6.75,39.5625,15.125,-1.06,-2.01,9.21
1542211257027724027,4065,0,/imu_data_acquisition2,57923.0,-0.0916748046875,-0.0149536132812,-6.103515625e-05,0.576965332031,9.9375,38.3125,15.0,-1.27,-1.39,9.63
1542211257038928985,4066,0,/imu_data_acquisition2,57933.0,-0.0938110351562,-0.0435180664062,0.810729980469,0.576232910156,10.5625,37.875,13.6875,-1.12,-0.84,9.54
1542211257048557043,4067,0,/imu_data_acquisition2,57944.0,-0.095947265625,-0.0411376953125,0.811279296875,0.575256347656,7.9375,36.9375,12.1875,-0.83,-0.62,9.32
1542211257057555913,4068,0,/imu_data_acquisition2,57955.0,-0.0985717773438,-0.0389404296875,0.811462402344,0.57470703125,2.9375,39.125,10.6875,-2.84,-1.17,9.81
1542211257069881916,4069,0,/imu_data_acquisition2,57963.0,-0.101745605469,-0.0368041992188,0.811462402344,0.574340820312,-1.6875,45.5,7.5625,-0.82,-1.92,9.52
1542211257078512907,4070,0,/imu_data_acquisition2,57975.0,-0.10498046875,-0.0349731445312,0.811401367188,0.573974609375,-4.75,-0.0625,-0.0625,-2.25,-2.33,-0.01
1542211257087558031,4071,0,/imu_data_acquisition2,57985.0,-0.108032226562,-0.0331420898438,0.811279296875,0.573608398438,-3.8125,42.0625,5.8125,-1.84,-2.88,10.23
1542211257098247051,4072,0,/imu_data_acquisition2,57993.0,-0.108032226562,-0.0331420898438,0.811279296875,0.573608398438,-1.6875,40.375,5.8125,-2.61,-2.79,10.42
1542211257107822895,4073,0,/imu_data_acquisition2,58003.0,-0.113403320312,-0.0293579101562,0.811462402344,0.572509765625,1.3125,37.3125,5.9375,-2.05,-2.79,10.22
1542211257118007898,4074,0,/imu_data_acquisition2,58015.0,-0.115478515625,-0.0274047851562,0.811462402344,0.572204589844,4.25,33.0,6.125,-2.36,-2.62,10.16
1542211257127649068,4075,0,/imu_data_acquisition2,58023.0,-0.117065429688,-0.0255737304688,0.811462402344,0.571960449219,6.25,27.5,5.8125,-2.28,-0.01,-0.01
1542211257138078927,4076,0,/imu_data_acquisition2,58033.0,-0.118225097656,-0.0238647460938,0.8115234375,0.571716308594,8.1875,22.3125,5.125,-2.41,-2.3,9.9
1542211257148288965,4077,0,/imu_data_acquisition2,58045.0,-0.119079589844,-0.0223999023438,0.811767578125,0.5712890625,8.8125,18.1875,4.6875,-2.32,-1.92,9.88
1542211257157258987,4078,0,/imu_data_acquisition2,58053.0,-0.119079589844,-0.0223999023438,0.811767578125,0.5712890625,9.0,13.75,3.75,-2.17,-2.36,10.1
1542211257168920040,4079,0,/imu_data_acquisition2,58063.0,-0.119934082031,-0.0199584960938,0.811889648438,0.571044921875,8.0,10.875,3.0,-2.08,-1.97,9.53
1542211257177460908,4080,0,/imu_data_acquisition2,58074.0,-0.120239257812,-0.0189819335938,0.811889648438,0.570983886719,7.625,9.1875,2.5,-2.4,-1.89,10.04
1542211257188648939,4081,0,/imu_data_acquisition2,58083.0,-0.120361328125,-0.0181274414062,0.811950683594,0.570922851562,6.75,7.0625,1.875,-2.11,-1.97,9.69
1542211257199506998,4082,0,/imu_data_acquisition2,58094.0,-0.120544433594,-0.0174560546875,0.811950683594,0.570861816406,5.5,6.5625,1.4375,-2.03,-1.86,9.67
1542211257209031105,4083,0,/imu_data_acquisition2,58106.0,-0.120727539062,-0.0167846679688,0.811950683594,0.570861816406,4.75,5.75,1.0,-1.87,-1.89,9.6
1542211257215379953,4084,0,/imu_data_acquisition2,58113.0,-0.120971679688,-0.0162353515625,0.811889648438,0.570922851562,4.0,6.0,0.5,-2.04,-1.86,9.46
1542211257226939916,4085,0,/imu_data_acquisition2,58124.0,-0.121276855469,-0.0157470703125,0.811828613281,0.570922851562,2.6875,6.625,-0.125,-2.2,-1.93,9.71
1542211257238379001,4086,0,/imu_data_acquisition2,58134.0,-0.121704101562,-0.0153198242188,0.811706542969,0.570983886719,1.375,6.8125,-0.625,-2.22,-1.85,9.49
1542211257247353076,4087,0,/imu_data_acquisition2,58143.0,-0.122619628906,-0.0150756835938,0.811889648438,0.570556640625,0.5625,6.75,-1.1875,-2.22,-2.01,9.39
1542211257257987022,4088,0,/imu_data_acquisition2,58156.0,-0.123657226562,-0.0148315429688,0.811706542969,0.570617675781,0.0625,6.75,-1.125,-2.36,-2.13,9.62
1542211257270426988,4089,0,/imu_data_acquisition2,58168.0,-0.124694824219,-0.0145874023438,0.8115234375,0.570678710938,-0.5625,6.625,-1.1875,-2.21,-1.98,9.22
1542211257276288986,4090,0,/imu_data_acquisition2,58173.0,-0.124694824219,-0.0145874023438,-6.103515625e-05,0.570678710938,-0.9375,6.1875,-1.125,-2.34,-0.01,-0.01
1542211257287959098,4091,0,/imu_data_acquisition2,58186.0,-0.126586914062,-0.014404296875,0.811157226562,0.570739746094,-1.875,6.3125,-1.1875,-1.96,-2.09,9.53
1542211257297328948,4092,0,/imu_data_acquisition2,58193.0,-0.126586914062,-0.014404296875,0.811157226562,0.570739746094,-2.4375,6.1875,-1.5,-2.05,-2.03,9.47
1542211257306454896,4093,0,/imu_data_acquisition2,58203.0,-0.127380371094,-0.014404296875,0.810974121094,0.570861816406,-2.5625,6.375,-1.625,-2.32,-2.11,9.5
1542211257316097021,4094,0,/imu_data_acquisition2,58214.0,-0.128356933594,-0.014404296875,0.810791015625,0.570922851562,-2.125,6.6875,-1.375,-2.39,-2.26,9.47
1542211257328572988,4095,0,/imu_data_acquisition2,58224.0,-0.129455566406,-0.014404296875,0.810546875,0.570983886719,-1.75,6.3125,-1.0,-2.3,-2.21,9.57
1542211257335679054,4096,0,/imu_data_acquisition2,58233.0,-0.130554199219,-0.0143432617188,0.810363769531,0.570983886719,-0.8125,5.5625,-0.4375,-2.21,-2.22,9.71
1542211257346070051,4097,0,/imu_data_acquisition2,58243.0,-6.103515625e-05,-6.103515625e-05,-6.103515625e-05,0.570983886719,-0.0625,5.1875,0.0,-2.46,-1.98,9.6
1542211257358120918,4098,0,/imu_data_acquisition2,58254.0,-0.132141113281,-0.01416015625,0.810119628906,0.571044921875,0.3125,5.375,0.3125,-2.3,-2.07,9.58
1542211257365586996,4099,0,/imu_data_acquisition2,58263.0,-0.132873535156,-0.013916015625,0.809997558594,0.570983886719,-0.375,5.875,0.6875,-2.13,-0.01,-0.01
1542211257376297950,4100,0,/imu_data_acquisition2,58274.0,-0.133605957031,-0.0137329101562,0.809936523438,0.570922851562,-0.75,5.9375,0.875,-2.16,-2.09,9.46
1542211257389153003,4101,0,/imu_data_acquisition2,58284.0,-0.13427734375,-0.0136108398438,0.809875488281,0.570861816406,-1.125,6.5,0.8125,-2.3,-1.93,9.53
1542211257395267009,4102,0,/imu_data_acquisition2,58293.0,-0.134948730469,-0.013427734375,0.809814453125,0.57080078125,-1.125,6.5,0.8125,-2.16,-2.18,9.63
1542211257406600952,4103,0,/imu_data_acquisition2,58304.0,-0.135681152344,-0.0132446289062,0.809631347656,0.570922851562,-2.125,6.875,0.6875,-2.24,-2.13,9.61
1542211257418471097,4104,0,/imu_data_acquisition2,58314.0,-0.136474609375,-0.01318359375,0.8095703125,0.57080078125,-2.4375,6.75,0.8125,-2.15,-2.2,9.34
1542211257425914049,4105,0,/imu_data_acquisition2,58324.0,-0.13720703125,-0.0131225585938,0.809448242188,0.570739746094,-2.125,6.5,0.9375,-2.38,-2.24,9.53
1542211257437557935,4106,0,/imu_data_acquisition2,58334.0,-0.138061523438,-0.0131225585938,0.809387207031,0.570678710938,-1.6875,6.75,1.0625,-2.51,-2.24,9.61
1542211257448023080,4107,0,/imu_data_acquisition2,58344.0,-0.138916015625,-0.0130004882812,0.809326171875,0.570556640625,-0.5,6.5,1.25,-2.4,-2.12,9.63
1542211257456155061,4108,0,/imu_data_acquisition2,58354.0,-0.139709472656,-0.0127563476562,0.809204101562,0.570556640625,-0.5,6.5,1.25,-2.38,-2.0,9.62
1542211257466830968,4109,0,/imu_data_acquisition2,58364.0,-0.140380859375,-0.0125122070312,0.809143066406,0.570495605469,-0.4375,6.875,0.875,-2.2,-0.01,-0.01
1542211257479568004,4110,0,/imu_data_acquisition2,58374.0,-0.140991210938,-0.01220703125,0.80908203125,0.570434570312,-0.6875,7.5625,0.5625,-2.26,-2.03,9.38
1542211257486005067,4111,0,/imu_data_acquisition2,58384.0,-0.141723632812,-0.011962890625,0.808959960938,0.570373535156,-0.875,8.0625,0.3125,-2.4,-2.09,9.6
1542211257496227979,4112,0,/imu_data_acquisition2,58393.0,-0.142456054688,-0.01171875,0.808837890625,0.570373535156,-0.875,8.0625,0.3125,-2.29,-2.03,9.43
1542211257508382081,4113,0,/imu_data_acquisition2,58405.0,-0.143920898438,-0.0110473632812,0.80859375,0.570373535156,-0.5625,9.25,0.125,-2.19,-0.01,-0.01
1542211257515755891,4114,0,/imu_data_acquisition2,58413.0,-0.143920898438,-0.0110473632812,0.80859375,0.570373535156,-0.5625,9.25,0.125,-2.39,-2.19,9.35
1542211257527520895,4115,0,/imu_data_acquisition2,58424.0,-0.144714355469,-0.0107421875,0.808410644531,0.570434570312,-0.4375,10.0,-0.125,-2.23,-2.17,9.38
1542211257538285017,4116,0,/imu_data_acquisition2,58435.0,-0.146484375,-0.010009765625,0.80810546875,0.570434570312,-0.375,10.4375,0.0,-2.54,-2.3,9.61
1542211257545655012,4117,0,/imu_data_acquisition2,58443.0,-0.146484375,-0.010009765625,0.80810546875,0.570434570312,-0.375,10.4375,0.0,-2.41,-2.23,9.37
1542211257556924104,4118,0,/imu_data_acquisition2,58454.0,-0.147399902344,-0.0096435546875,0.807983398438,0.570434570312,0.875,10.875,-0.0625,-2.63,-2.18,-0.01
1542211257569571018,4119,0,/imu_data_acquisition2,58466.0,-0.149108886719,-0.00872802734375,0.8076171875,0.570434570312,1.5625,9.875,0.3125,-2.38,-2.23,9.37
1542211257576576948,4120,0,/imu_data_acquisition2,58474.0,-0.149108886719,-0.00872802734375,0.8076171875,0.570434570312,1.6875,10.375,0.75,-2.66,-2.09,9.46
1542211257588193893,4121,0,/imu_data_acquisition2,58485.0,-0.149963378906,-0.0081787109375,0.807495117188,0.570434570312,2.0625,10.6875,1.0625,-2.36,-2.03,9.38
1542211257602004051,4122,0,/imu_data_acquisition2,58497.0,-0.150756835938,-0.007568359375,0.807373046875,0.570373535156,2.0625,10.6875,1.0625,-2.63,-2.18,9.55
1542211257606300115,4123,0,/imu_data_acquisition2,58503.0,-0.151611328125,-0.00689697265625,0.807312011719,0.5703125,2.25,11.6875,1.6875,-2.57,-1.97,9.52
1542211257619082927,4124,0,/imu_data_acquisition2,58515.0,-0.152404785156,-0.00616455078125,0.807250976562,0.570190429688,2.4375,12.375,2.4375,-2.67,-2.3,9.57
1542211257642288923,4126,0,/imu_data_acquisition2,58535.0,-0.155090332031,-0.00390625,0.807006835938,0.569763183594,3.3125,13.625,2.8125,-2.54,-2.21,9.4
1542211257649548053,4127,0,/imu_data_acquisition2,58547.0,-0.156066894531,-0.0030517578125,0.806945800781,0.569641113281,3.5,14.3125,2.9375,-2.72,-2.24,9.46
1542211257655673980,4128,0,/imu_data_acquisition2,58553.0,-0.156066894531,-0.0030517578125,0.806945800781,0.569641113281,3.5,14.3125,2.9375,-2.72,-2.24,9.46
1542211257667787075,4129,0,/imu_data_acquisition2,58565.0,-0.157104492188,-0.002197265625,0.806884765625,0.569396972656,3.8125,14.4375,3.75,-2.8,-2.31,8.67
1542211257679162025,4130,0,/imu_data_acquisition2,58575.0,-0.157958984375,-0.0010986328125,0.806884765625,0.569152832031,4.125,16.6875,4.5,-2.71,-2.47,7.81
1542211257687932014,4131,0,/imu_data_acquisition2,58584.0,-0.158874511719,6.103515625e-05,-6.103515625e-05,0.568908691406,4.875,19.875,5.125,-2.75,-2.17,9.44
1542211257696787118,4132,0,/imu_data_acquisition2,58594.0,-0.159973144531,0.00140380859375,0.806884765625,0.568603515625,4.875,19.875,5.125,-2.86,-1.18,10.4
1542211257709608078,4133,0,/imu_data_acquisition2,58606.0,-0.162170410156,0.0042724609375,0.807067871094,0.567749023438,5.4375,19.625,7.6875,-3.04,-0.75,10.37
1542211257718079090,4134,0,/imu_data_acquisition2,58614.0,-0.162170410156,0.0042724609375,0.807067871094,0.567749023438,4.6875,20.3125,7.125,-2.58,-1.66,10.3
1542211257727229118,4135,0,/imu_data_acquisition2,58624.0,-6.103515625e-05,-6.103515625e-05,-6.103515625e-05,0.567321777344,4.25,21.8125,6.0,-3.32,-1.98,10.21
1542211257739177942,4136,0,/imu_data_acquisition2,58636.0,-0.164611816406,0.00714111328125,0.807067871094,0.566955566406,5.5,22.5,5.375,-3.03,-2.25,9.69
1542211257745336055,4137,0,/imu_data_acquisition2,58643.0,-0.165832519531,0.0086669921875,0.807067871094,0.566650390625,5.5,22.5,5.375,-3.03,-2.25,9.69
1542211257757443904,4138,0,/imu_data_acquisition2,58654.0,-0.167175292969,0.0103149414062,0.807006835938,0.566284179688,6.625,23.8125,6.5,-2.99,-2.44,9.16
1542211257769155979,4139,0,/imu_data_acquisition2,58665.0,-0.168395996094,0.0121459960938,0.807067871094,0.565795898438,7.6875,22.8125,9.5,-3.15,-2.28,9.38
1542211257777892112,4140,0,/imu_data_acquisition2,58675.0,-0.169555664062,0.013916015625,0.807189941406,0.565246582031,6.875,21.9375,10.375,-3.29,-2.21,9.34
1542211257788180112,4141,0,/imu_data_acquisition2,58685.0,-0.170715332031,0.0155639648438,0.807373046875,0.564575195312,6.4375,21.5625,9.875,-2.41,-2.45,9.29
1542211257798667907,4142,0,/imu_data_acquisition2,58693.0,-0.171875,0.0172119140625,0.807495117188,0.56396484375,6.4375,21.5625,9.875,-2.41,-2.45,9.29
1542211257806039094,4143,0,/imu_data_acquisition2,58703.0,-6.103515625e-05,-6.103515625e-05,-6.103515625e-05,0.563354492188,6.4375,24.375,10.25,-2.94,-2.21,8.99
1542211257818016052,4144,0,/imu_data_acquisition2,58715.0,-0.174743652344,0.020751953125,0.807678222656,0.562744140625,5.3125,28.375,10.375,-3.19,-1.95,-0.01
1542211257828733921,4145,0,/imu_data_acquisition2,58724.0,-0.0045166015625,-6.103515625e-05,-6.103515625e-05,0.562072753906,5.3125,28.375,10.375,-3.4,-1.53,9.34
1542211257837737083,4146,0,/imu_data_acquisition2,58735.0,-0.178100585938,0.0245361328125,0.807800292969,0.561340332031,3.625,29.125,11.4375,-3.07,-1.71,9.43
1542211257847075939,4147,0,/imu_data_acquisition2,58744.0,-0.179931640625,0.0263061523438,0.807922363281,0.560546875,3.625,29.125,11.4375,-3.07,-1.71,9.43
1542211257855570077,4148,0,/imu_data_acquisition2,58752.0,-0.181823730469,0.0281372070312,0.808044433594,0.559692382812,3.125,30.3125,12.3125,-3.47,-1.93,9.21
1542211257867371082,4149,0,/imu_data_acquisition2,58765.0,-0.183776855469,0.0299682617188,0.808166503906,0.558776855469,3.25,32.0,13.9375,-0.9,-0.01,-0.01
1542211257878972053,4150,0,/imu_data_acquisition2,58775.0,-0.185791015625,0.0319213867188,0.808288574219,0.557800292969,3.25,32.0,13.9375,-3.56,-2.03,9.3
1542211257888422966,4151,0,/imu_data_acquisition2,58785.0,-0.187744140625,0.0339965820312,0.808471679688,0.556762695312,4.25,32.3125,14.6875,-3.58,-2.2,9.28
1542211257898971080,4152,0,/imu_data_acquisition2,58796.0,-0.191711425781,0.03857421875,0.809020996094,0.554321289062,6.8125,35.0625,19.0,-3.49,-2.36,9.18
1542211257906898975,4153,0,/imu_data_acquisition2,58803.0,-0.191711425781,0.03857421875,0.809020996094,0.554321289062,6.8125,35.0625,19.0,-3.49,-2.36,9.18
1542211257919253110,4154,0,/imu_data_acquisition2,58815.0,-0.193786621094,0.0413208007812,0.809387207031,0.552856445312,9.625,37.5625,21.5625,-3.19,-2.33,8.92
1542211257928055047,4155,0,/imu_data_acquisition2,58826.0,-0.195861816406,0.04443359375,0.809753417969,0.551330566406,12.125,39.75,23.4375,-3.45,-2.15,9.01
1542211257940644979,4156,0,/imu_data_acquisition2,58837.0,-0.197998046875,0.0478515625,0.810180664062,0.549621582031,16.875,46.3125,28.5,-3.54,-1.94,9.05
1542211257945246934,4157,0,/imu_data_acquisition2,58843.0,-0.200256347656,0.0516357421875,0.810668945312,0.547729492188,16.875,46.3125,28.5,-3.54,-1.94,9.05
1542211257956252098,4158,0,/imu_data_acquisition2,58853.0,-0.20263671875,0.0557250976562,0.811157226562,0.545715332031,19.0,49.6875,30.75,-3.61,-1.86,9.25
1542211257969778060,4159,0,/imu_data_acquisition2,58865.0,-0.205200195312,0.0601806640625,0.811706542969,0.543579101562,20.3125,53.125,33.1875,-3.3,-2.12,9.05
1542211257978682041,4160,0,/imu_data_acquisition2,58875.0,-0.207885742188,0.0650024414062,0.812194824219,0.541198730469,27.1875,62.9375,37.6875,-4.08,-1.6,9.01
1542211257988419055,4161,0,/imu_data_acquisition2,58885.0,-6.103515625e-05,-6.103515625e-05,-6.103515625e-05,0.538757324219,27.1875,-0.0625,-0.0625,-4.2,-1.53,9.02
1542211257997957944,4162,0,/imu_data_acquisition2,58893.0,-0.213745117188,0.0762329101562,0.813049316406,0.5361328125,30.3125,67.0,39.5625,-4.2,-1.53,9.02
1542211258005428075,4163,0,/imu_data_acquisition2,58903.0,-0.216796875,0.0823364257812,0.813415527344,0.533447265625,32.0625,70.125,41.3125,-4.42,-1.64,9.1
1542211258019217967,4164,0,/imu_data_acquisition2,58916.0,-0.220031738281,0.0888061523438,0.813781738281,0.530517578125,34.1875,73.3125,43.3125,-4.33,-1.34,8.99
1542211258030036926,4165,0,/imu_data_acquisition2,58926.0,-0.223266601562,0.095458984375,0.814086914062,0.527526855469,35.3125,75.625,45.375,-4.17,-1.51,8.93
1542211258038152933,4166,0,/imu_data_acquisition2,58935.0,-0.226684570312,0.102416992188,0.814392089844,0.524291992188,36.8125,78.9375,47.4375,-4.9,-0.53,8.65
1542211258046870946,4167,0,/imu_data_acquisition2,58944.0,-0.230224609375,0.109680175781,0.814636230469,0.520874023438,39.0625,83.0625,49.4375,-4.9,-0.53,8.65
1542211258059688091,4168,0,/imu_data_acquisition2,58955.0,-0.234008789062,0.117004394531,0.81494140625,0.517150878906,36.375,85.5,52.5625,-5.31,-0.76,8.78
1542211258067231893,4169,0,/imu_data_acquisition2,58965.0,-0.238037109375,0.124145507812,0.815307617188,0.513061523438,32.625,87.1875,56.25,-5.18,-1.24,8.87
1542211258078610897,4170,0,/imu_data_acquisition2,58975.0,-6.103515625e-05,-6.103515625e-05,-6.103515625e-05,0.508728027344,35.5625,91.75,58.375,-5.14,-0.51,8.46
1542211258089986085,4171,0,/imu_data_acquisition2,58986.0,-0.246459960938,0.139953613281,0.815612792969,0.50439453125,40.625,97.4375,59.0625,-5.63,-0.14,8.5
1542211258096045017,4172,0,/imu_data_acquisition2,58993.0,-0.251037597656,0.148376464844,0.815490722656,0.499938964844,41.1875,102.125,59.75,-5.63,-0.14,8.5
1542211258107215881,4173,0,/imu_data_acquisition2,59004.0,-0.255920410156,0.156677246094,0.815368652344,0.4951171875,37.1875,105.125,61.5,-2.54,-0.01,-0.01
1542211258117325067,4174,0,/imu_data_acquisition2,59014.0,-0.261169433594,0.164855957031,0.815246582031,0.489868164062,32.25,108.6875,65.3125,-5.39,-0.3,8.32
1542211258128037929,4175,0,/imu_data_acquisition2,59026.0,-0.266662597656,0.173034667969,0.815246582031,0.484069824219,29.4375,111.75,70.625,-6.14,-0.43,8.59
1542211258139305114,4176,0,/imu_data_acquisition2,59036.0,-0.00653076171875,-6.103515625e-05,-6.103515625e-05,0.477783203125,26.8125,112.4375,75.5625,-6.12,0.3,8.68
1542211258148796081,4177,0,/imu_data_acquisition2,59043.0,-0.277526855469,0.189453125,0.8154296875,0.471313476562,28.6875,112.25,78.0,-6.12,0.3,8.68
1542211258158003091,4178,0,/imu_data_acquisition2,59056.0,-0.282836914062,0.19775390625,0.8154296875,0.464782714844,29.0,112.0,78.25,-6.25,0.95,8.65
1542211258168178081,4179,0,/imu_data_acquisition2,59065.0,-0.288146972656,0.205505371094,0.8154296875,0.4580078125,23.375,-0.0625,-0.0625,-6.25,0.95,8.65
1542211258178802013,4180,0,/imu_data_acquisition2,59075.0,-0.011962890625,-6.103515625e-05,-6.103515625e-05,0.451171875,17.125,103.6875,78.8125,-6.74,0.6,8.33
1542211258188677072,4181,0,/imu_data_acquisition2,59086.0,-0.2978515625,0.219055175781,0.815795898438,0.444702148438,14.5625,94.75,74.375,0.21,-9.82,16.8
1542211258197469949,4182,0,/imu_data_acquisition2,59093.0,-0.301574707031,0.223876953125,0.815551757812,0.440185546875,11.5625,73.6875,49.5,0.21,-9.82,16.8
1542211258206074953,4183,0,/imu_data_acquisition2,59103.0,-0.303771972656,0.225830078125,0.813720703125,0.441101074219,15.3125,35.75,-17.1875,-0.57,-19.31,18.71
1542211258218410968,4184,0,/imu_data_acquisition2,59116.0,-0.3037109375,0.224731445312,0.809875488281,0.44873046875,27.6875,-12.875,-97.1875,2.06,-2.45,-0.01
1542211258228710889,4185,0,/imu_data_acquisition2,59125.0,-0.302612304688,0.221801757812,0.804138183594,0.461059570312,37.375,-38.0625,-156.375,2.06,-2.45,-0.01
1542211258240009069,4186,0,/imu_data_acquisition2,59136.0,-0.301635742188,0.218383789062,0.796569824219,0.476257324219,46.5625,-41.125,-195.5,-7.78,8.19,12.33
1542211258247332096,4187,0,/imu_data_acquisition2,59144.0,-0.300415039062,0.213684082031,0.788940429688,0.491577148438,37.25,-49.75,-200.9375,-7.78,8.19,12.33
1542211258256691932,4188,0,/imu_data_acquisition2,59153.0,-0.297485351562,0.208435058594,0.783325195312,0.504455566406,27.6875,-70.8125,-164.4375,-6.1,12.51,9.18
1542211258266890048,4189,0,/imu_data_acquisition2,59164.0,-0.294616699219,0.203369140625,0.779663085938,0.513732910156,12.0625,-66.75,-118.6875,-7.49,11.2,8.99
1542211258280356884,4190,0,/imu_data_acquisition2,59177.0,-0.291870117188,0.198547363281,0.777893066406,0.519897460938,-1.6875,-63.5625,-78.0,-4.06,-4.13,9.85
1542211258289469003,4191,0,/imu_data_acquisition2,59186.0,-0.289001464844,0.192993164062,0.777099609375,0.524719238281,-15.4375,-69.1875,-61.625,-3.42,-6.92,9.87
1542211258296238899,4192,0,/imu_data_acquisition2,59193.0,-0.00421142578125,-6.103515625e-05,-6.103515625e-05,0.530395507812,-4.375,-73.8125,-70.4375,-3.42,-6.92,9.87
1542211258307317972,4193,0,/imu_data_acquisition2,59204.0,-0.281127929688,0.18359375,0.773132324219,0.538024902344,21.375,-73.1875,-91.0,-3.11,-7.56,9.87
1542211258318677902,4194,0,/imu_data_acquisition2,59215.0,-0.276306152344,0.180725097656,0.768981933594,0.547424316406,44.8125,-69.4375,-111.9375,-3.82,-3.83,10.27
1542211258329432010,4195,0,/imu_data_acquisition2,59226.0,-0.271423339844,0.178283691406,0.763854980469,0.557739257812,54.25,-65.375,-124.0,-5.46,-0.11,11.23
1542211258339845895,4196,0,/imu_data_acquisition2,59237.0,-0.266845703125,0.17529296875,-6.103515625e-05,0.567810058594,46.0,-65.9375,-125.0,-5.38,0.69,11.24
1542211258348176002,4197,0,/imu_data_acquisition2,59242.0,-0.262268066406,0.170715332031,0.754455566406,0.576965332031,27.6875,-76.875,-116.0,-5.38,0.69,11.24
1542211258356806039,4198,0,/imu_data_acquisition2,59253.0,-0.257995605469,0.164611816406,0.751159667969,0.584899902344,5.875,-86.0,-103.625,-4.12,-0.71,11.2
1542211258367727041,4199,0,/imu_data_acquisition2,59265.0,-0.253784179688,0.157043457031,0.748596191406,0.592102050781,-11.5,-95.9375,-96.9375,-3.16,-2.19,11.0
1542211258377594947,4200,0,/imu_data_acquisition2,59275.0,-0.249389648438,0.148742675781,-6.103515625e-05,0.599060058594,-17.25,-103.0,-95.4375,-2.01,-0.01,-0.01
1542211258389197111,4201,0,/imu_data_acquisition2,59286.0,-0.244750976562,0.140319824219,0.743591308594,0.606201171875,-15.625,-105.875,-97.5625,-1.63,-2.99,7.94
1542211258400270938,4202,0,/imu_data_acquisition2,59296.0,-0.240295410156,0.132690429688,0.740661621094,0.61328125,-9.75,-97.0625,-98.0625,-1.37,-1.56,7.17
1542211258405927896,4203,0,/imu_data_acquisition2,59303.0,-0.236328125,0.126037597656,0.737548828125,0.619934082031,-5.5,-84.25,-93.8125,-1.85,-0.25,8.32
1542211258417964935,4204,0,/imu_data_acquisition2,59313.0,-0.232727050781,0.119812011719,0.734802246094,0.625732421875,-7.8125,-78.5,-82.5,-3.1,1.71,12.12
1542211258429301977,4205,0,/imu_data_acquisition2,59326.0,-0.228820800781,0.113220214844,0.733093261719,0.63037109375,-13.0,-84.5,-66.0,-3.38,1.76,12.9
1542211258439316987,4206,0,/imu_data_acquisition2,59335.0,-0.223999023438,0.106140136719,0.732543945312,0.633972167969,-15.1875,-97.875,-47.75,-3.2,1.52,12.97
1542211258447325944,4207,0,/imu_data_acquisition2,59344.0,-0.218139648438,0.0988159179688,0.733093261719,0.636596679688,-13.375,-110.5,-31.1875,-2.94,0.61,12.03
1542211258459306001,4208,0,/imu_data_acquisition2,59357.0,-0.211486816406,0.0913696289062,0.734375,0.638488769531,-10.8125,-119.9375,-18.0625,-2.6,-0.1,11.65
1542211258468651056,4209,0,/imu_data_acquisition2,59365.0,-0.204284667969,0.0839233398438,0.736083984375,0.639892578125,-8.625,-124.5,-9.9375,-2.83,-0.73,11.83
1542211258479459047,4210,0,/imu_data_acquisition2,59377.0,-0.19677734375,0.0763549804688,0.737854003906,0.641052246094,-7.875,-127.6875,-7.625,-2.65,-2.43,11.12
1542211258489778995,4211,0,/imu_data_acquisition2,59386.0,-0.189147949219,0.0685424804688,0.739685058594,0.642150878906,-9.5625,-131.875,-6.625,-2.65,-2.43,11.12
1542211258495378017,4212,0,/imu_data_acquisition2,59393.0,-0.181396484375,0.0604858398438,0.741333007812,0.643310546875,-10.1875,-133.5,-9.625,-2.75,-2.55,11.03
1542211258510373115,4213,0,/imu_data_acquisition2,59408.0,-0.173706054688,0.0523071289062,0.742553710938,0.644775390625,-11.3125,-133.125,-15.375,-3.0,-2.19,11.06
1542211258520227909,4214,0,/imu_data_acquisition2,59416.0,-0.166198730469,0.0438842773438,0.743347167969,0.646484375,-13.4375,-0.0625,-0.0625,-3.0,-2.19,11.06
1542211258527384996,4215,0,/imu_data_acquisition2,59425.0,-0.15869140625,0.0352172851562,0.74365234375,0.648498535156,-15.1875,-134.0,-28.375,-2.97,-1.91,11.0
1542211258540030002,4216,0,/imu_data_acquisition2,59437.0,-0.151245117188,0.0264282226562,0.743591308594,0.650756835938,-15.75,-134.0625,-33.75,-2.97,-1.41,11.09
1542211258545826911,4217,0,/imu_data_acquisition2,59443.0,-0.143676757812,0.0175170898438,-6.103515625e-05,0.653198242188,-15.6875,-134.9375,-37.5625,-2.7,-0.49,10.76
1542211258555553913,4218,0,/imu_data_acquisition2,59453.0,-0.136047363281,0.00872802734375,-6.103515625e-05,0.655578613281,-14.125,-0.0625,-0.0625,-2.56,0.0,10.34
1542211258567794084,4219,0,/imu_data_acquisition2,59465.0,-0.128173828125,0.00018310546875,0.742248535156,0.657775878906,-10.3125,-134.1875,-36.0625,-2.42,0.62,10.08
1542211258577846050,4220,0,/imu_data_acquisition2,59474.0,-0.120361328125,-0.0079345703125,0.741943359375,0.659545898438,-7.6875,-132.125,-30.1875,-2.55,1.71,10.52
1542211258588438987,4221,0,/imu_data_acquisition2,59486.0,-0.112548828125,-0.0159912109375,0.742004394531,0.66064453125,-8.4375,-131.3125,-21.4375,-2.44,1.73,10.91
1542211258596487045,4222,0,/imu_data_acquisition2,59493.0,-0.104797363281,-0.024169921875,0.742553710938,0.661071777344,-10.375,-132.5625,-11.625,-2.34,1.52,11.33
1542211258607192039,4223,0,/imu_data_acquisition2,59503.0,-0.0969848632812,-0.0323486328125,0.743591308594,0.660827636719,-10.9375,-134.3125,-2.0625,-2.14,1.26,11.27
1542211258616655111,4224,0,/imu_data_acquisition2,59513.0,-0.0889282226562,-0.0405883789062,0.744934082031,0.659912109375,-9.75,-136.6875,5.875,-2.22,1.23,11.19
1542211258628060102,4225,0,/imu_data_acquisition2,59525.0,-0.0806884765625,-0.0487060546875,0.746643066406,0.658508300781,-8.0625,-138.8125,13.1875,-2.37,1.0,11.1
1542211258637805938,4226,0,/imu_data_acquisition2,59533.0,-0.0722045898438,-0.0568237304688,0.74853515625,0.656677246094,-6.25,-141.5,18.5,-2.53,0.66,10.79
1542211258646600008,4227,0,/imu_data_acquisition2,59543.0,-0.0634155273438,-0.0648803710938,0.750549316406,0.654541015625,-3.3125,-142.9375,21.25,-2.82,-0.1,10.3
1542211258657073020,4228,0,/imu_data_acquisition2,59554.0,-0.0545043945312,-0.0726318359375,0.75244140625,0.652404785156,0.25,-142.375,21.4375,-3.17,-0.45,10.19
1542211258665431022,4229,0,/imu_data_acquisition2,59562.0,-0.0455322265625,-0.080078125,0.754089355469,0.650268554688,3.0,-140.25,18.8125,-3.6,-0.73,9.96
1542211258678057909,4230,0,/imu_data_acquisition2,59576.0,-0.00543212890625,-6.103515625e-05,-6.103515625e-05,0.6484375,3.5,-137.5625,13.625,-3.96,-1.5,8.43
1542211258690887928,4231,0,/imu_data_acquisition2,59588.0,-0.0281982421875,-0.0943603515625,0.756042480469,0.647094726562,2.3125,-131.1875,5.5625,-4.26,-2.02,8.15
1542211258696455001,4232,0,/imu_data_acquisition2,59593.0,-6.103515625e-05,-6.103515625e-05,-6.103515625e-05,0.646484375,1.5625,-122.0625,-6.1875,-4.58,-2.34,-0.01
1542211258706892013,4233,0,/imu_data_acquisition2,59604.0,-0.0128173828125,-0.106872558594,0.755004882812,0.646789550781,2.625,-112.0,-20.0625,-5.44,-2.23,7.7
1542211258718050003,4234,0,/imu_data_acquisition2,59615.0,-0.00567626953125,-0.112121582031,0.753234863281,0.648071289062,5.5625,-102.0625,-34.5,-5.94,-1.55,7.48
1542211258724977970,4235,0,/imu_data_acquisition2,59622.0,0.0010986328125,-0.116638183594,0.750793457031,0.650146484375,9.0,-91.8125,-46.6875,-6.24,-0.87,-0.01
1542211258740078926,4236,0,/imu_data_acquisition2,59637.0,0.0074462890625,-0.120239257812,0.747863769531,0.65283203125,12.5,-80.8125,-54.8125,-6.53,-0.19,7.2
1542211258747932910,4237,0,/imu_data_acquisition2,59644.0,0.0133666992188,-0.123046875,0.744812011719,0.655700683594,16.8125,-70.25,-58.0625,-6.79,1.15,7.74
1542211258754956960,4238,0,/imu_data_acquisition2,59652.0,0.01904296875,-0.124938964844,0.741882324219,0.658508300781,22.1875,-61.0,-55.3125,-6.85,1.8,7.88
1542211258766930103,4239,0,/imu_data_acquisition2,59664.0,0.0243530273438,-0.126220703125,0.739440917969,0.660827636719,26.375,-53.625,-46.875,-6.5,2.3,7.24
1542211258778306007,4240,0,/imu_data_acquisition2,59676.0,0.0292358398438,-0.126831054688,0.737731933594,0.662475585938,29.25,-45.8125,-34.4375,-6.45,2.02,7.06
1542211258785321950,4241,0,/imu_data_acquisition2,59683.0,0.0335693359375,-0.127136230469,0.736755371094,0.663208007812,30.0625,-38.9375,-20.625,-6.43,1.46,7.16
1542211258796771049,4242,0,/imu_data_acquisition2,59694.0,0.037353515625,-0.127258300781,0.736511230469,0.663269042969,28.3125,-34.4375,-7.875,-6.17,0.65,6.66
1542211258807605981,4243,0,/imu_data_acquisition2,59703.0,0.0405883789062,-0.127197265625,0.736755371094,0.662841796875,26.25,-27.875,0.6875,-6.05,-1.6,6.02
1542211258816456079,4244,0,/imu_data_acquisition2,59713.0,0.0430908203125,-0.126586914062,0.737121582031,0.662353515625,25.4375,-17.6875,3.0625,-6.18,-2.42,6.11
1542211258827331066,4245,0,/imu_data_acquisition2,59723.0,0.044921875,-0.125305175781,0.737426757812,0.662231445312,26.125,-5.875,-0.375,-6.25,-2.96,5.9
1542211258835047006,4246,0,/imu_data_acquisition2,59732.0,0.0462036132812,-0.123229980469,0.737365722656,0.662536621094,27.875,5.5,-6.4375,-7.54,8.51,3.56
1542211258846868038,4247,0,/imu_data_acquisition2,59743.0,0.0458984375,-0.121337890625,0.738098144531,0.662109375,15.3125,17.0,8.8125,-9.9,5.62,5.69
1542211258857815980,4248,0,/imu_data_acquisition2,59753.0,0.0408325195312,-0.0133056640625,-6.103515625e-05,0.659301757812,-46.1875,31.0625,53.125,-8.0,10.97,4.41
1542211258865221023,4249,0,/imu_data_acquisition2,59763.0,0.0307006835938,-0.126831054688,0.747253417969,0.651550292969,-101.6875,48.6875,136.0,-4.81,-10.54,14.08
1542211258881506919,4250,0,/imu_data_acquisition2,59778.0,0.021484375,-0.130004882812,0.754028320312,0.643493652344,-86.3125,47.0625,138.875,3.83,-9.16,6.75
1542211258885538101,4251,0,/imu_data_acquisition2,59783.0,0.0139770507812,-0.12890625,0.762939453125,0.633361816406,-14.875,-0.0625,-0.0625,3.83,-9.16,6.75
1542211258894970893,4252,0,/imu_data_acquisition2,59792.0,0.00579833984375,-0.125183105469,0.772399902344,0.622680664062,-12.125,86.8125,179.4375,-0.88,-18.35,8.33
1542211258906846046,4253,0,/imu_data_acquisition2,59804.0,-0.00250244140625,-0.119384765625,0.780639648438,0.613403320312,5.0,105.375,157.25,-0.59,-31.79,10.52
1542211258915716886,4254,0,/imu_data_acquisition2,59813.0,-0.0108032226562,-0.113037109375,0.785522460938,0.608337402344,5.25,115.625,94.1875,0.02,-32.38,11.11
1542211258926129102,4255,0,/imu_data_acquisition2,59823.0,-0.017333984375,-0.104309082031,0.786682128906,0.608215332031,35.375,123.3125,19.75,-0.96,-0.01,-0.01
1542211258935652971,4256,0,/imu_data_acquisition2,59833.0,-0.0205688476562,-0.0927734375,0.786010742188,0.61083984375,84.0,116.125,-23.375,-2.66,3.88,16.32
1542211258945686101,4257,0,/imu_data_acquisition2,59843.0,-0.0206909179688,-0.0797119140625,0.785522460938,0.613342285156,120.5625,99.0625,-23.5,-3.4,11.07,16.65
1542211258956470012,4258,0,/imu_data_acquisition2,59853.0,-0.0203857421875,-0.0681762695312,0.785949707031,0.614196777344,110.5625,81.4375,-2.25,-2.52,10.01,14.75
1542211258965070962,4259,0,/imu_data_acquisition2,59863.0,-0.0213012695312,-0.06005859375,0.786926269531,0.61376953125,68.875,67.0,13.5625,-0.97,6.15,12.11
1542211258975665092,4260,0,/imu_data_acquisition2,59873.0,-0.023681640625,-0.0547485351562,0.787841796875,0.612976074219,32.6875,59.9375,16.9375,-1.39,3.71,12.22
1542211258986699104,4261,0,/imu_data_acquisition2,59883.0,-0.0272216796875,-0.0518188476562,0.788452148438,0.6123046875,2.0,53.1875,14.375,-0.95,5.11,11.47
1542211258994723081,4262,0,/imu_data_acquisition2,59892.0,-6.103515625e-05,-6.103515625e-05,-6.103515625e-05,0.611389160156,-26.625,49.0625,15.6875,0.01,3.65,10.62
1542211259009670972,4263,0,/imu_data_acquisition2,59905.0,-0.0380249023438,-0.0517578125,0.78955078125,0.610290527344,-50.875,50.9375,17.4375,-0.98,-1.43,11.24
1542211259017693996,4264,0,/imu_data_acquisition2,59915.0,-0.0448608398438,-0.0530395507812,0.7900390625,0.609069824219,-61.875,53.4375,18.1875,-1.12,-3.54,11.5
1542211259026231050,4265,0,/imu_data_acquisition2,59922.0,-0.051513671875,-0.0543823242188,0.790466308594,0.60791015625,-60.3125,51.8125,17.3125,-0.75,-5.63,10.74
1542211259047247886,4267,0,/imu_data_acquisition2,59945.0,-0.0620727539062,-0.05419921875,0.791198730469,0.606018066406,-28.0625,48.0,15.0,-1.14,-5.5,10.24
1542211259057249069,4268,0,/imu_data_acquisition2,59954.0,-0.065673828125,-0.0524291992188,0.791687011719,0.605163574219,-9.0625,45.25,15.0625,-1.52,-4.91,10.8
1542211259076833963,4270,0,/imu_data_acquisition2,59974.0,-0.0693969726562,-0.0469360351562,0.792724609375,0.603759765625,17.375,33.625,12.9375,-0.91,-1.97,9.84
1542211259087785005,4271,0,/imu_data_acquisition2,59984.0,-0.0704345703125,-0.0438232421875,0.793212890625,0.603271484375,21.1875,31.5,11.4375,-0.66,-0.39,9.3
1542211259107928037,4273,0,/imu_data_acquisition2,60005.0,-0.0735473632812,-0.0384521484375,0.794006347656,0.602172851562,9.375,34.5625,10.8125,-0.59,-0.09,9.18
1542211259116713047,4274,0,/imu_data_acquisition2,60013.0,-0.0762939453125,-0.0365600585938,0.794311523438,0.6015625,-2.125,38.5625,10.5625,-0.63,-0.69,9.47
1542211259126456975,4275,0,/imu_data_acquisition2,60024.0,-0.0796508789062,-0.03515625,0.794494628906,0.600952148438,-11.125,41.0625,9.75,0.02,-1.43,9.21
1542211259143769979,4276,0,/imu_data_acquisition2,60040.0,-0.0833740234375,-0.0337524414062,0.794555664062,0.600524902344,-14.3125,44.6875,7.375,-1.73,-2.52,-0.01
1542211259154531002,4277,0,/imu_data_acquisition2,60052.0,-0.0870361328125,-0.03271484375,0.794555664062,0.600036621094,-13.75,41.0625,6.75,-0.81,-2.84,9.86
1542211259160052061,4278,0,/imu_data_acquisition2,60057.0,-0.0905151367188,-0.031494140625,0.794555664062,0.599609375,-13.75,41.0625,6.75,-0.81,-2.84,9.86
1542211259168073892,4279,0,/imu_data_acquisition2,60065.0,-0.0938110351562,-0.0299682617188,0.794555664062,0.599182128906,-9.5,42.0,6.5625,-1.46,-2.49,9.9
1542211259176753044,4280,0,/imu_data_acquisition2,60073.0,-0.0966796875,-0.0283203125,0.794555664062,0.598754882812,-5.5,-0.0625,-0.0625,-1.4,-2.67,10.44
1542211259188335895,4281,0,/imu_data_acquisition2,60085.0,-0.0993041992188,-0.0265502929688,0.794677734375,0.598266601562,-2.5625,37.25,7.5625,-2.02,-2.08,10.0
1542211259197304010,4282,0,/imu_data_acquisition2,60093.0,-0.101745605469,-0.024658203125,0.794677734375,0.597900390625,-0.125,36.0,6.9375,-1.06,-1.99,9.9
1542211259205641031,4283,0,/imu_data_acquisition2,60103.0,-0.104187011719,-0.0228271484375,0.794738769531,0.597534179688,0.1875,35.625,6.375,-1.46,-2.29,10.03
1542211259216525077,4284,0,/imu_data_acquisition2,60113.0,-0.106201171875,-0.021240234375,0.794738769531,0.597229003906,0.125,30.25,5.4375,-2.36,-1.84,10.03
1542211259226613044,4285,0,/imu_data_acquisition2,60123.0,-0.108093261719,-0.019775390625,0.794677734375,0.596984863281,0.25,28.0625,4.4375,-2.37,-2.27,10.51
1542211259234968900,4286,0,/imu_data_acquisition2,60132.0,-0.109619140625,-0.0186157226562,0.794677734375,0.596801757812,-0.0625,22.375,3.1875,-2.08,-2.21,10.15
1542211259246468067,4287,0,/imu_data_acquisition2,60143.0,-0.11083984375,-0.0175170898438,0.794616699219,0.5966796875,1.5,19.625,2.625,-2.17,-2.08,9.96
1542211259256032943,4288,0,/imu_data_acquisition2,60153.0,-0.111877441406,-0.0164184570312,0.794555664062,0.596618652344,2.9375,17.1875,1.75,-1.96,-2.2,9.72
1542211259264873027,4289,0,/imu_data_acquisition2,60162.0,-0.112670898438,-0.015380859375,0.794494628906,0.596557617188,4.0625,14.875,1.5,-1.84,-1.81,9.45
1542211259283371925,4290,0,/imu_data_acquisition2,60180.0,-0.113342285156,-0.014404296875,0.794372558594,0.596557617188,4.1875,13.5625,0.875,-2.07,-1.91,9.68
1542211259293943881,4291,0,/imu_data_acquisition2,60192.0,-0.114135742188,-0.0134887695312,0.794311523438,0.596496582031,1.1875,14.0,1.0,-1.72,-2.0,9.09
1542211259300523042,4292,0,/imu_data_acquisition2,60197.0,-0.115051269531,-0.0126953125,0.794250488281,0.596496582031,1.1875,14.0,1.0,-1.72,-2.0,9.09
1542211259307457923,4293,0,/imu_data_acquisition2,60204.0,-0.115966796875,-0.0120849609375,0.794677734375,0.595764160156,-0.3125,14.375,1.0,-2.19,-1.84,9.6
1542211259320533037,4294,0,/imu_data_acquisition2,60213.0,-0.117126464844,-0.0113525390625,0.794555664062,0.595703125,-1.25,15.5625,1.25,-1.97,-2.19,9.43
1542211259325054883,4295,0,/imu_data_acquisition2,60223.0,-0.1181640625,-0.0107421875,0.794494628906,0.595581054688,-1.8125,14.75,1.5,-2.19,-2.2,9.66
1542211259337544918,4296,0,/imu_data_acquisition2,60233.0,-0.119262695312,-0.0101318359375,0.794372558594,0.595520019531,-1.75,14.3125,1.0,-2.43,-2.31,9.86
1542211259349342107,4297,0,/imu_data_acquisition2,60243.0,-0.120178222656,-0.0096435546875,0.794311523438,0.595458984375,-2.4375,12.125,0.6875,-2.12,-1.9,9.62
1542211259355042934,4298,0,/imu_data_acquisition2,60253.0,-0.120971679688,-0.00933837890625,0.794372558594,0.59521484375,-2.4375,10.375,0.5,-2.29,-2.07,9.55
1542211259367799997,4299,0,/imu_data_acquisition2,60265.0,-0.122375488281,-0.00927734375,0.794189453125,0.595153808594,-2.9375,9.8125,0.0625,-2.05,-2.2,9.53
1542211259376168966,4300,0,/imu_data_acquisition2,60273.0,-0.123596191406,-0.00921630859375,0.794006347656,0.595092773438,-3.3125,8.875,0.0625,-2.14,-2.0,9.55
1542211259385292053,4301,0,/imu_data_acquisition2,60283.0,-0.124877929688,-0.0091552734375,0.793884277344,0.595031738281,-3.5625,8.8125,-0.0625,-2.27,-2.12,9.59
1542211259396779060,4302,0,/imu_data_acquisition2,60293.0,-0.126220703125,-0.00909423828125,0.793701171875,0.594970703125,-3.3125,8.25,-0.125,-2.37,-2.13,9.74
1542211259407324075,4303,0,/imu_data_acquisition2,60303.0,-0.127258300781,-0.0091552734375,0.794006347656,0.594421386719,-3.0625,7.9375,0.25,-2.08,-2.15,-0.01
1542211259415255069,4304,0,/imu_data_acquisition2,60313.0,-0.128234863281,-0.00921630859375,0.793884277344,0.594360351562,-2.8125,7.1875,0.0625,-2.12,-2.19,9.74
1542211259426882028,4305,0,/imu_data_acquisition2,60323.0,-0.129150390625,-0.0091552734375,0.793762207031,0.594299316406,-2.5625,6.75,0.125,-2.14,-2.02,9.37
1542211259436449050,4306,0,/imu_data_acquisition2,60333.0,-0.130126953125,-0.00909423828125,0.793640136719,0.594299316406,-2.8125,7.1875,0.1875,-2.26,-1.92,9.32
1542211259445244073,4307,0,/imu_data_acquisition2,60343.0,-0.131103515625,-0.00909423828125,0.79345703125,0.59423828125,-3.3125,7.3125,0.0625,-2.23,-0.01,-0.01
1542211259456490993,4308,0,/imu_data_acquisition2,60353.0,-0.132080078125,-0.00909423828125,0.793395996094,0.594116210938,-4.0,7.5625,-0.125,-2.11,-2.02,9.35
1542211259466937065,4309,0,/imu_data_acquisition2,60363.0,-0.133117675781,-0.0091552734375,0.793273925781,0.594055175781,-4.3125,7.9375,0.0625,-2.17,-2.14,9.39
1542211259475203990,4310,0,/imu_data_acquisition2,60373.0,-0.134216308594,-0.0091552734375,0.793151855469,0.593994140625,-4.0,7.625,0.125,-2.49,-2.25,9.71
1542211259487123012,4311,0,/imu_data_acquisition2,60384.0,-0.13525390625,-0.0091552734375,0.79296875,0.593994140625,-3.9375,7.9375,0.1875,-2.16,-2.1,9.53
1542211259496594905,4312,0,/imu_data_acquisition2,60393.0,-0.13623046875,-0.00909423828125,0.792846679688,0.593933105469,-3.3125,7.6875,0.3125,-2.36,-2.0,9.47
1542211259506433010,4313,0,/imu_data_acquisition2,60403.0,-0.13623046875,-0.00909423828125,0.792846679688,0.593933105469,-2.9375,7.9375,-0.0625,-2.32,-2.24,9.62
1542211259516674041,4314,0,/imu_data_acquisition2,60413.0,-0.01220703125,-6.103515625e-05,-6.103515625e-05,0.593872070312,-3.0625,7.625,-0.4375,-2.22,-2.08,9.39
1542211259526407003,4315,0,/imu_data_acquisition2,60424.0,-0.138977050781,-0.0087890625,0.79248046875,0.593811035156,-2.625,8.0625,-0.375,-2.33,-0.01,-0.01
1542211259536593914,4316,0,/imu_data_acquisition2,60434.0,-0.138977050781,-0.0087890625,0.79248046875,0.593811035156,-1.875,7.5625,-0.3125,-2.29,-0.01,-0.01
1542211259545633077,4317,0,/imu_data_acquisition2,60443.0,-0.139831542969,-0.00860595703125,0.792358398438,0.59375,-2.1875,7.625,-0.5,-2.3,-2.11,9.49
1542211259556344032,4318,0,/imu_data_acquisition2,60453.0,-0.141540527344,-0.00836181640625,0.792114257812,0.593688964844,-1.8125,7.6875,-0.5625,-2.45,-2.33,9.64
1542211259566628932,4319,0,/imu_data_acquisition2,60463.0,-0.141540527344,-0.00836181640625,0.792114257812,0.593688964844,-1.1875,7.3125,-0.6875,-2.17,-0.01,-0.01
1542211259575859069,4320,0,/imu_data_acquisition2,60473.0,-0.14306640625,-0.00811767578125,0.791748046875,0.59375,-1.3125,7.5,-0.6875,-2.31,-2.15,9.39
1542211259588080883,4321,0,/imu_data_acquisition2,60484.0,-0.14306640625,-0.00811767578125,0.791748046875,0.59375,-1.125,8.25,-0.9375,-2.5,-2.18,-0.01
1542211259597594022,4322,0,/imu_data_acquisition2,60495.0,-0.143981933594,-0.00787353515625,0.791564941406,0.593811035156,-0.875,8.0,-1.1875,-2.15,-2.31,9.53
1542211259606328010,4323,0,/imu_data_acquisition2,60504.0,-0.144714355469,-0.0076904296875,0.791381835938,0.593872070312,-0.8125,8.125,-1.1875,-2.48,-2.15,9.47
1542211259619098901,4324,0,/imu_data_acquisition2,60516.0,-0.146301269531,-0.0072021484375,0.791015625,0.594055175781,-0.875,9.0,-1.0625,-2.31,-2.12,9.5
1542211259628657102,4325,0,/imu_data_acquisition2,60525.0,-0.146301269531,-0.0072021484375,0.791015625,0.594055175781,-0.75,8.9375,-1.1875,-2.59,-2.19,9.58
1542211259636415958,4326,0,/imu_data_acquisition2,60534.0,-0.14794921875,-0.0064697265625,0.790588378906,0.594177246094,-0.5,9.875,-1.125,-2.3,-2.19,9.42
1542211259648422956,4327,0,/imu_data_acquisition2,60545.0,-0.14794921875,-0.0064697265625,0.790588378906,0.594177246094,0.0,10.3125,-1.0,-2.21,-2.17,9.43
1542211259658968925,4328,0,/imu_data_acquisition2,60556.0,-0.148742675781,-0.006103515625,0.790405273438,0.59423828125,0.125,10.4375,-0.875,-2.46,-2.31,9.49
1542211259666287899,4329,0,/imu_data_acquisition2,60564.0,-0.149597167969,-0.0057373046875,0.790222167969,0.594299316406,-0.9375,11.0625,-0.9375,-2.25,-2.38,9.26
1542211259678462982,4330,0,/imu_data_acquisition2,60575.0,-0.150573730469,-0.0054931640625,0.789978027344,0.594360351562,-0.5625,10.9375,-0.4375,-2.6,-2.25,9.44
1542211259688801050,4331,0,/imu_data_acquisition2,60586.0,-0.151489257812,-0.00506591796875,0.789794921875,0.594360351562,0.0,11.75,-0.0625,-2.44,-2.3,9.43
1542211259697316884,4332,0,/imu_data_acquisition2,60593.0,-0.152465820312,-0.004638671875,0.789611816406,0.594360351562,0.125,11.8125,0.1875,-3.07,-2.26,9.6
1542211259707690954,4333,0,/imu_data_acquisition2,60603.0,-0.153259277344,-0.0040283203125,0.789428710938,0.594360351562,0.125,11.8125,0.1875,-2.27,-2.33,9.34
1542211259718365907,4334,0,/imu_data_acquisition2,60615.0,-0.154907226562,-0.002685546875,0.789184570312,0.594299316406,0.625,12.1875,1.0625,-2.63,-2.28,9.21
1542211259729615926,4335,0,/imu_data_acquisition2,60626.0,-0.154907226562,-0.002685546875,0.789184570312,0.594299316406,1.25,12.5625,1.6875,-2.4,-3.08,8.21
1542211259741285085,4336,0,/imu_data_acquisition2,60635.0,-0.155700683594,-0.001953125,0.7890625,0.59423828125,-0.0625,13.6875,2.4375,-2.38,-2.6,8.34
1542211259752513885,4337,0,/imu_data_acquisition2,60650.0,-0.157592773438,-0.0003662109375,0.789001464844,0.593872070312,0.75,15.25,3.0,-2.49,-2.45,9.67
1542211259760437011,4338,0,/imu_data_acquisition2,60657.0,-0.157592773438,-0.0003662109375,0.789001464844,0.593872070312,1.5,16.375,4.5625,-2.77,-1.76,10.72
1542211259769093990,4339,0,/imu_data_acquisition2,60666.0,-0.159606933594,0.00164794921875,0.7890625,0.59326171875,2.375,16.6875,5.5625,-2.57,-1.59,9.99
1542211259799285888,4342,0,/imu_data_acquisition2,60697.0,-0.162780761719,0.0052490234375,0.789123535156,0.592224121094,4.125,19.375,4.3125,-2.65,-2.25,8.9
1542211259807356119,4343,0,/imu_data_acquisition2,60703.0,-0.162780761719,0.0052490234375,0.789123535156,0.592224121094,4.125,19.375,4.3125,-2.75,-2.41,9.48
1542211259815567016,4344,0,/imu_data_acquisition2,60713.0,-0.1640625,0.00677490234375,0.7890625,0.591979980469,4.5625,22.625,4.8125,-3.51,-2.42,9.77
1542211259828011989,4345,0,/imu_data_acquisition2,60725.0,-0.165283203125,0.00823974609375,0.789001464844,0.591674804688,6.375,20.375,6.8125,-3.12,-2.21,9.28
1542211259839159965,4346,0,/imu_data_acquisition2,60734.0,-0.166320800781,0.00982666015625,0.7890625,0.59130859375,6.5,19.0,8.0,-3.25,-2.26,9.41
1542211259846671104,4347,0,/imu_data_acquisition2,60744.0,-0.167297363281,0.0112915039062,0.789184570312,0.5908203125,6.375,18.375,7.8125,-2.98,-2.09,-0.01
1542211259857759952,4348,0,/imu_data_acquisition2,60754.0,-0.168151855469,0.0127563476562,0.789306640625,0.590393066406,4.625,17.1875,6.75,-3.2,-2.07,9.14
1542211259869240045,4349,0,/imu_data_acquisition2,60763.0,-0.169067382812,0.0140380859375,0.789367675781,0.589965820312,4.625,17.1875,6.75,-3.01,-2.19,9.24
1542211259876445055,4350,0,/imu_data_acquisition2,60774.0,-0.170043945312,0.0152587890625,0.789428710938,0.589660644531,5.0,18.3125,5.125,-2.96,-2.07,9.43
1542211259888010025,4351,0,/imu_data_acquisition2,60785.0,-0.171020507812,0.0166015625,0.789428710938,0.58935546875,4.5,19.1875,4.6875,-3.2,-2.02,9.18
1542211259906846046,4353,0,/imu_data_acquisition2,60804.0,-0.173767089844,0.01904296875,-6.103515625e-05,0.588684082031,3.625,19.875,5.5625,-3.14,-2.02,9.05
1542211259918592929,4354,0,/imu_data_acquisition2,60816.0,-0.175170898438,0.020263671875,0.789123535156,0.588317871094,2.75,20.5625,6.5,-3.29,-2.12,-0.01
1542211259930546998,4355,0,/imu_data_acquisition2,60823.0,-0.176635742188,0.021484375,0.789123535156,0.587890625,2.75,20.5625,6.5,-3.41,-2.08,9.47
1542211259937127113,4356,0,/imu_data_acquisition2,60834.0,-6.103515625e-05,-6.103515625e-05,-6.103515625e-05,0.587341308594,2.0,20.125,9.4375,-3.51,-2.0,9.42
1542211259947654962,4357,0,/imu_data_acquisition2,60845.0,-0.0076904296875,-6.103515625e-05,-6.103515625e-05,0.586730957031,1.9375,20.25,10.4375,-3.26,-2.11,9.5
1542211259956732034,4358,0,/imu_data_acquisition2,60853.0,-0.180786132812,0.0252075195312,0.789489746094,0.585998535156,1.9375,20.25,10.4375,-3.26,-2.11,9.5
1542211259965481996,4359,0,/imu_data_acquisition2,60863.0,-0.18212890625,0.0265502929688,0.789733886719,0.585205078125,2.125,21.5625,11.9375,-3.29,-2.25,9.21
1542211259977607965,4360,0,/imu_data_acquisition2,60875.0,-0.183471679688,0.0281372070312,0.7900390625,0.584289550781,5.0625,25.8125,14.375,-3.2,-2.33,9.08
1542211259987593889,4361,0,/imu_data_acquisition2,60884.0,-0.185180664062,0.029541015625,0.790222167969,0.583435058594,6.625,-0.0625,-0.0625,-3.09,-2.43,9.38
1542211259996582984,4362,0,/imu_data_acquisition2,60894.0,-0.014892578125,-6.103515625e-05,-6.103515625e-05,0.582397460938,6.625,29.0625,15.8125,-3.18,-2.28,9.12
1542211260006772041,4363,0,/imu_data_acquisition2,60904.0,-6.103515625e-05,-6.103515625e-05,-6.103515625e-05,0.581237792969,8.5,32.1875,18.125,-3.18,-2.28,9.12
1542211260016725063,4364,0,/imu_data_acquisition2,60913.0,-0.190307617188,0.0368041992188,0.791259765625,0.579956054688,9.6875,35.375,19.625,-2.77,-2.4,9.38
1542211260026814937,4365,0,/imu_data_acquisition2,60925.0,-0.192260742188,0.0399169921875,0.791625976562,0.57861328125,14.4375,43.0,22.375,-2.94,-2.44,9.09
1542211260038067102,4366,0,/imu_data_acquisition2,60935.0,-0.1943359375,0.0433349609375,0.791931152344,0.577209472656,17.625,47.5,24.9375,-3.32,-2.16,9.23
1542211260047759056,4367,0,/imu_data_acquisition2,60945.0,-0.196655273438,0.0462036132812,0.792236328125,0.575866699219,20.4375,52.375,28.0625,-3.42,-2.25,9.12
1542211260055686950,4368,0,/imu_data_acquisition2,60953.0,-0.199096679688,0.0505981445312,0.792602539062,0.574096679688,20.4375,52.375,28.0625,-3.42,-2.25,9.12
1542211260066462993,4369,0,/imu_data_acquisition2,60964.0,-0.20166015625,0.055419921875,0.793090820312,0.572082519531,22.875,57.1875,32.25,-3.63,-2.01,9.24
1542211260077790975,4370,0,/imu_data_acquisition2,60975.0,-0.204406738281,0.060791015625,0.793701171875,0.569763183594,30.5,69.375,39.625,-3.55,-2.22,9.06
1542211260086766958,4371,0,/imu_data_acquisition2,60984.0,-0.207397460938,0.0668334960938,0.794189453125,0.567260742188,33.5,75.125,42.375,-3.85,-1.88,9.0
1542211260099126100,4372,0,/imu_data_acquisition2,60995.0,-0.0074462890625,-6.103515625e-05,-6.103515625e-05,0.564514160156,36.25,79.9375,45.0,-3.96,-1.79,9.09
1542211260106594085,4373,0,/imu_data_acquisition2,61004.0,-0.213928222656,0.0804443359375,0.795166015625,0.561645507812,36.25,79.9375,45.0,-4.22,-1.57,9.03
1542211260116313934,4374,0,/imu_data_acquisition2,61014.0,-0.0143432617188,-6.103515625e-05,-6.103515625e-05,0.558532714844,39.625,85.3125,47.6875,-4.22,-1.57,9.03
1542211260127875089,4375,0,/imu_data_acquisition2,61024.0,-0.22119140625,0.0960083007812,0.795959472656,0.555236816406,41.5625,90.3125,50.5,-4.38,-0.97,8.98
1542211260137463092,4376,0,/imu_data_acquisition2,61035.0,-0.225158691406,0.104370117188,-6.103515625e-05,0.551696777344,43.0,95.6875,52.3125,-4.63,-1.0,8.98
1542211260147809982,4377,0,/imu_data_acquisition2,61045.0,-0.229553222656,0.112854003906,-6.103515625e-05,0.547912597656,40.5,100.625,54.3125,-4.91,-1.04,8.84
1542211260155277013,4378,0,/imu_data_acquisition2,61052.0,-0.234375,0.121398925781,0.796569824219,0.543823242188,38.25,106.3125,56.0,-4.91,-1.04,8.84
1542211260167654991,4379,0,/imu_data_acquisition2,61063.0,-0.239562988281,0.130310058594,0.796447753906,0.539733886719,39.4375,112.1875,55.1875,-4.47,-0.89,8.86
1542211260179049968,4380,0,/imu_data_acquisition2,61075.0,-0.244995117188,0.139526367188,0.796020507812,0.53564453125,40.625,122.5625,53.125,-5.02,-0.48,8.65
1542211260187591075,4381,0,/imu_data_acquisition2,61084.0,-0.250732421875,0.148864746094,-6.103515625e-05,0.531433105469,40.625,122.5625,53.125,-5.59,-0.03,8.65
1542211260199182987,4382,0,/imu_data_acquisition2,61095.0,-0.256774902344,0.158264160156,0.794555664062,0.526977539062,38.6875,125.6875,53.625,-5.69,-0.05,8.75
1542211260215919971,4384,0,/imu_data_acquisition2,61112.0,-0.269226074219,0.176574707031,0.792724609375,0.517639160156,33.375,127.0625,54.3125,-5.94,-0.21,8.68
1542211260228008985,4385,0,/imu_data_acquisition2,61125.0,-0.275390625,0.185363769531,-6.103515625e-05,0.512939453125,31.0,125.125,52.875,-6.08,0.38,9.2
1542211260239417076,4386,0,/imu_data_acquisition2,61135.0,-0.281616210938,0.193542480469,0.790588378906,0.508056640625,25.75,122.25,52.1875,-6.02,0.01,8.91
1542211260248317003,4387,0,/imu_data_acquisition2,61146.0,-0.28759765625,0.200988769531,0.789611816406,0.503356933594,16.8125,103.5,46.25,-6.97,0.06,9.18
1542211260256810903,4388,0,/imu_data_acquisition2,61153.0,-0.29296875,0.207641601562,0.788757324219,0.498901367188,16.8125,103.5,46.25,-6.97,0.06,9.18
1542211260265844106,4389,0,/imu_data_acquisition2,61163.0,-6.103515625e-05,-6.103515625e-05,-6.103515625e-05,0.496032714844,11.875,78.5625,26.9375,0.29,-9.53,17.8
1542211260278558015,4390,0,/imu_data_acquisition2,61176.0,-0.299621582031,0.215087890625,0.785339355469,0.497192382812,31.8125,-1.0625,-84.5,0.08,-14.64,15.32
1542211260290688037,4391,0,/imu_data_acquisition2,61187.0,-0.299743652344,0.215026855469,0.78125,0.503601074219,31.8125,-1.0625,-84.5,1.84,-7.48,11.01
1542211260307826995,4393,0,/imu_data_acquisition2,61205.0,-0.298278808594,0.211975097656,0.767700195312,0.526062011719,50.6875,-18.375,-164.5625,-2.13,-0.49,12.13
1542211260319006919,4394,0,/imu_data_acquisition2,61216.0,-0.297729492188,0.209045410156,0.759582519531,0.539184570312,43.375,-27.1875,-178.5625,-3.31,1.26,12.21
1542211260328979969,4395,0,/imu_data_acquisition2,61225.0,-0.297180175781,0.20458984375,0.751892089844,0.551818847656,27.125,-37.5,-177.125,-3.31,1.26,12.21
1542211260337881088,4396,0,/imu_data_acquisition2,61235.0,-0.296325683594,0.198791503906,0.744995117188,0.563598632812,12.0625,-50.0625,-168.125,-4.45,2.5,7.18
1542211260350131988,4397,0,/imu_data_acquisition2,61246.0,-0.295043945312,0.193298339844,0.738708496094,0.574340820312,12.875,-51.1875,-153.0,-5.49,2.97,7.32
1542211260358575105,4398,0,/imu_data_acquisition2,61255.0,-0.293579101562,0.189331054688,0.73291015625,0.583801269531,21.125,-41.3125,-132.6875,-6.93,3.77,10.52
1542211260366070985,4399,0,/imu_data_acquisition2,61263.0,-0.291748046875,0.186889648438,0.727783203125,0.591857910156,31.3125,-32.9375,-109.625,-6.93,3.77,10.52
1542211260376548051,4400,0,/imu_data_acquisition2,61274.0,-0.289245605469,0.185241699219,0.723693847656,0.598571777344,35.3125,-33.4375,-86.75,-9.34,3.11,12.65
1542211260390543937,4401,0,/imu_data_acquisition2,61287.0,-0.280395507812,0.180297851562,0.719299316406,0.609497070312,33.375,-0.0625,-0.0625,-5.84,0.06,9.77
1542211260400227069,4402,0,/imu_data_acquisition2,61297.0,-0.280395507812,0.180297851562,0.719299316406,0.609497070312,34.25,-73.9375,-39.9375,-5.36,-0.26,9.28
1542211260405185937,4403,0,/imu_data_acquisition2,61302.0,-0.274719238281,0.177612304688,0.718444824219,0.613830566406,34.25,-73.9375,-39.9375,-5.36,-0.26,9.28
1542211260419730901,4404,0,/imu_data_acquisition2,61316.0,-0.269104003906,0.174926757812,0.718139648438,0.617492675781,22.5625,-79.4375,-22.5625,-4.92,-2.51,11.2
1542211260430356025,4405,0,/imu_data_acquisition2,61325.0,-0.263427734375,0.171630859375,0.718444824219,0.620483398438,22.5625,-79.4375,-22.5625,-4.92,-2.51,11.2
1542211260448992967,4407,0,/imu_data_acquisition2,61346.0,-0.252075195312,0.161865234375,0.719970703125,0.626037597656,2.6875,-95.6875,-23.375,-2.45,-5.17,9.6
1542211260457834005,4408,0,/imu_data_acquisition2,61354.0,-0.246765136719,0.155700683594,0.720336914062,0.629272460938,-4.4375,-98.375,-32.8125,-2.45,-5.17,9.6
1542211260466389894,4409,0,/imu_data_acquisition2,61363.0,-0.241882324219,0.148803710938,0.72021484375,0.632995605469,-11.6875,-99.1875,-44.0625,-2.08,-5.24,8.12
1542211260482793092,4410,0,/imu_data_acquisition2,61377.0,-0.237548828125,0.141723632812,0.719360351562,0.637145996094,-10.0,-84.375,-13.6875,-1.47,-4.26,6.93
1542211260490211009,4411,0,/imu_data_acquisition2,61387.0,-0.233703613281,0.135314941406,0.717834472656,0.641662597656,-6.5,-77.9375,-65.25,-2.76,-2.25,10.64
1542211260501044034,4412,0,/imu_data_acquisition2,61398.0,-0.230041503906,0.12939453125,0.715881347656,0.646362304688,-8.375,-82.5,-64.4375,-2.75,-1.5,11.09
1542211260507762908,4413,0,/imu_data_acquisition2,61405.0,-0.226196289062,0.123107910156,0.714050292969,0.651000976562,-8.375,-82.5,-64.4375,-2.75,-1.5,11.09
