%time,field.header.seq,field.header.stamp,field.header.frame_id,field.time_stamp,field.quat_x,field.quat_y,field.quat_z,field.quat_w,field.gyro_x,field.gyro_y,field.gyro_z,field.accel_x,field.accel_y,field.accel_z
1542223279827821969,187,0,/imu_data_acquisition2,39653.0,-0.0497436523438,0.0861206054688,0.630249023438,0.77001953125,0.875,62.5625,-13.75,-1.4,-0.11,10.53
1542223279835628032,188,0,/imu_data_acquisition2,39661.0,-0.0531005859375,0.0901489257812,0.629089355469,0.770263671875,5.0,74.1875,-13.8125,-0.28,0.0,-0.01
1542223279847284078,189,0,/imu_data_acquisition2,39671.0,-0.0568237304688,0.09521484375,0.627807617188,0.770446777344,9.875,-0.0625,-0.0625,-0.88,0.33,9.98
1542223279855340003,190,0,/imu_data_acquisition2,39681.0,-0.061279296875,0.101806640625,0.626525878906,0.770263671875,15.375,120.9375,-6.3125,0.06,0.61,9.37
1542223279865236997,191,0,/imu_data_acquisition2,39691.0,-0.0667114257812,0.110473632812,0.625305175781,0.769653320312,17.1875,150.0,-8.6875,1.17,-0.01,8.63
1542223279875344991,192,0,/imu_data_acquisition2,39701.0,-0.0736083984375,0.12109375,0.623718261719,0.768737792969,15.9375,187.875,-17.9375,-1.01,-0.57,8.34
1542223279884021043,193,0,/imu_data_acquisition2,39710.0,-0.0826416015625,0.133972167969,0.62109375,0.767761230469,15.9375,187.875,-17.9375,-1.01,-0.57,8.34
1542223279893974065,194,0,/imu_data_acquisition2,39720.0,-0.0939331054688,0.1494140625,0.617858886719,0.766174316406,14.375,229.1875,-20.75,-0.95,0.14,9.48
1542223279905289888,195,0,/imu_data_acquisition2,39731.0,-0.106750488281,0.167602539062,0.614624023438,0.763366699219,18.6875,307.1875,11.4375,-4.4,2.7,11.58
1542223279915286064,196,0,/imu_data_acquisition2,39741.0,-0.121276855469,0.188415527344,0.612121582031,0.758361816406,7.25,329.75,20.375,-4.35,4.05,11.54
1542223279926218986,197,0,/imu_data_acquisition2,39751.0,-0.137512207031,0.210021972656,0.609680175781,0.751831054688,-12.5625,315.5,-0.0625,-1.86,2.98,13.61
1542223279934551000,198,0,/imu_data_acquisition2,39760.0,-0.154602050781,0.229309082031,0.605712890625,0.74609375,-12.5625,315.5,-4.75,-1.86,2.98,13.61
1542223279944041013,199,0,/imu_data_acquisition2,39770.0,-0.173278808594,0.2470703125,0.600524902344,0.740478515625,-33.1875,315.9375,-24.375,-5.68,1.72,13.42
1542223279957346916,200,0,/imu_data_acquisition2,39781.0,-0.194213867188,0.26513671875,0.593017578125,0.735107421875,-59.4375,379.0,-89.0,-7.8,2.76,15.86
1542223279965630054,201,0,/imu_data_acquisition2,39791.0,-0.21875,0.284057617188,0.582275390625,0.729675292969,-81.75,423.25,-126.8125,-9.14,4.42,16.31
1542223279977607011,202,0,/imu_data_acquisition2,39803.0,-0.247497558594,0.303588867188,0.568176269531,0.723693847656,-105.75,429.75,-156.375,-12.09,3.14,17.43
1542223279986115932,203,0,/imu_data_acquisition2,39810.0,-0.278381347656,0.321228027344,0.551879882812,0.717407226562,-105.75,429.75,-156.375,-12.09,3.14,17.43
1542223279994680881,204,0,/imu_data_acquisition2,39820.0,-0.307739257812,0.335266113281,0.534973144531,0.711853027344,-112.25,388.0,-173.0625,-11.45,1.07,22.79
1542223280006974935,205,0,/imu_data_acquisition2,39832.0,-0.332397460938,0.340942382812,0.51953125,0.70947265625,-131.6875,143.625,-169.125,0.87,-1.59,35.71
1542223280016936063,206,0,/imu_data_acquisition2,39841.0,-6.103515625e-05,-6.103515625e-05,-6.103515625e-05,0.708862304688,-131.6875,143.625,-169.125,4.06,4.72,20.47
1542223280026886940,207,0,/imu_data_acquisition2,39852.0,-0.357849121094,0.338195800781,0.50146484375,0.71142578125,59.8125,-28.1875,-95.0,5.04,6.62,10.26
1542223280033888101,208,0,/imu_data_acquisition2,39860.0,-0.355773925781,0.336120605469,0.494873046875,0.718017578125,59.8125,-28.1875,-95.0,5.04,6.62,10.26
1542223280047019004,209,0,/imu_data_acquisition2,39871.0,-0.352478027344,0.331909179688,0.489379882812,0.725341796875,55.625,-61.0,-93.9375,3.99,7.27,4.75
1542223280057717084,210,0,/imu_data_acquisition2,39882.0,-0.35107421875,0.326171875,0.485107421875,0.7314453125,-14.625,-63.125,-80.4375,3.07,5.53,6.61
1542223280065962076,211,0,/imu_data_acquisition2,39892.0,-0.351623535156,0.319274902344,0.482421875,0.736022949219,-27.5625,-71.0625,-63.0,2.38,3.88,8.51
1542223280077634096,212,0,/imu_data_acquisition2,39903.0,-0.352111816406,0.311828613281,0.481323242188,0.739685058594,-12.625,-88.4375,-41.75,1.51,3.01,11.08
1542223280084707021,213,0,/imu_data_acquisition2,39910.0,-0.350402832031,0.304504394531,0.481689453125,0.743286132812,-12.625,-88.4375,-41.75,1.51,3.01,11.08
1542223280095331907,214,0,/imu_data_acquisition2,39921.0,-0.345336914062,0.297180175781,0.483337402344,0.74755859375,14.1875,-115.875,-22.125,1.51,3.32,11.46
1542223280107743978,215,0,/imu_data_acquisition2,39932.0,-0.337219238281,0.289184570312,0.486328125,0.752380371094,35.5,-146.25,-4.9375,1.47,1.65,10.23
1542223280116427898,216,0,/imu_data_acquisition2,39942.0,-0.326965332031,0.280334472656,0.49072265625,0.757446289062,49.3125,-0.0625,-0.0625,1.02,0.43,10.1
1542223280127314090,217,0,/imu_data_acquisition2,39952.0,-0.315246582031,0.270568847656,0.496215820312,0.762390136719,54.0625,-210.0,28.1875,0.28,-0.45,10.42
1542223280139461040,218,0,/imu_data_acquisition2,39960.0,-0.30224609375,0.260009765625,0.502258300781,0.767272949219,54.0625,-210.0,28.1875,0.28,-0.45,10.42
1542223280147367954,219,0,/imu_data_acquisition2,39971.0,-0.287963867188,0.248657226562,0.508605957031,0.772399902344,60.75,-226.4375,30.625,-0.94,-1.41,11.59
1542223280156465053,220,0,/imu_data_acquisition2,39982.0,-0.272399902344,0.236328125,0.514953613281,0.777709960938,71.3125,-262.9375,25.5,-2.3,-2.89,12.76
1542223280168698072,221,0,/imu_data_acquisition2,39993.0,-0.255676269531,0.22265625,0.521118164062,0.783264160156,71.3125,-262.9375,25.5,-3.45,-3.62,12.76
1542223280178221940,222,0,/imu_data_acquisition2,40003.0,-0.238098144531,0.207641601562,0.526733398438,0.789123535156,79.875,-294.25,5.375,-3.79,-3.01,12.07
1542223280185435056,223,0,/imu_data_acquisition2,40011.0,-0.219482421875,0.191650390625,0.531433105469,0.79541015625,79.875,-294.25,5.375,-3.79,-3.01,12.07
1542223280197501897,224,0,/imu_data_acquisition2,40022.0,-0.199951171875,0.175109863281,0.535034179688,0.801940917969,88.9375,-303.4375,-6.3125,-4.01,-2.26,11.11
1542223280207377910,225,0,/imu_data_acquisition2,40032.0,-0.1796875,0.158386230469,0.537475585938,0.808532714844,97.0,-306.0,-15.875,-4.26,-0.32,8.16
1542223280216519117,226,0,/imu_data_acquisition2,40042.0,-0.158996582031,0.142578125,0.538940429688,0.814819335938,107.75,-298.1875,-21.125,-6.59,0.75,12.76
1542223280228255033,227,0,/imu_data_acquisition2,40053.0,-0.138061523438,0.128967285156,-6.103515625e-05,0.820434570312,124.75,-276.0,-19.6875,-8.72,1.81,19.32
1542223280239990949,228,0,/imu_data_acquisition2,40060.0,-0.116760253906,0.117614746094,0.539978027344,0.8251953125,141.8125,-254.3125,-12.1875,-8.72,1.81,19.32
1542223280244425058,229,0,/imu_data_acquisition2,40070.0,-0.094482421875,0.106506347656,0.540954589844,0.828918457031,150.4375,-256.9375,1.4375,-9.17,1.81,21.96
1542223280258949995,230,0,/imu_data_acquisition2,40082.0,-0.0706176757812,0.0951538085938,0.543029785156,0.831298828125,161.5,-270.25,22.3125,-10.92,2.59,21.78
1542223280267755985,231,0,/imu_data_acquisition2,40093.0,-0.04541015625,0.0839233398438,0.546325683594,0.832092285156,172.875,-276.1875,46.375,-13.49,1.87,23.83
1542223280277084112,232,0,/imu_data_acquisition2,40102.0,-0.00408935546875,-6.103515625e-05,-6.103515625e-05,0.831176757812,176.6875,-276.8125,70.3125,-14.5,0.35,-0.01
1542223280288870096,233,0,/imu_data_acquisition2,40111.0,0.00640869140625,0.061279296875,0.556823730469,0.828308105469,176.0625,-283.0625,97.125,-14.5,0.35,22.09
1542223280297700881,234,0,/imu_data_acquisition2,40120.0,0.0333251953125,0.0492553710938,0.564331054688,0.823364257812,179.0,-0.0625,-0.0625,-15.62,-0.45,16.83
1542223280306742906,235,0,/imu_data_acquisition2,40132.0,0.0586547851562,0.0364990234375,0.572998046875,0.816650390625,159.375,-285.875,149.5625,-19.13,-11.55,13.16
1542223280317466974,236,0,/imu_data_acquisition2,40143.0,0.08154296875,0.0228881835938,0.582092285156,0.808715820312,130.9375,-277.5,160.75,-18.82,-8.8,9.79
1542223280329802989,237,0,/imu_data_acquisition2,40153.0,0.104064941406,0.010009765625,0.590515136719,0.800231933594,132.625,-268.0625,157.3125,-17.77,-6.11,5.97
1542223280339173078,238,0,/imu_data_acquisition2,40162.0,0.125183105469,-0.0015869140625,0.597473144531,0.792053222656,128.0,-248.25,140.5625,-17.77,-0.99,-0.01
1542223280349586963,239,0,/imu_data_acquisition2,40175.0,0.137451171875,-0.011962890625,0.602172851562,0.786315917969,50.4375,-176.625,99.5625,-17.07,-5.36,0.45
1542223280357768058,240,0,/imu_data_acquisition2,40182.0,0.149658203125,-0.0222778320312,0.606689453125,0.780395507812,50.4375,-176.625,99.5625,-17.07,-5.36,0.45
1542223280368247985,241,0,/imu_data_acquisition2,40193.0,0.157775878906,-0.0310668945312,0.6103515625,0.775634765625,21.1875,-134.375,80.9375,-18.76,-4.54,-1.25
1542223280377734899,242,0,/imu_data_acquisition2,40203.0,0.164001464844,-0.0369873046875,0.613098144531,0.771911621094,22.5,-96.0,61.25,-18.82,-1.55,-2.22
1542223280386054039,243,0,/imu_data_acquisition2,40210.0,0.169799804688,-0.0391845703125,0.615234375,0.768859863281,43.5,-59.3125,43.5625,-18.82,-1.55,-2.22
1542223280393882036,244,0,/imu_data_acquisition2,40220.0,0.169982910156,-6.103515625e-05,-6.103515625e-05,0.766357421875,25.4375,24.75,41.875,-18.17,1.96,-0.01
1542223280411936044,245,0,/imu_data_acquisition2,40237.0,0.160400390625,-0.0350952148438,0.624145507812,0.763854980469,-66.625,97.375,71.3125,-18.79,8.95,-8.71
1542223280419063091,246,0,/imu_data_acquisition2,40244.0,0.14208984375,-0.0357666015625,0.630554199219,0.76220703125,-128.8125,129.125,64.4375,5.31,-6.56,23.97
1542223280428349018,247,0,/imu_data_acquisition2,40253.0,0.126708984375,-0.0350341796875,0.6357421875,0.760620117188,-128.8125,129.125,64.4375,8.59,-2.93,22.85
1542223280436101913,248,0,/imu_data_acquisition2,40261.0,0.114013671875,-0.0323486328125,0.641296386719,0.758056640625,-88.125,127.0625,70.4375,8.59,-2.93,22.85
1542223280443842887,249,0,/imu_data_acquisition2,40270.0,0.100402832031,-0.0283203125,0.645141601562,0.756896972656,-88.6875,144.375,43.0625,1.91,-10.8,-0.41
1542223280453834056,250,0,/imu_data_acquisition2,40280.0,0.0853881835938,-0.0225219726562,0.647033691406,0.757385253906,-90.0,169.375,11.1875,-1.15,-10.27,8.69
1542223280466873884,251,0,/imu_data_acquisition2,40293.0,0.0725708007812,-0.0154418945312,0.647827148438,0.758178710938,-61.4375,162.4375,-2.1875,-0.83,-5.46,11.77
1542223280478220939,252,0,/imu_data_acquisition2,40303.0,0.0628051757812,-0.0079345703125,0.648132324219,0.758911132812,-30.3125,142.5625,-7.75,-0.78,-2.99,11.4
1542223280486210107,253,0,/imu_data_acquisition2,40311.0,0.0538330078125,0.00018310546875,0.647827148438,0.759887695312,-19.0,141.875,-15.5,-0.78,-2.99,11.4
1542223280494376897,254,0,/imu_data_acquisition2,40320.0,0.0454711914062,0.00909423828125,0.647644042969,0.760559082031,-7.0,144.0,-12.6875,-1.43,-0.55,12.67
1542223280507164001,255,0,/imu_data_acquisition2,40333.0,0.0376586914062,0.0181884765625,0.647888183594,0.760620117188,-1.3125,141.9375,-4.0625,-1.2,-0.01,-0.01
1542223280518134117,256,0,/imu_data_acquisition2,40343.0,0.0296630859375,0.0269775390625,0.648254394531,0.760375976562,-4.125,140.625,0.375,-2.81,3.35,14.58
1542223280528588056,257,0,/imu_data_acquisition2,40353.0,0.0211181640625,0.0348510742188,0.64892578125,0.759765625,-16.3125,137.25,4.9375,-4.07,4.45,16.9
1542223280536216974,258,0,/imu_data_acquisition2,40361.0,0.0119018554688,0.0410766601562,0.650146484375,0.758605957031,-35.375,127.375,14.1875,-4.07,4.45,16.9
1542223280545564889,259,0,/imu_data_acquisition2,40371.0,0.00238037109375,0.0455932617188,0.651733398438,0.757019042969,-51.0625,114.875,21.5625,-3.68,1.3,13.68
1542223280555843114,260,0,/imu_data_acquisition2,40381.0,-0.00701904296875,0.0491333007812,0.653259277344,0.755493164062,-58.0,105.125,20.25,-3.0,-0.75,12.28
1542223280568208932,261,0,/imu_data_acquisition2,40393.0,-0.0161743164062,0.0521850585938,0.654418945312,0.754150390625,-59.0625,98.8125,16.0,-3.03,-0.17,12.57
1542223280577800989,262,0,/imu_data_acquisition2,40403.0,-0.0245361328125,0.054931640625,0.655334472656,0.7529296875,-54.25,90.0,12.5625,-3.06,-1.23,-0.01
1542223280585719108,263,0,/imu_data_acquisition2,40410.0,-0.0316162109375,0.0572509765625,0.655944824219,0.751953125,-45.4375,75.8125,9.0625,-3.06,-1.23,12.28
1542223280594249963,264,0,/imu_data_acquisition2,40420.0,-0.00592041015625,-6.103515625e-05,-6.103515625e-05,0.751159667969,-34.875,61.4375,6.6875,-3.05,-1.0,11.22
1542223280606789112,265,0,/imu_data_acquisition2,40432.0,-0.0413208007812,0.0609130859375,0.656616210938,0.750610351562,-24.3125,47.4375,4.75,-2.6,-0.94,10.96
1542223280619048118,266,0,/imu_data_acquisition2,40443.0,-0.0443725585938,0.0621948242188,0.656799316406,0.750183105469,-17.0,35.0625,2.75,-1.91,-1.05,10.76
1542223280628638982,267,0,/imu_data_acquisition2,40454.0,-0.0463256835938,0.0632934570312,0.656799316406,0.749938964844,-9.25,25.0625,1.3125,-1.91,-1.05,10.76
1542223280638269901,268,0,/imu_data_acquisition2,40461.0,-0.0474853515625,0.0642700195312,0.656799316406,0.749816894531,-2.9375,17.8125,0.625,-1.93,-0.82,10.84
1542223280644829034,269,0,/imu_data_acquisition2,40470.0,-0.0480346679688,0.0650634765625,0.65673828125,0.749755859375,1.25,11.0,0.1875,-2.16,-0.74,10.48
1542223280659166097,270,0,/imu_data_acquisition2,40481.0,-0.0480346679688,0.065673828125,0.656799316406,0.749694824219,4.4375,5.625,1.0625,-1.62,-0.53,10.48
1542223280668034076,271,0,/imu_data_acquisition2,40493.0,-0.0478515625,0.0662231445312,0.656799316406,0.749633789062,6.125,3.5,1.375,-1.54,-0.03,10.25
1542223280679106950,272,0,/imu_data_acquisition2,40503.0,-0.0475463867188,0.066650390625,0.656860351562,0.749572753906,5.9375,1.5625,1.3125,-1.92,-0.11,10.3
1542223280686250925,273,0,/imu_data_acquisition2,40511.0,-0.0471801757812,0.0670166015625,0.656921386719,0.74951171875,5.9375,-0.0625,-0.0625,-1.73,0.1,10.55
1542223280697151899,274,0,/imu_data_acquisition2,40520.0,-0.0466918945312,0.0672607421875,0.657043457031,0.749389648438,5.9375,-1.6875,1.8125,-1.24,0.51,9.68
1542223280705845117,275,0,/imu_data_acquisition2,40531.0,-0.0463256835938,0.0673828125,0.657104492188,0.749389648438,4.4375,-1.4375,1.25,-1.63,0.49,9.95
1542223280718211889,276,0,/imu_data_acquisition2,40544.0,-0.0460815429688,0.0674438476562,0.657165527344,0.749328613281,2.625,-1.5,1.1875,-1.73,0.58,9.93
1542223280727628946,277,0,/imu_data_acquisition2,40553.0,-0.0459594726562,0.0673828125,0.657165527344,0.749267578125,0.25,-1.1875,0.6875,-1.57,0.53,10.13
1542223280735191106,278,0,/imu_data_acquisition2,40560.0,-0.046142578125,0.0672607421875,0.6572265625,0.749267578125,-2.1875,-0.5,0.0625,-1.78,0.38,9.7
1542223280746721982,279,0,/imu_data_acquisition2,40570.0,-0.0151977539062,-6.103515625e-05,-6.103515625e-05,0.749267578125,-4.4375,0.8125,-0.5625,-1.44,0.16,9.99
1542223280756500959,280,0,/imu_data_acquisition2,40581.0,-0.046875,0.06689453125,0.657165527344,0.749267578125,-5.125,1.75,-1.0625,-1.45,0.03,9.79
1542223280767985105,281,0,/imu_data_acquisition2,40594.0,-0.04736328125,0.0667114257812,0.657104492188,0.749328613281,-5.375,2.5625,-1.5625,-1.62,-0.05,9.87
1542223280777462959,282,0,/imu_data_acquisition2,40602.0,-0.0478515625,0.066650390625,0.657043457031,0.749389648438,-4.9375,3.0625,-1.5625,-1.88,-0.46,9.96
1542223280786308050,283,0,/imu_data_acquisition2,40611.0,-0.04833984375,0.0665283203125,0.656921386719,0.749450683594,-4.625,2.5,-1.5,-1.81,-0.26,9.96
1542223280796569108,284,0,/imu_data_acquisition2,40621.0,-0.0487670898438,0.06640625,0.656860351562,0.74951171875,-4.5625,2.25,-1.6875,-1.85,-0.23,10.02
1542223280804902076,285,0,/imu_data_acquisition2,40630.0,-0.049072265625,0.0662841796875,0.65673828125,0.749572753906,-3.875,1.75,-1.8125,-2.05,-0.36,9.87
1542223280818675041,286,0,/imu_data_acquisition2,40644.0,-0.04931640625,0.0661010742188,0.656616210938,0.749694824219,-3.375,0.5625,-2.1875,-1.87,-0.39,9.88
1542223280827430963,287,0,/imu_data_acquisition2,40653.0,-6.103515625e-05,-6.103515625e-05,-6.103515625e-05,0.749816894531,-2.0,-0.625,-2.4375,-1.76,-0.18,9.67
1542223280837054967,288,0,/imu_data_acquisition2,40661.0,-0.0498046875,0.0657348632812,0.656311035156,0.75,-1.875,-0.75,-2.6875,-1.8,-0.25,9.83
1542223280846383094,289,0,/imu_data_acquisition2,40670.0,-0.0499877929688,0.0654296875,0.656127929688,0.750122070312,-1.25,-1.9375,-2.5625,-1.6,-0.09,9.76
1542223280854511022,290,0,/imu_data_acquisition2,40680.0,-0.0501098632812,0.0652465820312,0.655944824219,0.750305175781,-0.9375,-1.6875,-2.6875,-1.9,0.0,9.63
1542223280867285013,291,0,/imu_data_acquisition2,40692.0,-0.0501708984375,0.0650024414062,0.655822753906,0.750427246094,-1.0625,-2.6875,-2.5625,-1.82,-0.12,9.96
1542223280876337051,292,0,/imu_data_acquisition2,40700.0,-0.05029296875,0.0646362304688,0.655639648438,0.750610351562,-0.875,-3.375,-2.5,-1.7,-0.43,9.78
1542223280884594917,293,0,/imu_data_acquisition2,40710.0,-0.050537109375,0.064453125,0.655456542969,0.750732421875,-0.0625,-2.875,-2.4375,-2.04,-0.34,9.61
1542223280896704912,294,0,/imu_data_acquisition2,40721.0,-0.0504150390625,0.0642700195312,0.655334472656,0.750915527344,0.4375,-2.625,-2.125,-1.71,-0.48,9.91
1542223280906143903,295,0,/imu_data_acquisition2,40730.0,-0.0502319335938,0.064208984375,0.655212402344,0.751037597656,1.1875,-1.9375,-1.9375,-1.61,-0.18,9.59
1542223280916110038,296,0,/imu_data_acquisition2,40741.0,-0.0501098632812,0.064208984375,0.655090332031,0.751159667969,1.75,-0.75,-2.3125,-1.83,-0.16,9.56
1542223280927182912,297,0,/imu_data_acquisition2,40753.0,-0.0502319335938,0.0642700195312,0.654846191406,0.751342773438,2.125,0.0625,-2.8125,-1.82,-0.22,9.76
1542223280936409950,298,0,/imu_data_acquisition2,40760.0,-0.0501098632812,0.0643920898438,0.654663085938,0.751525878906,2.125,0.1875,-3.0625,-1.9,-0.16,9.33
1542223280944588899,299,0,/imu_data_acquisition2,40770.0,-0.0501098632812,0.0645141601562,0.654418945312,0.751708984375,1.25,0.8125,-3.75,-1.84,-0.23,9.39
1542223280956676959,300,0,/imu_data_acquisition2,40781.0,-0.0501098632812,0.0645751953125,0.654113769531,0.751953125,0.6875,0.6875,-4.0,-1.57,-0.35,9.53
1542223280966486930,301,0,/imu_data_acquisition2,40790.0,-0.0501708984375,0.064697265625,0.653869628906,0.752197265625,0.8125,1.4375,-4.25,-1.53,-0.41,9.26
1542223280976646900,302,0,/imu_data_acquisition2,40802.0,-0.0503540039062,0.06494140625,0.653503417969,0.75244140625,0.875,3.5,-4.9375,-1.0,-0.45,9.85
1542223280986810922,303,0,/imu_data_acquisition2,40811.0,-0.0505981445312,0.0654907226562,0.653137207031,0.752685546875,2.375,7.125,-5.375,-1.1,-0.32,9.76
1542223280993988037,304,0,/imu_data_acquisition2,40820.0,-0.00421142578125,-6.103515625e-05,-6.103515625e-05,0.7529296875,2.125,10.1875,-5.0625,-1.23,-0.22,9.52
1542223281008153915,305,0,/imu_data_acquisition2,40834.0,-0.0517578125,0.0671997070312,0.65234375,0.753173828125,1.75,14.0625,-5.0,-1.46,-0.6,9.9
1542223281021226882,306,0,/imu_data_acquisition2,40846.0,-0.0525512695312,0.0684204101562,0.651977539062,0.753295898438,2.8125,19.75,-3.375,-1.52,-0.61,9.94
1542223281028785943,307,0,/imu_data_acquisition2,40852.0,-0.0535278320312,0.06982421875,0.651672363281,0.753356933594,2.8125,19.75,-3.375,-1.52,-0.61,9.94
1542223281037765979,308,0,/imu_data_acquisition2,40863.0,-0.0545043945312,0.071533203125,-6.103515625e-05,0.75341796875,4.5625,22.8125,-2.75,-2.33,-0.39,9.67
1542223281047210931,309,0,/imu_data_acquisition2,40872.0,-0.0556030273438,0.0735473632812,0.651000976562,0.75341796875,5.9375,27.125,-2.875,-1.79,-1.59,9.53
1542223281056220054,310,0,/imu_data_acquisition2,40881.0,-0.0570068359375,0.0758666992188,0.650573730469,0.753479003906,5.625,31.5,-4.25,-0.72,-0.25,9.14
1542223281069897890,311,0,/imu_data_acquisition2,40896.0,-0.0586547851562,0.07861328125,0.650085449219,0.753479003906,6.875,37.3125,-3.5625,-0.92,0.74,9.5
1542223281080164909,312,0,/imu_data_acquisition2,40903.0,-0.0606079101562,0.0816040039062,0.649475097656,0.753540039062,6.25,42.6875,-5.8125,-0.92,0.74,9.5
1542223281086127996,313,0,/imu_data_acquisition2,40911.0,-0.0633544921875,0.0852661132812,0.648498535156,0.753784179688,4.6875,53.625,-9.9375,-0.79,1.45,9.94
1542223281098227977,314,0,/imu_data_acquisition2,40923.0,-0.0667724609375,0.0897216796875,0.647338867188,0.753967285156,4.5625,66.875,-11.875,0.14,0.94,9.68
1542223281106241941,315,0,/imu_data_acquisition2,40931.0,-0.0713500976562,0.095458984375,0.645874023438,0.754089355469,5.1875,87.375,-14.25,-0.37,-0.43,9.18
1542223281119924068,316,0,/imu_data_acquisition2,40945.0,-0.0769653320312,0.10302734375,0.644104003906,0.754028320312,9.75,111.75,-15.625,-0.45,-0.52,9.88
1542223281127038002,317,0,/imu_data_acquisition2,40952.0,-0.0838012695312,0.112609863281,0.641845703125,0.75390625,14.5625,-0.0625,-0.0625,-0.34,0.26,9.89
1542223281134011983,318,0,/imu_data_acquisition2,40960.0,-0.0923461914062,0.124572753906,0.638793945312,0.753601074219,18.4375,174.625,-23.9375,0.22,-0.22,9.0
1542223281145591974,319,0,/imu_data_acquisition2,40971.0,-0.10302734375,0.139343261719,0.635314941406,0.752563476562,20.4375,218.0,-23.4375,-0.95,-0.61,9.07
1542223281157867908,320,0,/imu_data_acquisition2,40981.0,-0.115661621094,0.156921386719,0.631530761719,0.750427246094,23.3125,259.875,-16.8125,-0.79,-0.21,9.52
1542223281164761066,321,0,/imu_data_acquisition2,40990.0,-0.129821777344,0.177307128906,0.628356933594,0.746215820312,26.75,299.375,4.9375,-3.26,1.27,10.04
1542223281177000045,322,0,/imu_data_acquisition2,41003.0,-0.145690917969,0.199401855469,0.625671386719,0.739990234375,20.0,330.5625,23.3125,-5.16,1.74,11.92
1542223281187654972,323,0,/imu_data_acquisition2,41011.0,-0.162109375,0.219421386719,0.622131347656,0.733825683594,1.8125,317.625,9.75,-2.79,4.49,12.01
1542223281197606086,324,0,/imu_data_acquisition2,41021.0,-0.18017578125,0.237365722656,0.617309570312,0.728088378906,-22.8125,313.1875,-11.25,-2.14,2.68,15.26
1542223281205915927,325,0,/imu_data_acquisition2,41031.0,-0.200622558594,0.255126953125,0.610595703125,0.722412109375,-40.0625,332.6875,-36.0625,-4.96,1.49,15.2
1542223281217369079,326,0,/imu_data_acquisition2,41041.0,-0.224548339844,0.272399902344,0.601440429688,0.716674804688,-65.375,360.1875,-68.375,-6.63,2.2,16.38
1542223281227236986,327,0,/imu_data_acquisition2,41051.0,-0.25244140625,0.2890625,0.589599609375,0.710693359375,-96.25,390.875,-7.25,-8.69,3.45,15.04
1542223281238168954,328,0,/imu_data_acquisition2,41064.0,-0.28173828125,0.303161621094,-6.103515625e-05,0.704528808594,-121.375,383.875,-126.25,-11.9,2.62,15.53
1542223281250967979,329,0,/imu_data_acquisition2,41073.0,-0.308898925781,0.313049316406,0.563415527344,0.699401855469,-129.0625,329.875,-137.875,-8.83,0.77,19.97
1542223281255408048,330,0,/imu_data_acquisition2,41081.0,-0.00408935546875,-6.103515625e-05,-6.103515625e-05,0.697143554688,-155.875,210.125,-160.0625,0.22,-1.86,33.78
1542223281270597934,331,0,/imu_data_acquisition2,41096.0,-0.350219726562,0.311584472656,0.543273925781,0.696533203125,-131.5,137.5625,-146.75,-1.27,-6.13,36.36
1542223281286062955,333,0,/imu_data_acquisition2,41112.0,-0.357116699219,0.308044433594,0.525634765625,0.7080078125,48.1875,-10.875,-133.125,3.45,3.18,15.07
1542223281299009084,334,0,/imu_data_acquisition2,41125.0,-0.35546875,0.303405761719,0.517272949219,0.716979980469,53.4375,-46.375,-139.8125,4.31,4.78,8.49
1542223281306428909,335,0,/imu_data_acquisition2,41131.0,-0.3544921875,0.297119140625,0.509521484375,0.7255859375,33.875,-57.125,-141.1875,3.82,6.33,4.51
1542223281321208000,336,0,/imu_data_acquisition2,41145.0,-0.354553222656,0.289794921875,0.502746582031,0.733215332031,11.125,-61.3125,-135.125,3.17,6.1,5.36
1542223281330509901,337,0,/imu_data_acquisition2,41156.0,-0.3544921875,0.281982421875,0.497192382812,0.739990234375,1.375,-4.375,-0.0625,2.37,5.37,7.02
1542223281341058015,338,0,/imu_data_acquisition2,41161.0,-0.352783203125,0.274291992188,0.492980957031,0.746520996094,11.375,-81.6875,-101.75,1.15,3.94,9.88
1542223281345175981,339,0,/imu_data_acquisition2,41171.0,-0.34814453125,0.266784667969,0.490112304688,0.753234863281,34.875,-102.6875,-80.8125,0.79,3.75,10.65
1542223281355978965,340,0,/imu_data_acquisition2,41181.0,-0.340270996094,0.259460449219,0.488586425781,0.760375976562,61.25,-127.25,-60.8125,0.83,3.65,10.69
1542223281365411996,341,0,/imu_data_acquisition2,41191.0,-0.329711914062,0.251953125,0.488342285156,0.767700195312,82.5,-150.0,-42.0,0.98,2.94,9.61
1542223281375358104,342,0,/imu_data_acquisition2,41200.0,-0.317138671875,0.244323730469,0.489135742188,0.77490234375,95.5,-167.0,-26.25,0.89,2.21,9.41
1542223281386226892,343,0,/imu_data_acquisition2,41211.0,-0.30322265625,0.236450195312,0.490844726562,0.781799316406,103.0,-179.0625,-14.375,0.64,1.37,9.54
1542223281394464969,344,0,/imu_data_acquisition2,41220.0,-0.288269042969,0.228149414062,0.493103027344,0.788513183594,107.875,-190.4375,-5.5,-0.24,-0.56,11.44
1542223281405859947,345,0,/imu_data_acquisition2,41231.0,-0.272155761719,0.21923828125,0.495849609375,0.794982910156,113.25,-204.3125,1.0,-0.57,-1.66,12.16
1542223281416939973,346,0,/imu_data_acquisition2,41242.0,-0.254638671875,0.209716796875,0.498901367188,0.801391601562,121.4375,-218.8125,5.6875,-1.09,-0.01,-0.01
1542223281427021980,347,0,/imu_data_acquisition2,41250.0,-0.23583984375,0.199462890625,0.501953125,0.807861328125,130.0,-233.8125,6.4375,-1.49,-3.97,12.82
1542223281436781883,348,0,/imu_data_acquisition2,41262.0,-0.215881347656,0.188598632812,0.504638671875,0.814392089844,137.9375,-245.625,3.625,-2.13,-3.92,12.59
1542223281446834087,349,0,/imu_data_acquisition2,41271.0,-0.195495605469,0.177062988281,0.5068359375,0.820678710938,138.8125,-252.3125,-0.3125,-2.42,-3.45,12.5
1542223281454694032,350,0,/imu_data_acquisition2,41280.0,-0.175231933594,0.164978027344,0.508728027344,0.826599121094,134.375,-255.9375,-2.6875,-2.7,-3.09,12.61
1542223281466891050,351,0,/imu_data_acquisition2,41291.0,-0.155029296875,0.152648925781,0.510437011719,0.831970214844,131.0,-256.8125,-2.0625,-3.35,-2.25,12.7
1542223281477440118,352,0,/imu_data_acquisition2,41301.0,-0.134704589844,0.140502929688,0.512084960938,0.836608886719,132.5,-253.9375,3.125,-3.91,-1.65,12.94
1542223281486279964,353,0,/imu_data_acquisition2,41311.0,-0.113952636719,0.129028320312,0.514099121094,0.840270996094,138.3125,-248.25,14.0625,-2.3,-0.01,-0.01
1542223281498591899,354,0,/imu_data_acquisition2,41323.0,-0.0928344726562,0.117919921875,0.516967773438,0.8427734375,141.375,-246.75,30.125,-7.15,1.66,18.44
1542223281507745027,355,0,/imu_data_acquisition2,41331.0,-0.071533203125,0.106262207031,0.521179199219,0.84375,136.5625,-253.125,53.0,-8.17,2.25,19.42
1542223281516302108,356,0,/imu_data_acquisition2,41342.0,-0.0502319335938,0.09375,0.527282714844,0.843017578125,127.375,-260.8125,81.625,-8.92,1.85,19.37
1542223281530390024,357,0,/imu_data_acquisition2,41356.0,-0.0289916992188,0.08056640625,0.535217285156,0.840393066406,119.375,-266.3125,111.5,-9.92,0.57,19.36
1542223281537131071,358,0,/imu_data_acquisition2,41361.0,-0.007568359375,0.0670776367188,0.544677734375,0.8359375,117.0625,-268.8125,137.875,-12.82,-2.5,19.12
1542223281547632932,359,0,/imu_data_acquisition2,41372.0,0.0139770507812,0.053466796875,0.554992675781,0.830017089844,116.8125,-270.25,156.5625,-14.72,-4.09,18.92
1542223281558619976,360,0,/imu_data_acquisition2,41382.0,0.0347900390625,0.03955078125,0.565612792969,0.822998046875,107.5625,-266.8125,166.0625,-17.49,-3.26,14.64
1542223281566391944,361,0,/imu_data_acquisition2,41391.0,0.0515747070312,0.0250244140625,0.575805664062,0.815612792969,64.875,-246.5625,162.25,-21.07,-11.67,10.32
1542223281576303958,362,0,/imu_data_acquisition2,41401.0,0.0656127929688,0.0108032226562,0.58447265625,0.808654785156,40.125,-225.5625,144.25,-21.63,-12.52,8.41
1542223281587287902,363,0,/imu_data_acquisition2,41411.0,0.0784301757812,-0.0013427734375,0.591247558594,0.802673339844,42.5,-199.0,117.5,-21.92,-9.58,5.83
1542223281594810962,364,0,/imu_data_acquisition2,41420.0,0.0891723632812,-0.011474609375,0.596313476562,0.797668457031,35.4375,-166.6875,92.125,-21.42,-3.03,-3.59
1542223281607388973,365,0,/imu_data_acquisition2,41431.0,0.09521484375,-0.0195922851562,0.600646972656,0.793579101562,4.8125,-115.6875,77.5,-23.51,-3.57,-3.56
1542223281617364883,366,0,/imu_data_acquisition2,41441.0,0.0964965820312,-0.0260009765625,0.604553222656,0.790283203125,-28.625,-65.375,67.0625,-23.87,-4.08,-4.03
1542223281624310016,367,0,/imu_data_acquisition2,41450.0,0.0947265625,-0.0291748046875,0.608764648438,0.787170410156,-35.0,-13.5625,65.75,-25.54,-2.14,-6.9
1542223281637260913,368,0,/imu_data_acquisition2,41461.0,0.0897216796875,-0.0291748046875,0.613830566406,0.783752441406,-40.5,41.0,73.75,-26.92,-2.91,-9.01
1542223281649553060,369,0,/imu_data_acquisition2,41473.0,0.0806274414062,-0.0260620117188,0.620239257812,0.779846191406,-55.6875,100.4375,87.6875,-18.71,-6.43,-4.63
1542223281654896020,370,0,/imu_data_acquisition2,41481.0,0.069580078125,-0.0228271484375,0.625915527344,0.776489257812,-73.375,115.1875,77.25,-2.2,-11.22,22.01
1542223281667161941,371,0,/imu_data_acquisition2,41491.0,0.06103515625,-0.0199584960938,0.629272460938,0.774536132812,-54.5625,91.6875,44.9375,5.6,-16.66,14.96
1542223281679008960,372,0,/imu_data_acquisition2,41501.0,0.0538940429688,-0.0150756835938,0.630615234375,0.774108886719,-28.5625,99.375,14.0,3.2,-10.8,-0.7
1542223281685206890,373,0,/imu_data_acquisition2,41511.0,0.0448608398438,-0.00830078125,0.629455566406,0.775695800781,-33.25,128.5625,-25.1875,1.84,-4.05,2.85
1542223281697140932,374,0,/imu_data_acquisition2,41521.0,0.0357055664062,6.103515625e-05,0.628051757812,0.77734375,-6.9375,-0.0625,-0.0625,-2.4,4.94,15.51
1542223281704791069,375,0,/imu_data_acquisition2,41530.0,0.028076171875,0.009033203125,0.628051757812,0.777587890625,-3.3125,138.6875,-5.8125,-1.6,2.22,11.54
1542223281714930057,376,0,/imu_data_acquisition2,41540.0,0.0208740234375,0.0177612304688,0.628845214844,0.777038574219,-1.5625,134.625,7.5,-0.97,-1.6,10.83
1542223281727602005,377,0,/imu_data_acquisition2,41551.0,0.013427734375,0.0266723632812,0.629455566406,0.776489257812,-1.6875,137.5625,6.0625,-2.46,-2.15,16.59
1542223281737440109,378,0,/imu_data_acquisition2,41561.0,0.005859375,0.03564453125,0.629943847656,0.775817871094,-2.625,139.0625,5.375,-3.71,1.56,17.11
1542223281746099948,379,0,/imu_data_acquisition2,41571.0,-0.00201416015625,0.0439453125,0.631042480469,0.774536132812,-11.1875,135.8125,16.125,-4.86,3.0,15.9
1542223281757128953,380,0,/imu_data_acquisition2,41582.0,-0.010009765625,0.0512084960938,0.632568359375,0.772766113281,-19.9375,126.8125,23.3125,-4.18,1.79,13.38
1542223281766491889,381,0,/imu_data_acquisition2,41591.0,-0.0174560546875,0.057373046875,0.6337890625,0.771179199219,-22.6875,112.75,18.875,-4.13,-0.59,12.88
1542223281776104927,382,0,/imu_data_acquisition2,41601.0,-0.0238037109375,0.0626831054688,0.634582519531,0.769958496094,-18.8125,97.125,12.9375,-3.28,-0.6,12.28
1542223281787923097,383,0,/imu_data_acquisition2,41613.0,-0.0287475585938,0.0670776367188,0.635009765625,0.76904296875,-12.75,77.375,8.875,-2.97,0.32,11.06
1542223281795075893,384,0,/imu_data_acquisition2,41620.0,-0.0327758789062,0.0703125,0.635192871094,0.768432617188,-12.625,60.375,3.8125,-3.38,0.27,11.93
1542223281806279897,385,0,/imu_data_acquisition2,41631.0,-0.0358276367188,0.0723266601562,0.635131835938,0.768188476562,-13.125,41.5,0.0,-2.57,0.45,11.84
1542223281817504882,386,0,/imu_data_acquisition2,41641.0,-0.0380859375,0.0732421875,0.635070800781,0.768005371094,-13.0,25.6875,-0.875,-2.01,0.4,10.58
1542223281824788093,387,0,/imu_data_acquisition2,41650.0,-0.0398559570312,0.0738525390625,0.634948730469,0.767944335938,-11.75,18.75,-2.0,-2.05,-0.2,10.36
1542223281837184906,388,0,/imu_data_acquisition2,41661.0,-0.0413208007812,0.07421875,-6.103515625e-05,0.767944335938,-9.9375,14.3125,-1.8125,-1.96,-0.29,10.45
1542223281847914934,389,0,/imu_data_acquisition2,41673.0,-0.04248046875,0.0744018554688,0.634826660156,0.767883300781,-9.0625,10.5625,-0.8125,-1.58,-0.54,10.1
1542223281855071067,390,0,/imu_data_acquisition2,41681.0,-0.0433959960938,0.0745239257812,0.634887695312,0.767822265625,-7.75,8.0625,-0.0625,-1.44,-0.61,10.16
1542223281867470026,391,0,/imu_data_acquisition2,41691.0,-0.0441284179688,0.0746459960938,0.634887695312,0.767761230469,-5.5625,6.3125,0.4375,-1.88,-0.15,9.77
1542223281878122091,392,0,/imu_data_acquisition2,41701.0,-0.0441284179688,0.0746459960938,0.634887695312,0.767761230469,-3.1875,5.3125,1.125,-2.01,-0.14,9.93
1542223281885170936,393,0,/imu_data_acquisition2,41711.0,-0.044921875,0.0750122070312,0.635009765625,0.767517089844,-1.8125,4.125,1.375,-1.99,-0.04,10.06
1542223281896856069,394,0,/imu_data_acquisition2,41722.0,-0.0451049804688,0.0751342773438,0.635131835938,0.767456054688,-0.8125,2.5,1.3125,-1.92,0.03,10.4
1542223281907226085,395,0,/imu_data_acquisition2,41731.0,-0.0451049804688,0.0751342773438,0.635131835938,0.767456054688,-0.625,0.6875,0.9375,-1.8,0.27,10.23
1542223281916479110,396,0,/imu_data_acquisition2,41741.0,-0.0452270507812,0.0751342773438,0.635192871094,0.767395019531,-0.625,-0.125,0.125,-2.13,0.33,9.95
1542223281926903009,397,0,/imu_data_acquisition2,41751.0,-0.0452270507812,0.0750122070312,0.635131835938,0.767395019531,-1.0625,-1.0625,-0.625,-1.51,0.73,9.54
1542223281938313007,398,0,/imu_data_acquisition2,41763.0,-0.0452270507812,0.0750122070312,0.635131835938,0.767395019531,-1.0,-2.375,-0.9375,-2.09,0.08,10.15
1542223281945274114,399,0,/imu_data_acquisition2,41771.0,-0.045166015625,0.0747680664062,0.635070800781,0.767456054688,-2.0,-2.4375,-1.875,-2.1,-0.04,10.2
1542223281957427024,400,0,/imu_data_acquisition2,41782.0,-0.045166015625,0.0745239257812,0.635009765625,0.767578125,-0.8125,-3.8125,-1.6875,-2.01,-0.14,10.35
1542223281968306064,401,0,/imu_data_acquisition2,41791.0,-0.0450439453125,0.07421875,0.634887695312,0.767700195312,0.8125,-5.0,-1.75,-1.73,-0.07,10.05
1542223281976502895,402,0,/imu_data_acquisition2,41801.0,-0.0447387695312,0.0739135742188,0.634826660156,0.767822265625,1.875,-5.125,-1.5,-1.73,-0.25,9.99
1542223281987692117,403,0,/imu_data_acquisition2,41812.0,-0.0438842773438,0.0735473632812,0.634643554688,0.76806640625,3.0625,-4.6875,-1.3125,-1.81,-0.35,9.9
1542223281995703935,404,0,/imu_data_acquisition2,41820.0,-0.0438842773438,0.0735473632812,0.634643554688,0.76806640625,3.0625,-4.6875,-1.3125,-1.49,-0.28,9.71
1542223282005294084,405,0,/imu_data_acquisition2,41831.0,-0.0433349609375,0.073486328125,0.634582519531,0.768127441406,6.6875,-3.625,-0.4375,-1.94,-0.21,9.93
1542223282017528057,406,0,/imu_data_acquisition2,41843.0,-0.042724609375,0.0736083984375,0.634521484375,0.768188476562,6.875,-2.625,-0.1875,-1.77,-0.31,9.94
1542223282028466939,407,0,/imu_data_acquisition2,41851.0,-0.0421142578125,0.0737915039062,0.634521484375,0.768249511719,7.5625,-2.9375,0.4375,-1.93,0.22,9.71
1542223282037518978,408,0,/imu_data_acquisition2,41863.0,-0.0411376953125,0.0741577148438,0.634399414062,0.768310546875,6.875,-0.0625,-0.0625,-1.74,0.23,9.86
1542223282048363924,409,0,/imu_data_acquisition2,41871.0,-0.0411376953125,0.0741577148438,0.634399414062,0.768310546875,6.3125,-2.3125,0.4375,-1.65,0.11,9.53
1542223282054450035,410,0,/imu_data_acquisition2,41880.0,-0.0405883789062,0.0743408203125,0.634399414062,0.768371582031,6.3125,-2.3125,0.4375,-2.02,-0.04,9.61
1542223282067461013,411,0,/imu_data_acquisition2,41891.0,-0.0401611328125,0.0745239257812,0.634338378906,0.768371582031,4.5625,-2.5,-0.3125,-2.0,0.01,9.69
1542223282078249931,412,0,/imu_data_acquisition2,41904.0,-0.0397338867188,0.0745849609375,0.634338378906,0.768432617188,3.5,-3.5625,-0.375,-1.63,0.14,9.61
1542223282087729930,413,0,/imu_data_acquisition2,41911.0,-0.039306640625,0.0745239257812,0.634338378906,0.768432617188,2.625,-0.0625,-0.0625,-1.77,0.0,9.51
1542223282097517967,414,0,/imu_data_acquisition2,41923.0,-0.0392456054688,0.0743408203125,0.634155273438,0.768615722656,1.75,-2.8125,-0.9375,-2.04,-0.04,9.91
1542223282107582092,415,0,/imu_data_acquisition2,41931.0,-0.0392456054688,0.0743408203125,0.634155273438,0.768615722656,1.3125,-2.875,-1.0,-1.84,-0.12,10.08
1542223282114748954,416,0,/imu_data_acquisition2,41940.0,-0.0393676757812,0.0741577148438,0.634094238281,0.768676757812,1.375,-4.1875,-0.5,-1.81,0.01,9.5
1542223282127155065,417,0,/imu_data_acquisition2,41952.0,-0.0393676757812,0.0739135742188,0.634033203125,0.768737792969,0.6875,-3.75,-0.5,-1.57,0.15,9.82
1542223282139044046,418,0,/imu_data_acquisition2,41964.0,-0.039306640625,0.0736694335938,0.634033203125,0.768798828125,0.875,-3.875,-0.6875,-1.67,0.3,9.54
1542223282144704103,419,0,/imu_data_acquisition2,41970.0,-0.0391235351562,0.073486328125,0.634033203125,0.768859863281,0.875,-3.875,-0.6875,-1.84,0.01,9.92
1542223282156953096,420,0,/imu_data_acquisition2,41981.0,-6.103515625e-05,-6.103515625e-05,-6.103515625e-05,0.768920898438,-0.375,-3.125,-0.8125,-1.34,-0.09,9.51
1542223282169593095,421,0,/imu_data_acquisition2,41994.0,-0.0387573242188,0.0728759765625,0.633850097656,0.76904296875,-0.125,-2.6875,-0.8125,-1.95,-0.12,9.62
1542223282175842046,422,0,/imu_data_acquisition2,42001.0,-0.0387573242188,0.0728759765625,0.633850097656,0.76904296875,-0.0625,-1.4375,-0.8125,-1.84,-0.39,9.78
1542223282188010931,423,0,/imu_data_acquisition2,42013.0,-0.0386962890625,0.07275390625,0.633850097656,0.76904296875,1.0625,-1.4375,-0.6875,-1.54,-0.28,9.81
1542223282197077989,424,0,/imu_data_acquisition2,42021.0,-0.00732421875,-6.103515625e-05,-6.103515625e-05,0.769104003906,1.0625,-1.4375,-0.6875,-1.6,0.0,-0.01
1542223282204673051,425,0,/imu_data_acquisition2,42030.0,-0.038330078125,0.07275390625,-6.103515625e-05,0.769165039062,1.875,-1.625,-0.3125,-1.5,-0.27,9.69
1542223282218278884,426,0,/imu_data_acquisition2,42043.0,-0.0381469726562,0.0728149414062,0.6337890625,0.769165039062,3.375,0.0,0.1875,-1.67,-0.02,9.5
1542223282227319002,427,0,/imu_data_acquisition2,42051.0,-0.0069580078125,-6.103515625e-05,-6.103515625e-05,0.769165039062,3.3125,0.875,0.0,-1.75,0.09,9.55
1542223282236591100,428,0,/imu_data_acquisition2,42061.0,-0.0382690429688,0.072998046875,0.633666992188,0.769226074219,3.5,1.0,0.0,-1.94,-0.14,9.95
1542223282248117923,429,0,/imu_data_acquisition2,42073.0,-0.0384521484375,0.0731201171875,0.633605957031,0.769226074219,2.6875,1.625,-0.3125,-1.41,0.12,9.69
1542223282254929065,430,0,/imu_data_acquisition2,42080.0,-0.0385131835938,0.0733032226562,0.633605957031,0.769226074219,2.6875,1.625,-0.3125,-1.41,0.12,9.69
1542223282266489028,431,0,/imu_data_acquisition2,42091.0,-0.0384521484375,0.0736083984375,0.633483886719,0.769287109375,0.0,6.375,-1.5625,-1.03,0.51,9.17
1542223282278574943,432,0,/imu_data_acquisition2,42103.0,-0.038818359375,0.0740356445312,0.633361816406,0.769287109375,-2.6875,8.3125,-2.3125,-1.09,0.22,9.38
1542223282288290977,433,0,/imu_data_acquisition2,42113.0,-0.0394897460938,0.0744018554688,0.633239746094,0.769348144531,-5.6875,11.75,-3.5,-1.53,-0.07,9.18
1542223282297004938,434,0,/imu_data_acquisition2,42121.0,-0.0404663085938,0.0748291015625,0.632995605469,0.769470214844,-7.6875,16.125,-4.5625,-1.85,-1.79,9.13
1542223282307063102,435,0,/imu_data_acquisition2,42132.0,-0.0418701171875,0.0755004882812,0.632690429688,0.769592285156,-7.6875,16.125,-4.5625,-0.99,-0.31,9.29
1542223282318206071,436,0,/imu_data_acquisition2,42143.0,-0.043701171875,0.0762939453125,0.632263183594,0.769775390625,-7.375,23.625,-5.125,-1.75,1.4,11.59
1542223282327337980,437,0,/imu_data_acquisition2,42153.0,-0.0454711914062,0.077392578125,0.6318359375,0.769836425781,-4.6875,26.25,-4.6875,-1.49,1.0,9.45
1542223282338444948,438,0,/imu_data_acquisition2,42164.0,-0.0471801757812,0.078857421875,0.631469726562,0.769897460938,-5.25,30.8125,-8.25,-0.98,0.78,9.37
1542223282345170974,439,0,/imu_data_acquisition2,42171.0,-0.0492553710938,0.0805053710938,0.630859375,0.770141601562,-5.25,30.8125,-8.25,-0.98,0.78,9.37
1542223282355842113,440,0,/imu_data_acquisition2,42181.0,-0.0518188476562,0.08251953125,0.630004882812,0.770446777344,-7.25,37.875,-11.4375,0.86,-0.17,8.37
1542223282367131948,441,0,/imu_data_acquisition2,42192.0,-0.0546875,0.0849609375,0.628967285156,0.770874023438,-6.1875,54.5,-17.5,-0.34,-0.51,9.38
1542223282376511096,442,0,/imu_data_acquisition2,42202.0,-0.05810546875,0.0880737304688,0.627563476562,0.771362304688,-5.0,72.6875,-22.1875,-0.78,-0.63,10.19
1542223282386708021,443,0,/imu_data_acquisition2,42212.0,-0.015625,-6.103515625e-05,-6.103515625e-05,0.77197265625,-1.3125,89.1875,-24.0,-1.07,-0.47,10.0
1542223282395930051,444,0,/imu_data_acquisition2,42220.0,-0.00494384765625,-6.103515625e-05,-6.103515625e-05,0.772521972656,-1.3125,89.1875,-24.0,-1.07,-0.47,10.0
1542223282405253887,445,0,/imu_data_acquisition2,42231.0,-0.0733642578125,0.105529785156,0.62158203125,0.772766113281,3.875,113.5,-22.875,-0.42,0.14,9.84
1542223282417203903,446,0,/imu_data_acquisition2,42242.0,-6.103515625e-05,-6.103515625e-05,-6.103515625e-05,0.772521972656,9.8125,142.25,-19.8125,0.83,-0.95,8.24
1542223282427287101,447,0,/imu_data_acquisition2,42252.0,-0.0892333984375,0.127075195312,0.6162109375,0.772094726562,7.4375,221.5,-32.3125,-0.79,-0.19,9.11
1542223282436784029,448,0,/imu_data_acquisition2,42262.0,-0.1005859375,0.141662597656,0.612243652344,0.771362304688,7.4375,263.0,-26.25,-2.24,1.52,9.16
1542223282446491956,449,0,/imu_data_acquisition2,42271.0,-0.114013671875,0.158935546875,0.608093261719,0.769409179688,7.4375,263.0,-26.25,-2.24,1.52,9.16
1542223282454771041,450,0,/imu_data_acquisition2,42280.0,-0.129455566406,0.17919921875,0.604370117188,0.765380859375,6.6875,309.125,-6.5,-3.19,2.37,10.15
1542223282467551946,451,0,/imu_data_acquisition2,42293.0,-0.147155761719,0.201416015625,0.601379394531,0.759033203125,-28.3125,347.375,16.5,-0.84,1.59,12.39
1542223282478041887,452,0,/imu_data_acquisition2,42303.0,-0.166259765625,0.222351074219,0.598327636719,0.751586914062,-50.3125,342.9375,-10.25,-6.43,3.5,13.72
1542223282486886024,453,0,/imu_data_acquisition2,42312.0,-0.186889648438,0.241333007812,0.593566894531,0.74462890625,-50.3125,342.9375,-10.25,-7.54,3.12,16.98
1542223282497895002,454,0,/imu_data_acquisition2,42323.0,-0.238159179688,0.278015136719,0.575805664062,0.731018066406,-99.1875,398.0625,-85.8125,-9.67,3.87,16.63
1542223282505492925,455,0,/imu_data_acquisition2,42330.0,-0.238159179688,0.278015136719,0.575805664062,0.731018066406,-99.1875,398.0625,-85.8125,-1.99,-0.01,-0.01
1542223282516082048,456,0,/imu_data_acquisition2,42341.0,-0.269165039062,0.295471191406,0.561950683594,0.724182128906,-123.1875,424.375,-126.0625,-13.45,2.01,18.45
1542223282527309894,457,0,/imu_data_acquisition2,42353.0,-0.299499511719,0.310424804688,0.546508789062,0.717834472656,-126.4375,402.0,-148.375,-5.23,-1.77,39.79
1542223282537982940,458,0,/imu_data_acquisition2,42363.0,-0.324340820312,0.319641113281,0.531921386719,0.713928222656,-116.25,139.375,-153.6875,-3.16,-3.31,38.88
1542223282546940088,459,0,/imu_data_acquisition2,42372.0,-0.341674804688,0.318542480469,0.521850585938,0.713745117188,-37.4375,39.25,-0.0625,6.94,2.89,23.29
1542223282555759906,460,0,/imu_data_acquisition2,42381.0,-0.348327636719,0.316345214844,0.515686035156,0.716003417969,-37.4375,39.25,-100.3125,6.94,2.89,23.29
1542223282566901922,461,0,/imu_data_acquisition2,42391.0,-0.34716796875,0.3134765625,0.510009765625,0.721862792969,37.375,-30.3125,-91.125,8.02,7.6,3.75
1542223282576955080,462,0,/imu_data_acquisition2,42402.0,-0.34619140625,0.309387207031,0.504821777344,0.727722167969,-1.625,-35.375,-90.0,3.59,6.57,9.18
1542223282587482929,463,0,/imu_data_acquisition2,42413.0,-0.347106933594,0.304504394531,0.500305175781,0.732421875,-1.625,-35.375,-90.0,2.36,4.91,12.46
1542223282595685958,464,0,/imu_data_acquisition2,42421.0,-0.348022460938,0.298828125,0.497314453125,0.736389160156,-14.0,-45.75,-76.125,2.36,4.91,12.46
1542223282604396104,465,0,/imu_data_acquisition2,42430.0,-0.346130371094,0.292663574219,0.495971679688,0.740600585938,1.9375,-74.0,-55.125,2.72,5.26,11.85
1542223282617257118,466,0,/imu_data_acquisition2,42442.0,-0.340637207031,0.286315917969,0.496398925781,0.745422363281,29.0625,-106.4375,-31.6875,3.38,4.62,10.11
1542223282629183053,467,0,/imu_data_acquisition2,42453.0,-0.332153320312,0.279663085938,0.498474121094,0.750305175781,48.375,-133.4375,-8.625,3.02,2.94,10.5
1542223282637459993,468,0,/imu_data_acquisition2,42463.0,-0.32177734375,0.272644042969,0.502136230469,0.754943847656,65.25,-171.375,29.875,2.58,1.27,10.83
1542223282646256923,469,0,/imu_data_acquisition2,42471.0,-0.309631347656,0.265258789062,0.507141113281,0.759338378906,65.25,-171.375,29.875,2.58,1.27,10.83
1542223282655364990,470,0,/imu_data_acquisition2,42480.0,-0.295349121094,0.257568359375,0.512939453125,0.763732910156,80.0625,-190.125,42.4375,2.08,-0.15,11.06
1542223282666095972,471,0,/imu_data_acquisition2,42492.0,-0.278747558594,0.249572753906,0.519104003906,0.768493652344,98.9375,-208.875,49.4375,1.08,-1.77,11.51
1542223282678158998,472,0,/imu_data_acquisition2,42503.0,-0.26025390625,0.240966796875,0.525268554688,0.773498535156,114.3125,-226.9375,51.5,-0.22,-3.28,12.89
1542223282687030076,473,0,/imu_data_acquisition2,42513.0,-0.240417480469,0.231384277344,0.531188964844,0.778747558594,121.25,-4.5625,-0.0625,-1.59,-4.81,14.53
1542223282697386026,474,0,/imu_data_acquisition2,42522.0,-0.219787597656,0.220275878906,0.536682128906,0.784301757812,120.625,-263.125,40.875,-2.25,-4.92,14.89
1542223282705662965,475,0,/imu_data_acquisition2,42531.0,-0.198303222656,0.206359863281,0.540771484375,0.790954589844,117.9375,-293.5625,15.375,-2.25,-4.92,14.89
1542223282716984033,476,0,/imu_data_acquisition2,42542.0,-0.176696777344,0.192321777344,0.544494628906,0.797058105469,117.9375,-293.5625,15.375,-2.91,-4.56,15.04
1542223282726897954,477,0,/imu_data_acquisition2,42552.0,-0.0139770507812,-6.103515625e-05,-6.103515625e-05,0.803405761719,118.5,-304.6875,2.1875,-4.92,-1.36,14.87
1542223282738867044,478,0,/imu_data_acquisition2,42563.0,-0.131530761719,0.161254882812,0.54833984375,0.809936523438,125.125,-317.4375,-11.1875,-5.58,0.13,14.53
1542223282745281934,479,0,/imu_data_acquisition2,42570.0,-0.107788085938,0.145568847656,0.549499511719,0.815612792969,132.8125,-13.375,-0.0625,-5.58,0.13,14.53
1542223282755218982,480,0,/imu_data_acquisition2,42581.0,-0.0834350585938,0.130859375,0.551330566406,0.819763183594,141.4375,-6.5625,-0.0625,-6.49,1.74,14.27
1542223282767622947,481,0,/imu_data_acquisition2,42593.0,-0.0589599609375,0.115966796875,0.552673339844,0.823181152344,141.4375,-310.5625,14.125,-2.2,-0.01,-0.01
1542223282781269073,482,0,/imu_data_acquisition2,42603.0,-0.0342407226562,0.101989746094,0.5556640625,0.824401855469,146.4375,-302.125,45.1875,-13.63,4.19,22.51
1542223282787728071,483,0,/imu_data_acquisition2,42614.0,-0.00927734375,0.0869140625,0.563842773438,0.821228027344,124.3125,-314.625,160.75,-16.47,0.32,20.18
1542223282797863960,484,0,/imu_data_acquisition2,42623.0,0.0155029296875,-6.103515625e-05,-6.103515625e-05,0.815612792969,124.3125,-314.625,160.75,-16.47,0.32,20.18
1542223282804375886,485,0,/imu_data_acquisition2,42630.0,0.0394897460938,0.054931640625,0.585510253906,0.807800292969,113.5,-311.0625,187.25,-18.14,-1.35,18.45
1542223282816864967,486,0,/imu_data_acquisition2,42642.0,0.0604858398438,0.0386352539062,0.597595214844,0.798583984375,84.3125,-289.8125,200.375,-20.67,-0.85,13.3
1542223282828666925,487,0,/imu_data_acquisition2,42653.0,0.0762329101562,0.0219116210938,0.608947753906,0.789245605469,31.8125,-257.1875,193.0625,-26.73,-9.8,7.77
1542223282838901996,488,0,/imu_data_acquisition2,42663.0,0.089111328125,0.0062255859375,0.618591308594,0.780578613281,13.0,-228.125,169.875,-26.7,-7.87,2.43
1542223282846646070,489,0,/imu_data_acquisition2,42672.0,0.10009765625,-0.00665283203125,0.626159667969,0.773193359375,14.75,-191.1875,138.8125,-26.7,-7.87,2.43
1542223282857445001,490,0,/imu_data_acquisition2,42681.0,0.106262207031,-0.0156860351562,0.632141113281,0.767395019531,-3.5625,-122.125,107.4375,-29.19,-3.35,-9.22
1542223282864156961,491,0,/imu_data_acquisition2,42690.0,0.106384277344,-0.0215454101562,0.636901855469,0.763244628906,-36.5,-48.25,81.8125,-30.03,-4.28,-11.02
1542223282877557992,492,0,/imu_data_acquisition2,42703.0,0.101318359375,-0.022705078125,0.641845703125,0.759765625,-49.25,32.625,74.0,-33.81,-4.04,-14.74
1542223282888222932,493,0,/imu_data_acquisition2,42713.0,0.0912475585938,-0.01904296875,0.647705078125,0.756164550781,-56.6875,115.625,-0.0625,-1.49,-10.59,27.72
1542223282894407033,494,0,/imu_data_acquisition2,42720.0,0.0790405273438,-0.0155029296875,0.652465820312,0.753540039062,-78.1875,130.3125,62.0,-1.49,-10.59,27.72
1542223282905757904,495,0,/imu_data_acquisition2,42731.0,0.0697021484375,-0.0126953125,0.655395507812,0.751953125,-59.6875,99.1875,37.0,11.28,-17.27,28.65
1542223282917366027,496,0,/imu_data_acquisition2,42742.0,0.0606079101562,-0.0057373046875,0.656555175781,0.751831054688,-26.6875,133.5,6.875,8.93,-18.61,8.19
1542223282927275896,497,0,/imu_data_acquisition2,42753.0,0.04833984375,0.00372314453125,-6.103515625e-05,0.754516601562,-5.8125,-0.0625,-0.0625,-0.8,-3.49,12.53
1542223282938020944,498,0,/imu_data_acquisition2,42764.0,0.0369262695312,0.0146484375,0.652465820312,0.756774902344,-18.125,184.25,-42.375,-2.74,7.04,13.6
1542223282944072961,499,0,/imu_data_acquisition2,42770.0,0.0276489257812,0.02587890625,0.652404785156,0.756896972656,3.0625,172.5,-8.25,-2.74,7.04,13.6
1542223282955415964,500,0,/imu_data_acquisition2,42780.0,0.0180053710938,0.0364379882812,0.652893066406,0.75634765625,-4.6875,169.625,1.9375,-2.61,-1.34,15.99
1542223282967041015,501,0,/imu_data_acquisition2,42791.0,0.0084228515625,0.046630859375,0.653259277344,0.755676269531,-6.4375,165.375,2.625,-4.27,-3.73,17.1
1542223282979393959,502,0,/imu_data_acquisition2,42804.0,-0.00054931640625,0.0563354492188,0.653503417969,0.754821777344,-5.625,156.5625,2.8125,-2.7,1.79,14.92
1542223282988312005,503,0,/imu_data_acquisition2,42814.0,-0.00958251953125,0.065185546875,0.654174804688,0.753479003906,-12.5625,150.0625,10.375,-5.68,3.29,14.69
1542223282996258020,504,0,/imu_data_acquisition2,42821.0,-0.0191650390625,0.0721435546875,-6.103515625e-05,0.75146484375,-32.9375,137.625,20.8125,-5.68,3.29,14.69
1542223283004530906,505,0,/imu_data_acquisition2,42830.0,-0.0280151367188,0.0770874023438,0.656860351562,0.749572753906,-41.8125,114.1875,20.125,-4.96,-0.03,13.74
1542223283017234086,506,0,/imu_data_acquisition2,42842.0,-0.0354614257812,0.0806274414062,0.65771484375,0.748107910156,-39.625,89.9375,13.5625,-4.91,-2.12,-0.01
1542223283029839992,507,0,/imu_data_acquisition2,42853.0,-0.0411987304688,0.0833740234375,0.658203125,0.7470703125,-30.5625,70.125,8.125,-2.94,1.05,11.63
1542223283038093090,508,0,/imu_data_acquisition2,42864.0,-0.046142578125,0.085693359375,0.658508300781,0.746276855469,-25.75,59.5,4.625,-2.64,0.44,-0.01
1542223283046027898,509,0,/imu_data_acquisition2,42871.0,-0.0504150390625,0.08740234375,0.658447265625,0.745788574219,-24.9375,49.25,-0.5,-2.64,0.44,12.39
1542223283055918931,510,0,/imu_data_acquisition2,42881.0,-0.0538940429688,0.08837890625,0.658386230469,0.745544433594,-23.125,35.5,-1.5,-1.61,0.35,10.54
1542223283064728021,511,0,/imu_data_acquisition2,42890.0,-0.0568237304688,0.0890502929688,0.658203125,0.745361328125,-20.5625,29.3125,-2.9375,-2.16,0.26,10.96
1542223283079451084,512,0,/imu_data_acquisition2,42904.0,-0.0592041015625,0.0894775390625,0.658081054688,0.745300292969,-17.5,22.375,-3.0,-2.37,-0.08,10.15
1542223283090384006,513,0,/imu_data_acquisition2,42913.0,-0.0609741210938,0.089599609375,0.657958984375,0.745239257812,-14.8125,15.1875,-2.4375,-2.24,-0.26,10.36
1542223283094933032,514,0,/imu_data_acquisition2,42921.0,-0.0155029296875,-6.103515625e-05,-6.103515625e-05,0.745178222656,-12.0,11.125,-0.0625,-1.56,-0.74,10.1
1542223283105571985,515,0,/imu_data_acquisition2,42931.0,-0.0635375976562,0.0896606445312,0.657836914062,0.7451171875,-9.625,9.3125,-0.625,-1.7,-0.49,10.4
1542223283115405082,516,0,/imu_data_acquisition2,42940.0,-0.064453125,0.0897216796875,0.657836914062,0.744995117188,-7.5,8.0625,0.375,-1.66,-0.24,10.09
1542223283127140045,517,0,/imu_data_acquisition2,42953.0,-0.0652465820312,0.08984375,0.657897949219,0.744873046875,-6.3125,7.5,0.6875,-2.03,0.0,-0.01
1542223283143961906,518,0,/imu_data_acquisition2,42964.0,-0.0659790039062,0.0899047851562,0.657958984375,0.744750976562,-5.875,6.0,0.1875,-1.91,0.15,10.04
1542223283149223089,519,0,/imu_data_acquisition2,42972.0,-0.066650390625,0.08984375,0.657958984375,0.744689941406,-6.5625,4.9375,-0.1875,-1.89,0.05,10.27
1542223283155075073,520,0,/imu_data_acquisition2,42981.0,-0.0673217773438,0.0896606445312,0.657958984375,0.744689941406,-7.375,3.3125,-0.6875,-1.74,0.52,10.24
1542223283168176889,521,0,/imu_data_acquisition2,42992.0,-0.0679321289062,0.08935546875,0.657897949219,0.744689941406,-8.0,2.1875,-1.3125,-1.95,0.49,9.88
1542223283177661895,522,0,/imu_data_acquisition2,43002.0,-0.068603515625,0.0889282226562,0.657836914062,0.744750976562,-9.0,1.3125,-1.875,-2.12,0.42,10.42
1542223283188246011,523,0,/imu_data_acquisition2,43014.0,-0.0692138671875,0.08837890625,0.657836914062,0.744750976562,-9.5625,0.375,-0.0625,-2.08,0.08,10.16
1542223283196712970,524,0,/imu_data_acquisition2,43021.0,-0.06982421875,0.0878295898438,0.657775878906,0.744812011719,-9.75,-0.3125,-1.6875,-1.71,-0.11,10.03
1542223283205136060,525,0,/imu_data_acquisition2,43030.0,-0.0703735351562,0.0873413085938,0.657775878906,0.744812011719,-8.75,-0.5,-1.3125,-1.75,-0.27,9.86
1542223283218003988,526,0,/imu_data_acquisition2,43044.0,-0.07080078125,0.0869140625,0.65771484375,0.744873046875,-7.125,-0.625,-1.1875,-2.15,-0.51,10.2
1542223283227432966,527,0,/imu_data_acquisition2,43052.0,-0.071044921875,0.0864868164062,0.657775878906,0.744873046875,-5.0,-1.75,-0.625,-1.72,-0.43,9.86
1542223283240490913,528,0,/imu_data_acquisition2,43065.0,-0.0711059570312,0.0862426757812,0.657775878906,0.744873046875,-2.875,-1.6875,-0.3125,-2.35,-0.4,9.43
1542223283246479988,529,0,/imu_data_acquisition2,43072.0,-0.0712280273438,0.086181640625,0.657775878906,0.744873046875,-1.0625,-0.0625,-0.1875,-2.35,-0.4,9.43
1542223283261746883,530,0,/imu_data_acquisition2,43087.0,-0.0712280273438,0.086181640625,0.657775878906,0.744873046875,0.4375,0.25,0.625,-2.17,-0.19,9.9
1542223283269084930,531,0,/imu_data_acquisition2,43094.0,-0.0712280273438,0.086181640625,0.657836914062,0.744812011719,0.4375,0.25,0.625,-2.17,-0.19,9.9
1542223283276515960,532,0,/imu_data_acquisition2,43102.0,-0.0711669921875,0.0862426757812,0.657836914062,0.744812011719,0.8125,0.1875,0.5625,-1.87,-0.02,9.67
1542223283283857107,533,0,/imu_data_acquisition2,43110.0,-0.0711059570312,0.0860595703125,0.657836914062,0.744873046875,1.25,1.125,0.375,-1.89,-0.16,9.86
1542223283295577049,534,0,/imu_data_acquisition2,43121.0,-0.0709838867188,0.0859375,0.657775878906,0.744934082031,1.8125,0.4375,0.125,-1.74,-0.08,9.32
1542223283305507898,535,0,/imu_data_acquisition2,43130.0,-0.0709228515625,0.0858154296875,0.657775878906,0.744934082031,1.75,1.0625,-0.4375,-2.13,-0.31,9.93
1542223283314042091,536,0,/imu_data_acquisition2,43140.0,-0.07080078125,0.085693359375,0.65771484375,0.744995117188,2.4375,0.5625,-0.75,-1.85,-0.23,9.69
1542223283331257104,537,0,/imu_data_acquisition2,43156.0,-0.07080078125,0.0857543945312,0.657653808594,0.7451171875,2.4375,0.5625,-0.875,-1.8,-0.18,9.62
1542223283338162899,538,0,/imu_data_acquisition2,43163.0,-0.0706787109375,0.0856323242188,0.657531738281,0.745178222656,2.4375,0.5625,-0.0625,-1.8,-0.18,9.62
1542223283344007015,539,0,/imu_data_acquisition2,43170.0,-0.070556640625,0.0855102539062,0.657470703125,0.745300292969,2.5,0.625,-0.875,-1.9,-0.27,9.82
1542223283360831022,540,0,/imu_data_acquisition2,43186.0,-0.0704956054688,0.0855102539062,0.657348632812,0.745361328125,2.3125,0.6875,-1.4375,-1.83,-0.28,9.77
1542223283365818977,541,0,/imu_data_acquisition2,43191.0,-0.0704956054688,0.0853881835938,0.6572265625,0.745483398438,2.3125,0.6875,-1.4375,-1.83,-0.28,9.77
1542223283373753070,542,0,/imu_data_acquisition2,43200.0,-0.0703735351562,0.0853271484375,0.657104492188,0.745666503906,3.125,1.1875,-1.6875,-1.82,-0.23,9.41
1542223283390789985,543,0,/imu_data_acquisition2,43216.0,-0.0703125,0.0853271484375,0.656921386719,0.745849609375,4.25,2.125,-2.375,-2.18,-0.36,9.81
1542223283395662069,544,0,/imu_data_acquisition2,43221.0,-0.0703125,0.0855712890625,0.656677246094,0.746032714844,5.375,2.625,-2.875,-2.18,-0.36,9.81
1542223283403840065,545,0,/imu_data_acquisition2,43230.0,-0.0701904296875,0.085693359375,0.656433105469,0.746215820312,5.3125,2.4375,-2.375,-1.98,-0.28,9.71
1542223283420574903,546,0,/imu_data_acquisition2,43246.0,-0.070068359375,0.0859375,0.65625,0.746337890625,5.5,2.875,-2.1875,-1.83,-0.1,9.48
1542223283425702095,547,0,/imu_data_acquisition2,43251.0,-0.0699462890625,0.086181640625,0.656005859375,0.746520996094,5.125,3.5,-2.5625,-1.77,0.01,9.48
1542223283433890104,548,0,/imu_data_acquisition2,43260.0,-0.0699462890625,0.0863647460938,0.65576171875,0.746704101562,4.3125,3.625,-2.8125,-2.01,-0.41,9.53
1542223283445306062,549,0,/imu_data_acquisition2,43271.0,-0.0700073242188,0.0863647460938,0.655517578125,0.746948242188,3.5625,3.25,-3.0625,-1.86,-0.34,9.88
1542223283455142021,550,0,/imu_data_acquisition2,43280.0,-0.0700073242188,0.0862426757812,0.655334472656,0.747131347656,2.75,3.3125,-2.3125,-1.62,-0.11,9.71
1542223283464251041,551,0,/imu_data_acquisition2,43290.0,-0.0701293945312,0.086669921875,0.655151367188,0.747253417969,2.125,4.875,-2.5,-2.01,-0.11,9.96
1542223283476134061,552,0,/imu_data_acquisition2,43302.0,-0.0703735351562,0.0870971679688,0.654968261719,0.747314453125,1.625,5.8125,-2.1875,-1.27,0.26,9.78
1542223283486700057,553,0,/imu_data_acquisition2,43312.0,-0.0708618164062,0.0875854492188,0.654724121094,0.747375488281,0.375,8.3125,-0.0625,-1.77,-0.15,9.91
1542223283494492053,554,0,/imu_data_acquisition2,43320.0,-0.0714721679688,0.0882568359375,0.654541015625,0.747436523438,-0.1875,10.375,-2.1875,-1.17,-0.28,9.64
1542223283505223035,555,0,/imu_data_acquisition2,43331.0,-0.072265625,0.089111328125,0.654296875,0.747436523438,0.25,14.0,-2.1875,-1.53,-0.35,9.72
1542223283516207933,556,0,/imu_data_acquisition2,43342.0,-0.0732421875,0.0902709960938,0.654113769531,0.747436523438,0.4375,17.9375,-1.875,-1.98,0.07,9.12
1542223283524221897,557,0,/imu_data_acquisition2,43350.0,-0.0746459960938,0.0916748046875,-6.103515625e-05,0.747436523438,-0.9375,23.5625,-3.5,-1.41,-1.37,9.35
1542223283536937952,558,0,/imu_data_acquisition2,43363.0,-0.076416015625,0.0933227539062,0.653198242188,0.747497558594,-2.0,28.4375,-5.75,-1.15,-0.35,9.21
1542223283550914049,559,0,/imu_data_acquisition2,43371.0,-0.0783081054688,0.095458984375,0.652709960938,0.747497558594,0.3125,34.4375,-4.5625,-1.99,1.28,11.12
1542223283555720090,560,0,/imu_data_acquisition2,43381.0,-0.080322265625,0.0980224609375,0.652099609375,0.747497558594,2.8125,39.0625,-4.875,-0.99,0.42,9.91
1542223283566577911,561,0,/imu_data_acquisition2,43391.0,-0.0828857421875,0.101257324219,0.651184082031,0.74755859375,3.3125,48.6875,-8.125,-1.59,0.56,9.71
1542223283575299978,562,0,/imu_data_acquisition2,43400.0,-0.0859985351562,0.105041503906,0.650085449219,0.747619628906,3.0625,58.6875,-11.0,-1.18,0.73,9.9
1542223283584935903,563,0,/imu_data_acquisition2,43410.0,-0.0899658203125,0.109680175781,0.648681640625,0.747741699219,2.875,72.625,-12.9375,0.05,0.21,8.82
1542223283596579074,564,0,/imu_data_acquisition2,43421.0,-0.0950317382812,0.115783691406,0.646911621094,0.747741699219,3.5625,94.8125,-15.875,-0.96,-0.1,9.83
1542223283604933023,565,0,/imu_data_acquisition2,43430.0,-0.101318359375,0.123413085938,0.644714355469,0.74755859375,5.625,118.125,-17.75,-1.02,0.02,10.23
1542223283615128993,566,0,/imu_data_acquisition2,43441.0,-0.108947753906,0.1328125,0.64208984375,0.747131347656,7.75,145.25,-20.0,-0.33,1.32,9.51
1542223283626735925,567,0,/imu_data_acquisition2,43451.0,-0.118408203125,0.144165039062,0.638977050781,0.746276855469,6.0625,177.75,-21.375,-0.06,0.98,8.45
