%time,field.header.seq,field.header.stamp,field.header.frame_id,field.time_stamp,field.quat_x,field.quat_y,field.quat_z,field.quat_w,field.gyro_x,field.gyro_y,field.gyro_z,field.accel_x,field.accel_y,field.accel_z
1542222548930717945,79,0,/imu_data_acquisition2,30620.0,-0.0471801757812,0.080810546875,0.649841308594,0.754333496094,-3.0625,10.8125,-4.4375,-1.88,-0.08,9.87
1542222548941163063,80,0,/imu_data_acquisition2,30630.0,-0.0481567382812,0.0814819335938,0.649475097656,0.754455566406,-3.3125,13.4375,-4.4375,-1.09,0.35,9.6
1542222548952517986,81,0,/imu_data_acquisition2,30642.0,-0.0494995117188,0.0823364257812,0.649108886719,0.754577636719,-4.625,17.75,-5.125,-0.95,0.97,9.52
1542222548961921930,82,0,/imu_data_acquisition2,30651.0,-0.05126953125,0.0834350585938,0.648559570312,0.7548828125,-6.8125,23.375,-8.4375,-1.2,0.78,10.73
1542222548973989009,83,0,/imu_data_acquisition2,30663.0,-0.05322265625,0.0848388671875,0.64794921875,0.755065917969,-5.0625,33.5625,-8.9375,-1.56,0.76,10.03
1542222548980283021,84,0,/imu_data_acquisition2,30670.0,-0.0554809570312,0.086669921875,0.647277832031,0.755310058594,-5.0625,33.5625,-8.9375,-1.56,0.76,10.03
1542222548992073059,85,0,/imu_data_acquisition2,30681.0,-0.0579833984375,0.0889282226562,0.646362304688,0.755615234375,-3.9375,39.9375,-12.0,-0.85,0.3,9.91
1542222549005430936,86,0,/imu_data_acquisition2,30692.0,-0.0609130859375,0.091796875,0.645141601562,0.756042480469,-2.625,48.0625,-14.9375,-0.78,-0.44,9.37
1542222549012629985,87,0,/imu_data_acquisition2,30702.0,-0.0643310546875,0.095458984375,0.643737792969,0.756530761719,1.625,75.6875,-19.6875,-1.13,-0.14,9.79
1542222549025156974,88,0,/imu_data_acquisition2,30713.0,-0.0685424804688,0.100280761719,0.642028808594,0.756958007812,1.625,75.6875,-19.6875,-1.39,-0.41,10.16
1542222549031080007,89,0,/imu_data_acquisition2,30721.0,-0.0736694335938,0.106689453125,0.640014648438,0.75732421875,5.1875,97.25,-22.0625,-1.39,-0.41,10.16
1542222549041944026,90,0,/imu_data_acquisition2,30731.0,-0.0797729492188,0.114685058594,0.637573242188,0.757629394531,9.125,120.125,-24.4375,-1.15,0.35,9.74
1542222549050705909,91,0,/imu_data_acquisition2,30740.0,-0.0873413085938,0.124450683594,0.634826660156,0.757568359375,9.375,147.0625,-25.625,-0.84,0.0,8.81
1542222549062930107,92,0,/imu_data_acquisition2,30752.0,-0.0969848632812,0.136047363281,0.63134765625,0.757263183594,5.375,180.4375,-31.0,-1.14,-1.19,8.74
1542222549074202060,93,0,/imu_data_acquisition2,30763.0,-0.108581542969,0.149719238281,0.62744140625,0.756408691406,3.8125,215.375,-31.6875,-3.28,1.15,9.57
1542222549079720973,94,0,/imu_data_acquisition2,30769.0,-0.121704101562,0.165649414062,-6.103515625e-05,0.75439453125,5.5625,248.875,-7.5,-3.28,1.15,9.57
1542222549092186927,95,0,/imu_data_acquisition2,30781.0,-0.136596679688,0.183349609375,0.619873046875,0.750671386719,-1.125,280.625,-8.0,-5.8,0.98,11.34
1542222549104207038,96,0,/imu_data_acquisition2,30792.0,-0.152648925781,0.201599121094,0.617309570312,0.744995117188,-12.0625,296.1875,13.25,-2.09,0.63,11.83
1542222549112025022,97,0,/imu_data_acquisition2,30802.0,-0.168640136719,0.218444824219,0.615051269531,0.738586425781,-24.1875,284.9375,19.25,-2.7,0.48,12.27
1542222549124504089,98,0,/imu_data_acquisition2,30813.0,-0.184631347656,0.233825683594,0.611572265625,0.732971191406,-30.0625,272.4375,0.4375,-5.24,-0.05,14.99
1542222549132678031,99,0,/imu_data_acquisition2,30820.0,-0.2021484375,0.249450683594,0.606384277344,0.727478027344,-36.375,289.3125,-19.5625,-5.24,-0.05,14.99
1542222549140187978,100,0,/imu_data_acquisition2,30830.0,-0.2216796875,0.266357421875,0.598327636719,0.722412109375,-35.5625,319.8125,-50.5,-6.84,0.07,14.41
1542222549152610063,101,0,/imu_data_acquisition2,30841.0,-0.243286132812,0.284729003906,0.586853027344,0.717834472656,-30.375,355.1875,-85.625,-10.11,1.31,14.8
1542222549164309024,102,0,/imu_data_acquisition2,30853.0,-0.264831542969,0.303344726562,0.572875976562,0.713928222656,-18.125,361.375,-110.375,-9.09,0.77,19.79
1542222549172604084,103,0,/imu_data_acquisition2,30862.0,-0.283813476562,0.320373535156,0.557678222656,0.711181640625,1.3125,330.4375,-124.4375,-7.25,-1.77,34.87
1542222549182137966,104,0,/imu_data_acquisition2,30871.0,-0.299194335938,0.330810546875,0.54296875,0.711547851562,-3.625,237.125,-149.6875,-7.25,-1.77,34.87
1542222549192538022,105,0,/imu_data_acquisition2,30880.0,-0.312744140625,0.3330078125,-6.103515625e-05,0.713806152344,-44.5,139.9375,-162.375,-2.59,-1.38,33.56
1542222549201282978,106,0,/imu_data_acquisition2,30891.0,-0.320922851562,0.333740234375,0.520751953125,0.71728515625,-11.5625,81.4375,-136.25,2.07,2.09,22.08
1542222549214778900,107,0,/imu_data_acquisition2,30903.0,-0.32421875,0.33154296875,0.511352539062,0.723510742188,19.1875,12.5625,-139.4375,3.25,4.22,7.75
1542222549225591897,108,0,/imu_data_acquisition2,30913.0,-0.326538085938,0.326416015625,0.502746582031,0.730773925781,10.3125,-25.125,-146.6875,2.77,4.56,7.02
1542222549230333089,109,0,/imu_data_acquisition2,30920.0,-6.103515625e-05,-6.103515625e-05,-6.103515625e-05,0.738159179688,-3.5625,-40.8125,-151.5625,2.77,4.56,7.02
1542222549239615917,110,0,/imu_data_acquisition2,30929.0,-0.33203125,0.311584472656,0.486999511719,0.745300292969,-15.0,-50.1875,-150.1875,2.37,4.97,7.35
1542222549250437021,111,0,/imu_data_acquisition2,30940.0,-0.334350585938,0.303039550781,0.480163574219,0.752197265625,-17.3125,-60.625,-141.5625,1.52,6.08,8.92
1542222549264671087,112,0,/imu_data_acquisition2,30953.0,-0.335205078125,0.294372558594,0.474548339844,0.7587890625,-10.5625,-73.625,-124.75,1.36,6.21,9.81
1542222549275938987,113,0,/imu_data_acquisition2,30962.0,-0.333923339844,0.285705566406,0.470581054688,0.76513671875,1.5625,-91.3125,-101.5625,1.06,5.57,9.85
1542222549281147956,114,0,/imu_data_acquisition2,30971.0,-0.330139160156,0.277221679688,0.468322753906,0.771240234375,18.75,-110.125,-74.9375,1.06,5.57,9.85
1542222549291487932,115,0,/imu_data_acquisition2,30980.0,-0.323608398438,0.268920898438,0.467895507812,0.777221679688,38.5,-129.3125,-48.25,0.89,5.01,9.62
1542222549301023006,116,0,/imu_data_acquisition2,30991.0,-0.314453125,0.260986328125,0.468994140625,0.782958984375,58.9375,-146.375,-23.25,0.68,4.38,9.39
1542222549313025951,117,0,/imu_data_acquisition2,31003.0,-0.302917480469,0.25341796875,0.471374511719,0.788513183594,78.0625,-160.25,-0.9375,-0.6,2.47,10.47
1542222549326406002,118,0,/imu_data_acquisition2,31013.0,-0.289367675781,0.246154785156,0.474914550781,0.793823242188,94.3125,-171.6875,18.0625,-1.18,1.62,11.48
1542222549331098079,119,0,/imu_data_acquisition2,31021.0,-0.274291992188,0.238830566406,0.479370117188,0.798706054688,104.3125,-183.4375,33.25,-1.18,-0.01,-0.01
1542222549353084087,121,0,/imu_data_acquisition2,31042.0,-0.240478515625,0.222534179688,0.490600585938,0.807434082031,113.5625,-211.1875,53.75,-2.87,-1.89,13.58
1542222549363356113,122,0,/imu_data_acquisition2,31053.0,-0.221984863281,0.213012695312,0.496765136719,0.8115234375,116.9375,-226.25,57.0,-3.68,-3.06,13.61
1542222549374496936,123,0,/imu_data_acquisition2,31063.0,-0.202514648438,0.202758789062,0.502685546875,0.815612792969,122.5,-238.875,54.875,-3.93,-2.5,13.33
1542222549382401943,124,0,/imu_data_acquisition2,31071.0,-0.182250976562,0.191833496094,-6.103515625e-05,0.819702148438,127.6875,-248.75,49.5625,-3.93,-2.5,13.33
1542222549392226934,125,0,/imu_data_acquisition2,31081.0,-0.161682128906,0.180358886719,0.5126953125,0.82373046875,129.125,-254.4375,43.25,-4.1,-2.39,13.28
1542222549403517961,126,0,/imu_data_acquisition2,31092.0,-0.140991210938,0.168579101562,0.516723632812,0.827453613281,128.875,-256.5,38.625,-4.48,-2.22,13.47
1542222549414551019,127,0,/imu_data_acquisition2,31103.0,-0.120056152344,0.15673828125,0.520263671875,0.830871582031,130.875,-256.875,35.9375,-1.27,-0.01,-0.01
1542222549423671007,128,0,/imu_data_acquisition2,31113.0,-0.0986938476562,0.145080566406,-6.103515625e-05,0.833801269531,136.125,-256.3125,36.375,-7.17,0.43,-0.01
1542222549433245897,129,0,/imu_data_acquisition2,31121.0,-0.0769653320312,0.133605957031,0.526550292969,0.836059570312,141.0625,-255.375,40.4375,-7.17,0.43,17.29
1542222549442969083,130,0,/imu_data_acquisition2,31132.0,-0.0547485351562,0.1220703125,0.531127929688,0.836669921875,141.5625,-258.3125,66.0625,-8.03,1.2,18.32
1542222549453023910,131,0,/imu_data_acquisition2,31143.0,-0.0324096679688,0.110412597656,0.535400390625,0.836730957031,141.5625,-258.3125,66.0625,-9.49,2.15,19.38
1542222549465126991,132,0,/imu_data_acquisition2,31154.0,-0.0103759765625,0.098388671875,0.540710449219,0.835388183594,135.25,-259.0625,85.9375,-11.5,1.07,19.72
1542222549476803064,133,0,/imu_data_acquisition2,31164.0,0.01123046875,0.0858764648438,0.54736328125,0.832397460938,124.9375,-259.1875,108.3125,-14.06,-0.64,15.15
1542222549483016967,134,0,/imu_data_acquisition2,31173.0,0.0310668945312,0.0723266601562,0.556518554688,0.827087402344,99.5625,-255.9375,146.8125,-14.06,-0.64,15.15
1542222549493004083,135,0,/imu_data_acquisition2,31182.0,0.048095703125,0.0579223632812,0.566040039062,0.820922851562,65.6875,-4.6875,-0.0625,-15.61,-3.9,14.4
1542222549499928951,136,0,/imu_data_acquisition2,31189.0,0.0635375976562,0.0433349609375,0.5751953125,0.814392089844,49.75,-235.625,151.875,-17.04,-6.42,13.84
1542222549514112949,137,0,/imu_data_acquisition2,31203.0,0.0780029296875,0.029296875,0.58349609375,0.807861328125,44.6875,-224.1875,142.375,-17.15,-4.14,5.09
1542222549526619911,138,0,/imu_data_acquisition2,31214.0,0.0908203125,0.0162353515625,0.590759277344,0.801574707031,35.125,-204.5625,129.875,-17.43,-3.25,2.52
1542222549530628919,139,0,/imu_data_acquisition2,31220.0,0.100891113281,0.00469970703125,0.597229003906,0.795715332031,20.0,-172.0625,116.25,-17.43,-3.25,2.52
1542222549541558027,140,0,/imu_data_acquisition2,31229.0,0.108581542969,-0.00494384765625,0.60302734375,0.790283203125,10.3125,-137.625,105.375,-17.99,-3.06,0.71
1542222549550165891,141,0,/imu_data_acquisition2,31239.0,0.114562988281,-0.0121459960938,0.608764648438,0.784973144531,12.0,-102.8125,100.0,-17.96,-2.57,0.03
1542222549564018964,142,0,/imu_data_acquisition2,31253.0,0.118835449219,-0.0169677734375,0.614624023438,0.779602050781,12.9375,-68.375,99.25,-18.07,-2.11,-0.68
1542222549573524951,143,0,/imu_data_acquisition2,31263.0,0.120727539062,-0.0199584960938,0.620910644531,0.774230957031,4.6875,-34.125,101.0,-18.38,-2.14,-0.67
1542222549581029891,144,0,/imu_data_acquisition2,31269.0,0.119567871094,-0.021484375,0.627746582031,0.768920898438,-12.6875,-0.0625,-0.0625,-18.29,-1.07,-4.98
1542222549589998006,145,0,/imu_data_acquisition2,31280.0,0.112060546875,-0.0211181640625,0.635192871094,0.763916015625,-56.8125,68.1875,106.375,-18.92,-1.94,-10.8
1542222549605037927,146,0,/imu_data_acquisition2,31294.0,0.0982666015625,-0.0195922851562,0.641967773438,0.760131835938,-106.25,125.75,91.0625,6.46,-9.94,24.75
1542222549611793994,147,0,/imu_data_acquisition2,31302.0,0.0843505859375,-0.0184936523438,0.646728515625,0.7578125,-113.5625,120.875,62.8125,6.46,-2.26,-0.01
1542222549625504016,148,0,/imu_data_acquisition2,31315.0,0.0723876953125,-0.0155639648438,0.650634765625,0.755798339844,-81.8125,120.9375,49.875,2.68,-11.39,3.82
1542222549631648063,149,0,/imu_data_acquisition2,31321.0,0.06103515625,-0.00982666015625,0.652893066406,0.754943847656,-56.375,140.8125,23.8125,2.68,-11.39,3.82
1542222549640821933,150,0,/imu_data_acquisition2,31331.0,0.0479736328125,-0.0025634765625,0.653137207031,0.755737304688,-61.0625,166.3125,-7.6875,-2.46,-7.35,14.4
1542222549655977964,151,0,/imu_data_acquisition2,31344.0,0.0362548828125,0.00592041015625,0.652893066406,0.756591796875,-39.375,166.0625,-12.875,-3.42,-4.2,19.04
1542222549666706085,152,0,/imu_data_acquisition2,31355.0,0.0269165039062,0.0149536132812,0.652893066406,0.756774902344,-14.375,153.1875,-6.0,-2.6,-2.56,14.51
1542222549674841880,153,0,/imu_data_acquisition2,31365.0,0.018310546875,0.0244140625,0.652954101562,0.756774902344,-3.75,151.6875,-3.75,-1.86,0.85,14.43
1542222549683552980,154,0,/imu_data_acquisition2,31372.0,0.00970458984375,0.0342407226562,0.653076171875,0.756469726562,-1.0625,154.375,-1.125,-1.86,0.85,14.43
1542222549695924997,155,0,/imu_data_acquisition2,31383.0,0.00115966796875,0.044189453125,0.653442382812,0.755676269531,0.0625,155.4375,4.875,-2.33,0.53,15.1
1542222549700280904,156,0,/imu_data_acquisition2,31390.0,-0.0076904296875,0.0537719726562,0.654174804688,0.75439453125,-5.0625,155.3125,11.1875,-3.28,0.93,15.89
1542222549715759992,157,0,/imu_data_acquisition2,31405.0,-0.0170288085938,0.0623168945312,0.655334472656,0.752563476562,-17.875,149.4375,19.8125,-6.26,3.0,16.96
1542222549725528001,158,0,/imu_data_acquisition2,31415.0,-0.0260009765625,0.0692138671875,0.656860351562,0.750427246094,-27.8125,132.375,24.5,-6.27,0.72,14.68
1542222549730180025,159,0,/imu_data_acquisition2,31420.0,-0.0335083007812,0.07470703125,0.657958984375,0.748596191406,-25.6875,107.875,19.9375,-4.0,-1.58,13.33
1542222549743781089,160,0,/imu_data_acquisition2,31432.0,-0.0393676757812,0.07958984375,0.658630371094,0.747192382812,-14.9375,90.0,13.375,-2.97,-0.86,11.71
1542222549753597974,161,0,/imu_data_acquisition2,31442.0,-0.0440063476562,0.0839233398438,0.658752441406,0.746337890625,-7.5,75.25,5.375,-3.51,-0.08,12.65
1542222549762839078,162,0,/imu_data_acquisition2,31452.0,-0.0474243164062,0.0872192382812,0.658752441406,0.745788574219,-4.875,56.0625,2.1875,-3.09,0.07,11.87
1542222549775485038,163,0,/imu_data_acquisition2,31465.0,-6.103515625e-05,-6.103515625e-05,-6.103515625e-05,0.745483398438,-3.8125,36.9375,0.125,-2.94,0.19,10.59
1542222549782779932,164,0,/imu_data_acquisition2,31471.0,-0.0512084960938,0.0906372070312,0.658630371094,0.745239257812,-3.4375,23.8125,1.125,-2.94,0.19,10.59
1542222549790472984,165,0,/imu_data_acquisition2,31480.0,-0.0521850585938,0.0911865234375,0.658752441406,0.744995117188,-4.1875,12.8125,2.5625,-2.2,-0.16,10.78
1542222549803060054,166,0,/imu_data_acquisition2,31493.0,-0.0528564453125,0.0916748046875,0.658813476562,0.744812011719,-2.1875,9.125,1.3125,-1.79,-0.15,10.14
1542222549817035913,167,0,/imu_data_acquisition2,31507.0,-0.0532836914062,0.092041015625,0.658874511719,0.744689941406,-0.9375,6.8125,1.4375,-1.54,0.11,9.55
1542222549831521987,168,0,/imu_data_acquisition2,31518.0,-0.053466796875,0.092529296875,0.658935546875,0.744567871094,1.5625,5.625,1.625,-1.54,0.11,9.55
1542222549837312936,169,0,/imu_data_acquisition2,31526.0,-0.0536499023438,0.093017578125,0.658996582031,0.744445800781,3.25,3.8125,1.1875,-1.99,0.0,10.24
1542222549847558021,170,0,/imu_data_acquisition2,31533.0,-0.0536499023438,0.0934448242188,0.658996582031,0.744384765625,3.25,3.8125,1.1875,-1.99,0.0,10.24
1542222549857537031,171,0,/imu_data_acquisition2,31546.0,-0.0535278320312,0.0938110351562,0.659057617188,0.744323730469,3.8125,2.1875,1.0,-1.99,0.38,10.47
1542222549867139101,172,0,/imu_data_acquisition2,31557.0,-0.0532836914062,0.0940551757812,0.658996582031,0.744323730469,3.0625,-0.1875,0.0625,-1.81,0.27,9.86
1542222549884093046,174,0,/imu_data_acquisition2,31573.0,-0.0528564453125,0.0943603515625,0.658935546875,0.744384765625,2.9375,-0.75,-0.25,-2.06,0.68,10.08
1542222549893106937,175,0,/imu_data_acquisition2,31582.0,-0.0526733398438,0.0943603515625,0.658935546875,0.744384765625,1.6875,-1.375,-0.4375,-1.79,0.31,9.73
1542222549901258945,176,0,/imu_data_acquisition2,31590.0,-0.0526123046875,0.0942993164062,0.658874511719,0.744445800781,0.1875,-1.125,-0.8125,-2.02,0.39,9.98
1542222549911293029,177,0,/imu_data_acquisition2,31601.0,-0.0526123046875,0.09423828125,0.658813476562,0.744506835938,-0.5625,-0.8125,-1.1875,-1.84,0.2,9.76
1542222549923913002,178,0,/imu_data_acquisition2,31613.0,-0.052734375,0.0940551757812,0.658752441406,0.74462890625,-1.25,0.0625,-1.75,-2.11,0.22,10.4
1542222549930926084,179,0,/imu_data_acquisition2,31620.0,-0.0527954101562,0.0936889648438,0.658630371094,0.744750976562,-1.0,-0.1875,-2.0,-1.69,0.01,9.82
1542222549942414045,180,0,/imu_data_acquisition2,31632.0,-0.0528564453125,0.0936889648438,0.658630371094,0.744750976562,-0.4375,0.4375,-1.9375,-2.15,-0.11,9.91
1542222549952771902,181,0,/imu_data_acquisition2,31642.0,-0.0527954101562,0.09375,0.658508300781,0.744812011719,0.75,0.25,-1.625,-2.14,-0.21,9.95
1542222549960944890,182,0,/imu_data_acquisition2,31650.0,-0.052734375,0.0938110351562,0.658386230469,0.744934082031,1.9375,0.5625,-1.4375,-2.34,-0.01,-0.01
1542222549973037958,183,0,/imu_data_acquisition2,31663.0,-0.0525512695312,0.0939331054688,0.658325195312,0.744995117188,2.3125,0.0,-0.875,-2.17,0.03,9.92
1542222549982788085,184,0,/imu_data_acquisition2,31672.0,-0.0524291992188,0.0940551757812,0.658264160156,0.745056152344,2.0625,-0.0625,-0.75,-2.09,-0.02,9.89
1542222549990458011,185,0,/imu_data_acquisition2,31680.0,-0.00537109375,-6.103515625e-05,-6.103515625e-05,0.745422363281,2.375,-0.1875,-0.6875,-2.01,0.0,9.74
1542222550001105070,186,0,/imu_data_acquisition2,31691.0,-0.0524291992188,0.0941162109375,0.657775878906,0.745483398438,3.0,-0.125,-0.625,-2.28,-0.15,9.89
1542222550016221046,187,0,/imu_data_acquisition2,31705.0,-0.0525512695312,0.0941772460938,0.657653808594,0.745544433594,3.875,-0.5,-0.25,-2.23,0.04,9.52
1542222550020688056,188,0,/imu_data_acquisition2,31710.0,-0.0526123046875,0.0941162109375,0.657653808594,0.74560546875,3.9375,-0.625,-0.0625,-2.12,-0.04,9.81
1542222550031480073,189,0,/imu_data_acquisition2,31721.0,-0.0525512695312,0.09423828125,0.657592773438,0.74560546875,3.75,-0.5,-0.4375,-2.01,-0.01,-0.01
1542222550046897888,190,0,/imu_data_acquisition2,31736.0,-0.052490234375,0.09423828125,0.657409667969,0.745788574219,2.875,-0.3125,-0.5625,-2.0,0.09,9.57
1542222550051661014,191,0,/imu_data_acquisition2,31741.0,-0.0524291992188,0.09423828125,0.657287597656,0.745849609375,2.6875,-0.875,-0.8125,-2.0,0.09,9.57
1542222550063488960,192,0,/imu_data_acquisition2,31753.0,-0.052490234375,0.0941772460938,0.6572265625,0.745971679688,2.5625,-0.4375,-1.0,-2.17,-0.03,9.65
1542222550073069095,193,0,/imu_data_acquisition2,31762.0,-0.0525512695312,0.0940551757812,0.657104492188,0.746032714844,2.0,-1.125,-0.6875,-2.14,-0.07,9.85
1542222550080522060,194,0,/imu_data_acquisition2,31770.0,-0.052490234375,0.0938720703125,0.657104492188,0.74609375,2.75,-1.4375,-0.25,-1.91,-0.03,9.79
1542222550093039035,195,0,/imu_data_acquisition2,31783.0,-6.103515625e-05,-6.103515625e-05,-6.103515625e-05,0.746215820312,3.25,-1.125,-0.25,-2.1,0.1,9.79
1542222550102907896,196,0,/imu_data_acquisition2,31791.0,-0.0523071289062,0.09375,0.656921386719,0.746276855469,3.125,-0.9375,0.0,-2.08,0.04,9.71
1542222550111499071,197,0,/imu_data_acquisition2,31801.0,-0.0523071289062,0.0936889648438,0.656860351562,0.746337890625,3.25,-0.3125,0.0,-1.86,-0.09,9.64
1542222550123373031,198,0,/imu_data_acquisition2,31813.0,-0.00537109375,-6.103515625e-05,-6.103515625e-05,0.746337890625,3.4375,0.375,0.125,-2.08,0.02,9.58
1542222550132191896,199,0,/imu_data_acquisition2,31820.0,-0.0523681640625,0.0936889648438,0.656799316406,0.746398925781,3.5625,0.625,0.25,-2.16,-0.14,9.93
1542222550141962051,200,0,/imu_data_acquisition2,31832.0,-0.0524291992188,0.0936889648438,0.65673828125,0.746459960938,4.0625,0.125,0.5625,-2.1,-0.02,9.48
1542222550152761936,201,0,/imu_data_acquisition2,31842.0,-0.0524291992188,0.0936889648438,0.656677246094,0.746459960938,3.6875,0.3125,0.375,-2.04,0.0,9.62
1542222550161945104,202,0,/imu_data_acquisition2,31850.0,-0.0524291992188,0.09375,0.656616210938,0.746520996094,3.8125,0.4375,0.25,-2.04,0.04,9.21
1542222550172202110,203,0,/imu_data_acquisition2,31862.0,-0.0521850585938,0.0939331054688,0.656616210938,0.746520996094,3.625,-0.0625,-0.0625,-1.98,0.17,8.99
1542222550182810068,204,0,/imu_data_acquisition2,31872.0,-0.052001953125,0.0941162109375,0.656555175781,0.74658203125,2.8125,0.25,-0.375,-2.32,-0.12,10.0
1542222550191063880,205,0,/imu_data_acquisition2,31880.0,-0.0517578125,0.09423828125,0.656555175781,0.74658203125,3.0,-0.9375,-0.375,-1.43,0.02,9.61
1542222550200896024,206,0,/imu_data_acquisition2,31891.0,-0.0516967773438,0.0941162109375,0.656494140625,0.746643066406,2.3125,0.125,-0.8125,-1.8,0.32,9.65
1542222550214881896,207,0,/imu_data_acquisition2,31903.0,-0.0517578125,0.09423828125,0.656372070312,0.746704101562,0.9375,1.8125,-1.3125,-1.92,0.32,9.76
1542222550220150947,208,0,/imu_data_acquisition2,31909.0,-0.0519409179688,0.0943603515625,0.65625,0.746826171875,-0.625,2.6875,-1.875,-1.62,0.43,9.81
1542222550231029987,209,0,/imu_data_acquisition2,31921.0,-0.0523071289062,0.0945434570312,0.656127929688,0.746887207031,-2.125,4.25,-2.125,-1.71,0.28,-0.01
1542222550244993925,210,0,/imu_data_acquisition2,31934.0,-0.0528564453125,0.0946655273438,0.656005859375,0.746948242188,-3.25,5.6875,-2.3125,-1.34,0.48,9.85
1542222550250211000,211,0,/imu_data_acquisition2,31940.0,-0.0536499023438,0.094970703125,0.655822753906,0.747009277344,-4.4375,8.3125,-2.25,-2.24,-0.48,8.78
1542222550261445999,212,0,/imu_data_acquisition2,31951.0,-0.0547485351562,0.0953369140625,0.655639648438,0.7470703125,-6.8125,12.1875,-3.3125,-2.03,-1.15,9.44
1542222550275407075,213,0,/imu_data_acquisition2,31964.0,-0.0558471679688,0.0960083007812,0.655517578125,0.746948242188,-4.125,14.75,-0.9375,-1.52,1.5,11.21
1542222550280359029,214,0,/imu_data_acquisition2,31970.0,-0.0570678710938,0.096923828125,0.655456542969,0.746826171875,-3.6875,17.4375,-0.5,-1.05,1.05,9.78
1542222550291906118,215,0,/imu_data_acquisition2,31981.0,-0.0586547851562,0.0980834960938,0.655212402344,0.746765136719,-5.0,22.9375,-3.1875,-2.01,1.18,10.24
1542222550303544998,216,0,/imu_data_acquisition2,31990.0,-0.0606079101562,0.0994262695312,0.654724121094,0.746826171875,-5.6875,27.125,-5.6875,-1.71,-0.04,10.61
1542222550310394048,217,0,/imu_data_acquisition2,32000.0,-0.0626831054688,0.101135253906,0.654113769531,0.746948242188,-4.625,31.5625,-7.8125,-0.88,-0.19,9.56
1542222550321873903,218,0,/imu_data_acquisition2,32011.0,-0.0651245117188,0.103454589844,0.6533203125,0.747131347656,-2.5625,39.375,-9.4375,-0.11,-0.19,8.7
1542222550332493066,219,0,/imu_data_acquisition2,32021.0,-0.0682983398438,0.106689453125,0.652282714844,0.747314453125,-1.375,54.0625,-12.125,-0.87,0.67,9.64
1542222550341072082,220,0,/imu_data_acquisition2,32031.0,-0.0722045898438,0.110961914062,0.650939941406,0.747497558594,0.125,68.4375,-14.875,0.2,0.71,-0.01
1542222550351938962,221,0,/imu_data_acquisition2,32041.0,-0.0146484375,-6.103515625e-05,-6.103515625e-05,0.747680664062,2.75,89.5,-18.5625,0.16,-0.06,9.42
1542222550364090919,222,0,/imu_data_acquisition2,32052.0,-0.0833740234375,0.124145507812,0.646850585938,0.747802734375,6.0625,116.5,-23.5,-0.54,-0.11,9.49
1542222550370367050,223,0,/imu_data_acquisition2,32060.0,-0.0909423828125,0.133728027344,0.643859863281,0.747863769531,10.375,145.1875,-28.1875,-0.33,-0.71,9.1
1542222550381643056,224,0,/imu_data_acquisition2,32071.0,-0.100219726562,0.1455078125,0.640319824219,0.74755859375,12.9375,179.9375,-31.125,-0.31,0.11,8.57
1542222550391896009,225,0,/imu_data_acquisition2,32080.0,-0.11181640625,0.159545898438,0.636047363281,0.746643066406,10.25,218.3125,-33.875,0.57,-0.01,-0.01
1542222550400650024,226,0,/imu_data_acquisition2,32090.0,-0.125305175781,0.175903320312,0.631164550781,0.744934082031,10.9375,256.125,-34.125,-2.9,0.17,9.45
1542222550412417888,227,0,/imu_data_acquisition2,32101.0,-0.0148315429688,-6.103515625e-05,-6.103515625e-05,0.741333007812,9.875,281.8125,-13.0,-3.76,0.74,10.48
1542222550421997070,228,0,/imu_data_acquisition2,32110.0,-0.155456542969,0.213134765625,0.623596191406,0.73583984375,4.1875,302.4375,6.375,-3.23,1.49,10.4
1542222550430455923,229,0,/imu_data_acquisition2,32120.0,-0.171508789062,0.230651855469,0.619750976562,0.730285644531,-10.9375,292.375,-1.0,-8.26,3.68,13.0
1542222550444694995,230,0,/imu_data_acquisition2,32133.0,-0.188659667969,0.247741699219,0.614562988281,0.724792480469,-20.375,299.125,-16.5625,-7.69,2.49,13.1
1542222550451016902,231,0,/imu_data_acquisition2,32140.0,-0.207824707031,0.264953613281,0.607299804688,0.719543457031,-29.125,318.5625,-41.8125,-2.87,0.95,14.34
1542222550460555076,232,0,/imu_data_acquisition2,32150.0,-0.229309082031,0.282897949219,0.596984863281,0.71484375,-33.125,347.875,-77.25,-6.67,0.68,16.34
1542222550471973896,233,0,/imu_data_acquisition2,32161.0,-0.252746582031,0.300964355469,0.583740234375,0.710510253906,-38.5,369.6875,-111.125,-10.51,2.69,15.23
1542222550480787038,234,0,/imu_data_acquisition2,32170.0,-0.275329589844,0.3173828125,0.56884765625,0.70703125,-33.6875,351.0,-132.25,-11.41,1.92,16.08
1542222550491126060,235,0,/imu_data_acquisition2,32181.0,-0.293884277344,0.329528808594,0.553955078125,0.705810546875,-21.6875,279.6875,-146.75,-8.72,0.74,23.45
1542222550502259969,236,0,/imu_data_acquisition2,32191.0,-0.308959960938,0.332885742188,0.541320800781,0.707580566406,-48.4375,163.75,-164.5625,-8.46,-2.52,39.75
1542222550510428905,237,0,/imu_data_acquisition2,32200.0,-0.318908691406,0.334045410156,0.531311035156,0.710205078125,-26.375,99.9375,-135.6875,2.06,-0.88,30.38
1542222550521302938,238,0,/imu_data_acquisition2,32211.0,-0.321899414062,0.333435058594,0.521911621094,0.716125488281,30.375,25.25,-130.3125,3.32,2.39,18.18
1542222550532238960,239,0,/imu_data_acquisition2,32222.0,-0.323181152344,0.330505371094,0.512878417969,0.723327636719,33.75,-10.6875,-137.1875,4.82,4.57,6.91
1542222550541260004,240,0,/imu_data_acquisition2,32231.0,-0.325256347656,0.326171875,0.504211425781,0.73046875,17.0,-19.25,-142.25,3.86,5.08,6.88
1542222550551670074,241,0,/imu_data_acquisition2,32241.0,-0.328063964844,0.32080078125,0.496276855469,0.736999511719,-0.75,-24.0625,-138.875,2.93,4.95,8.13
1542222550562616109,242,0,/imu_data_acquisition2,32252.0,-0.330261230469,0.314758300781,0.489562988281,0.743103027344,-4.5625,-36.75,-126.4375,2.37,4.84,9.38
1542222550570605039,243,0,/imu_data_acquisition2,32260.0,-0.330444335938,0.308532714844,0.484252929688,0.749084472656,5.0625,-55.5625,-106.625,2.25,5.54,10.47
1542222550582571983,244,0,/imu_data_acquisition2,32272.0,-0.328186035156,0.302062988281,0.480651855469,0.755004882812,18.875,-77.8125,-82.875,2.57,5.98,10.26
1542222550592331886,245,0,/imu_data_acquisition2,32280.0,-0.328186035156,0.302062988281,0.480651855469,0.755004882812,30.0625,-0.0625,-0.0625,2.88,6.08,10.04
1542222550600723981,246,0,/imu_data_acquisition2,32290.0,-0.3173828125,0.288635253906,0.479125976562,0.765808105469,38.25,-115.6875,-31.3125,2.82,4.89,10.4
1542222550611790895,247,0,/imu_data_acquisition2,32301.0,-0.30908203125,0.281799316406,0.48095703125,0.7705078125,47.875,-132.1875,-7.4375,2.53,3.78,10.67
1542222550624989986,248,0,/imu_data_acquisition2,32313.0,-0.298583984375,0.274963378906,0.484252929688,0.775085449219,62.3125,-149.375,13.8125,2.12,2.71,11.03
1542222550630985021,249,0,/imu_data_acquisition2,32321.0,-0.285766601562,0.268005371094,0.488586425781,0.779602050781,79.3125,-167.4375,31.125,1.24,1.56,11.66
1542222550645153999,250,0,/imu_data_acquisition2,32334.0,-0.27099609375,0.260681152344,0.493835449219,0.784057617188,92.625,-184.9375,44.375,0.75,1.01,12.05
1542222550651688098,251,0,/imu_data_acquisition2,32340.0,-0.27099609375,0.260681152344,0.493835449219,0.784057617188,100.125,-201.4375,53.6875,0.17,0.22,12.52
1542222550661067008,252,0,/imu_data_acquisition2,32351.0,-0.237365722656,0.243774414062,0.505981445312,0.792602539062,103.375,-217.75,59.125,-0.44,-0.73,12.98
1542222550672389984,253,0,/imu_data_acquisition2,32362.0,-0.218994140625,0.233703613281,0.512329101562,0.796813964844,105.9375,-234.125,59.0,-1.67,-3.01,14.05
1542222550681821107,254,0,/imu_data_acquisition2,32371.0,-0.199584960938,0.222595214844,0.518188476562,0.801330566406,110.625,-250.1875,52.8125,-2.35,-3.53,14.51
1542222550690829992,255,0,/imu_data_acquisition2,32380.0,-0.199584960938,0.222595214844,0.518188476562,0.801330566406,115.75,-264.1875,42.125,-2.97,-3.35,14.88
1542222550702436923,256,0,/imu_data_acquisition2,32392.0,-0.179321289062,0.21044921875,0.523132324219,0.80615234375,117.1875,-276.875,30.1875,-4.06,-2.16,15.8
1542222550711822032,257,0,/imu_data_acquisition2,32400.0,-0.137329101562,0.182800292969,0.5302734375,0.81640625,116.375,-287.875,20.4375,-4.59,-1.57,15.87
1542222550720993041,258,0,/imu_data_acquisition2,32411.0,-0.115600585938,0.167846679688,0.532836914062,0.821350097656,118.6875,-296.3125,16.0,-5.04,-0.7,15.68
1542222550732419013,259,0,/imu_data_acquisition2,32422.0,-0.0932006835938,0.152648925781,0.535034179688,0.82568359375,124.0,-300.5625,18.0625,-6.05,1.47,15.26
1542222550742149114,260,0,/imu_data_acquisition2,32431.0,-0.0701293945312,0.137878417969,0.537475585938,0.828979492188,130.625,-299.1875,27.8125,-6.81,2.72,15.86
1542222550753365039,261,0,/imu_data_acquisition2,32443.0,-0.0466918945312,0.123718261719,0.540710449219,0.830749511719,136.25,-293.6875,47.1875,-8.36,3.92,17.73
1542222550763144969,262,0,/imu_data_acquisition2,32452.0,-0.0230102539062,0.109680175781,0.545532226562,0.83056640625,136.1875,-292.0,75.625,-10.17,5.05,20.04
1542222550770522117,263,0,/imu_data_acquisition2,32460.0,0.0006103515625,0.0949096679688,0.552429199219,0.828125,127.1875,-297.375,110.4375,-13.06,5.12,21.42
1542222550781447887,264,0,/imu_data_acquisition2,32471.0,-6.103515625e-05,-6.103515625e-05,-6.103515625e-05,0.823364257812,112.0,-303.0,146.4375,-14.19,3.28,19.62
1542222550793191909,265,0,/imu_data_acquisition2,32482.0,0.0460815429688,0.0621948242188,0.572326660156,0.816345214844,98.4375,-301.125,177.0625,-15.44,1.0,17.05
1542222550800235033,266,0,/imu_data_acquisition2,32490.0,0.0665893554688,0.0458374023438,0.583984375,0.807739257812,83.6875,-284.9375,195.6875,-19.13,-2.05,9.46
1542222550811739921,267,0,/imu_data_acquisition2,32501.0,0.0829467773438,0.0299072265625,0.595520019531,0.798461914062,47.3125,-251.5,195.625,-22.23,-4.82,10.09
1542222550823484897,268,0,/imu_data_acquisition2,32511.0,0.0965576171875,0.0147094726562,0.606018066406,0.789428710938,26.875,-225.9375,182.9375,-23.52,-6.46,8.29
1542222550830643892,269,0,/imu_data_acquisition2,32520.0,0.109008789062,0.0018310546875,0.615173339844,0.780822753906,31.75,-197.625,164.375,-24.25,-4.85,0.36
1542222550843154907,270,0,/imu_data_acquisition2,32533.0,0.119445800781,-0.00811767578125,0.622924804688,0.773071289062,33.8125,-158.0625,141.125,-1.03,-0.01,-0.01
1542222550852389097,271,0,/imu_data_acquisition2,32541.0,0.119445800781,-0.00811767578125,0.622924804688,0.773071289062,24.0,-107.6875,120.3125,-24.41,-2.53,-4.66
1542222550860847949,272,0,/imu_data_acquisition2,32551.0,0.129760742188,-0.0191040039062,0.636108398438,0.760375976562,8.8125,-51.25,108.25,-25.34,-0.18,-9.98
1542222550871835947,273,0,/imu_data_acquisition2,32561.0,0.127319335938,-0.0198974609375,0.643127441406,0.754821777344,-17.6875,21.0,107.0,-28.03,-2.1,-0.01
1542222550883816003,274,0,/imu_data_acquisition2,32572.0,0.118713378906,-0.0179443359375,0.651000976562,0.74951171875,-51.75,93.6875,109.9375,-29.8,-4.95,-11.52
1542222550890580892,275,0,/imu_data_acquisition2,32580.0,0.118713378906,-0.0179443359375,0.651000976562,0.74951171875,-73.125,152.8125,-0.0625,-17.11,-7.09,-1.33
1542222550902307033,276,0,/imu_data_acquisition2,32591.0,0.0926513671875,-0.010986328125,0.665161132812,0.740844726562,-89.25,127.9375,79.4375,7.45,-2.29,-0.01
1542222550911897897,277,0,/imu_data_acquisition2,32601.0,0.0926513671875,-0.010986328125,0.665161132812,0.740844726562,-62.75,122.125,55.0,5.62,-19.69,9.85
1542222550923363924,278,0,/imu_data_acquisition2,32613.0,0.0711059570312,-0.000244140625,0.671081542969,0.737976074219,-37.25,148.3125,10.375,2.58,-12.63,-0.63
1542222550932270050,279,0,/imu_data_acquisition2,32622.0,0.0711059570312,-0.000244140625,0.671081542969,0.737976074219,-38.625,179.75,-29.625,-3.86,-0.32,19.04
1542222550942368030,280,0,/imu_data_acquisition2,32631.0,0.0584716796875,0.00897216796875,0.670227050781,0.739807128906,-7.75,180.875,-23.5625,-3.31,2.27,15.34
1542222550950731039,281,0,/imu_data_acquisition2,32640.0,0.0477294921875,0.0199584960938,0.669555664062,0.740966796875,12.9375,173.8125,-3.6875,-1.42,0.89,11.46
1542222550962676048,282,0,/imu_data_acquisition2,32652.0,0.0386962890625,0.0315551757812,0.669921875,0.74072265625,13.6875,178.5,0.5625,-4.94,-1.11,18.29
1542222550972022056,283,0,/imu_data_acquisition2,32661.0,0.0294799804688,0.0435180664062,0.67041015625,0.740112304688,13.3125,175.8125,1.0,-4.47,0.37,18.65
1542222550981427907,284,0,/imu_data_acquisition2,32671.0,0.0203247070312,0.0552368164062,0.670776367188,0.739318847656,7.625,164.875,6.75,-5.66,2.37,17.78
1542222550992975950,285,0,/imu_data_acquisition2,32682.0,0.0025634765625,0.07470703125,0.672607421875,0.736206054688,-9.0625,148.9375,17.5,-6.97,4.09,17.41
1542222551001142978,286,0,/imu_data_acquisition2,32690.0,0.0025634765625,0.07470703125,0.672607421875,0.736206054688,-9.0625,148.9375,17.5,-4.49,-0.91,13.4
1542222551011646986,287,0,/imu_data_acquisition2,32701.0,-0.00567626953125,0.0811157226562,0.674194335938,0.734069824219,-24.5625,96.1875,19.75,-4.25,-1.36,13.54
1542222551022655963,288,0,/imu_data_acquisition2,32712.0,-0.0125122070312,0.0856323242188,0.675537109375,0.732238769531,-18.8125,75.5625,-0.0625,-3.24,0.33,11.57
1542222551032346963,289,0,/imu_data_acquisition2,32722.0,-0.0178833007812,0.0892944335938,0.676330566406,0.73095703125,-15.75,58.75,7.4375,-3.24,0.63,11.78
1542222551042408943,290,0,/imu_data_acquisition2,32732.0,-0.0255737304688,0.0938720703125,0.677185058594,0.729370117188,-15.375,43.875,5.0625,-2.57,1.09,12.07
1542222551052495956,291,0,/imu_data_acquisition2,32742.0,-0.0255737304688,0.0938720703125,0.677185058594,0.729370117188,-16.0625,31.3125,2.6875,-2.08,1.14,11.51
1542222551062463045,292,0,/imu_data_acquisition2,32751.0,-0.0283813476562,0.0948486328125,0.677368164062,0.728942871094,-14.1875,25.375,0.625,-2.01,1.12,10.17
1542222551071610927,293,0,/imu_data_acquisition2,32761.0,-0.0307006835938,0.0956420898438,0.677490234375,0.728637695312,-14.125,20.875,-0.5,-1.88,0.54,9.77
1542222551082887887,294,0,/imu_data_acquisition2,32772.0,-0.0327758789062,0.0960693359375,0.677551269531,0.728454589844,-14.0625,15.5,-1.5625,-1.99,0.55,9.92
1542222551091392993,295,0,/imu_data_acquisition2,32780.0,-0.0344848632812,0.0962524414062,0.677490234375,0.728393554688,-14.0625,15.5,-1.5625,-1.58,0.14,10.49
1542222551100991010,296,0,/imu_data_acquisition2,32791.0,-0.0360107421875,0.09619140625,0.677490234375,0.728332519531,-13.0,9.25,-2.8125,-1.33,0.24,10.16
1542222551113418102,297,0,/imu_data_acquisition2,32803.0,-0.037353515625,0.0960083007812,0.677368164062,0.728393554688,-10.9375,7.5,-3.0,-1.64,0.64,10.24
1542222551122268915,298,0,/imu_data_acquisition2,32811.0,-0.0385131835938,0.0958251953125,0.67724609375,0.728454589844,-11.0625,7.0,-2.875,-2.33,0.4,10.15
1542222551131889104,299,0,/imu_data_acquisition2,32822.0,-0.0396118164062,0.0955810546875,0.677124023438,0.728576660156,-11.375,4.375,-1.8125,-1.76,0.1,10.31
1542222551146249055,300,0,/imu_data_acquisition2,32834.0,-0.0414428710938,0.0946044921875,0.677062988281,0.728637695312,-9.125,3.0,-1.4375,-1.8,0.25,9.75
1542222551151356935,301,0,/imu_data_acquisition2,32841.0,-0.0414428710938,0.0946044921875,0.677062988281,0.728637695312,-8.0625,2.6875,-1.375,-2.07,0.2,10.21
1542222551162372112,302,0,/imu_data_acquisition2,32852.0,-0.0421142578125,0.0942993164062,0.677062988281,0.728698730469,-7.25,1.6875,-1.5625,-1.84,0.42,10.26
1542222551173820972,303,0,/imu_data_acquisition2,32863.0,-0.0426635742188,0.093994140625,0.677001953125,0.728698730469,-6.0625,0.625,-2.0,-2.11,0.28,10.37
1542222551181452035,304,0,/imu_data_acquisition2,32871.0,-0.0430908203125,0.0936889648438,0.676879882812,0.728820800781,-5.5,-0.25,-2.5,-1.89,0.15,10.03
1542222551192332983,305,0,/imu_data_acquisition2,32882.0,-0.0435791015625,0.0932006835938,0.676818847656,0.728942871094,-4.6875,-0.375,-2.0625,-1.87,0.1,9.8
1542222551201567888,306,0,/imu_data_acquisition2,32890.0,-0.0440673828125,0.0927124023438,0.676696777344,0.729064941406,-4.6875,-0.375,-2.0625,-1.87,0.1,9.8
1542222551211622953,307,0,/imu_data_acquisition2,32901.0,-0.0443115234375,0.0924682617188,0.676635742188,0.729187011719,-3.125,1.875,-1.6875,-2.43,0.09,9.83
1542222551222443103,308,0,/imu_data_acquisition2,32912.0,-0.0446166992188,0.0924072265625,0.676513671875,0.729248046875,-3.3125,1.5625,-1.5,-2.01,0.09,9.9
1542222551233163118,309,0,/imu_data_acquisition2,32922.0,-0.044921875,0.09228515625,0.676452636719,0.729309082031,-2.875,0.5,-1.25,-2.16,0.39,9.85
1542222551242031097,310,0,/imu_data_acquisition2,32932.0,-0.0451049804688,0.0921630859375,0.676391601562,0.729370117188,-2.6875,1.6875,-1.5,-2.03,0.22,9.76
1542222551249681949,311,0,/imu_data_acquisition2,32939.0,-0.04541015625,0.0921020507812,0.676330566406,0.729431152344,-2.6875,1.6875,-1.5,-2.03,0.22,9.76
1542222551259793043,312,0,/imu_data_acquisition2,32950.0,-0.0459594726562,0.0919799804688,0.676208496094,0.7294921875,-2.0625,2.375,-1.625,-2.1,0.11,9.6
1542222551273643970,313,0,/imu_data_acquisition2,32962.0,-0.046630859375,0.0919189453125,0.676025390625,0.729614257812,-1.0625,2.6875,-1.4375,-1.93,0.04,9.75
1542222551286336898,314,0,/imu_data_acquisition2,32976.0,-0.0475463867188,0.091796875,0.675842285156,0.729797363281,0.0,2.125,-1.25,-2.1,0.19,9.59
1542222551290760040,315,0,/imu_data_acquisition2,32980.0,-0.0475463867188,0.091796875,0.675842285156,0.729797363281,0.0,2.125,-1.25,-1.92,0.0,9.51
1542222551301997900,316,0,/imu_data_acquisition2,32992.0,-0.0479125976562,0.0917358398438,0.675415039062,0.730102539062,0.6875,2.6875,-1.25,-2.25,0.03,9.8
1542222551313499927,317,0,/imu_data_acquisition2,33002.0,-0.0484008789062,0.091796875,0.67529296875,0.730224609375,0.75,3.0,-1.25,-2.08,0.07,9.7
1542222551322030067,318,0,/imu_data_acquisition2,33012.0,-0.0488891601562,0.0918579101562,0.675170898438,0.730285644531,1.125,2.5,-0.9375,-1.97,0.19,9.47
1542222551333825111,319,0,/imu_data_acquisition2,33024.0,-0.0491943359375,0.0919189453125,0.675109863281,0.730346679688,0.1875,2.375,-0.625,-1.58,0.24,9.56
1542222551341983079,320,0,/imu_data_acquisition2,33030.0,-0.0494384765625,0.0918579101562,0.675048828125,0.730407714844,0.1875,2.375,-0.625,-1.58,0.24,9.56
1542222551351308107,321,0,/imu_data_acquisition2,33041.0,-0.0496215820312,0.0918579101562,0.674987792969,0.730407714844,0.125,1.75,-0.5,-2.09,0.04,9.68
1542222551363142013,322,0,/imu_data_acquisition2,33051.0,-0.0499877929688,0.0918579101562,0.674926757812,0.730407714844,-1.0625,2.9375,-1.125,-2.02,-0.2,9.8
1542222551374811887,323,0,/imu_data_acquisition2,33063.0,-0.050537109375,0.091796875,0.6748046875,0.730529785156,0.3125,3.75,-1.0625,-1.87,0.04,9.58
1542222551382375001,324,0,/imu_data_acquisition2,33072.0,-0.0509643554688,0.091796875,0.674743652344,0.730590820312,1.5625,3.75,-0.75,-2.13,0.12,9.92
1542222551392642021,325,0,/imu_data_acquisition2,33081.0,-0.05126953125,0.0919189453125,0.674621582031,0.730590820312,1.5625,3.75,-0.75,-1.85,-0.03,9.79
1542222551401360988,326,0,/imu_data_acquisition2,33090.0,-0.0515747070312,0.0919799804688,0.674560546875,0.730651855469,1.75,3.3125,-0.8125,-1.85,-0.03,9.79
1542222551411803960,327,0,/imu_data_acquisition2,33101.0,-0.0518798828125,0.092041015625,0.674438476562,0.730712890625,1.4375,3.5,-1.25,-2.57,0.23,9.55
1542222551422591924,328,0,/imu_data_acquisition2,33112.0,-6.103515625e-05,-6.103515625e-05,-6.103515625e-05,0.730773925781,1.4375,3.5,-1.25,-2.03,0.05,9.55
1542222551433970928,329,0,/imu_data_acquisition2,33122.0,-0.0521240234375,0.0925903320312,0.674194335938,0.730834960938,0.125,1.75,-1.625,-2.64,0.02,9.5
1542222551440181970,330,0,/imu_data_acquisition2,33130.0,-0.00537109375,-6.103515625e-05,-6.103515625e-05,0.73095703125,0.125,1.75,-1.625,-2.64,0.02,9.5
1542222551451407909,331,0,/imu_data_acquisition2,33140.0,-0.0524291992188,0.0927734375,0.673950195312,0.731018066406,-0.9375,1.875,-2.1875,-2.18,0.07,10.07
1542222551463910102,332,0,/imu_data_acquisition2,33152.0,-0.0525512695312,0.0927124023438,0.673889160156,0.731140136719,-1.3125,0.75,-1.5625,-1.82,0.28,9.7
1542222551471667051,333,0,/imu_data_acquisition2,33161.0,-0.052734375,0.0926513671875,0.673767089844,0.731201171875,-1.875,0.6875,-1.4375,-1.74,0.11,10.03
1542222551484137058,334,0,/imu_data_acquisition2,33172.0,-0.052978515625,0.0925903320312,0.673706054688,0.731262207031,-3.125,2.375,-1.5,-1.68,0.04,9.67
1542222551500408887,336,0,/imu_data_acquisition2,33190.0,-0.0538330078125,0.0926513671875,0.673522949219,0.731323242188,-3.5625,4.625,-1.3125,-1.51,0.13,9.83
1542222551512835025,337,0,/imu_data_acquisition2,33202.0,-0.0543823242188,0.0927734375,0.673522949219,0.731323242188,-3.625,7.75,-0.625,-1.74,0.14,9.29
1542222551522634029,338,0,/imu_data_acquisition2,33212.0,-0.0550537109375,0.093017578125,0.673461914062,0.731262207031,-3.625,7.75,-0.0625,-1.59,0.09,9.53
1542222551532561063,339,0,/imu_data_acquisition2,33222.0,-0.055908203125,0.0934448242188,0.673400878906,0.731262207031,-4.0,15.5625,-2.4375,-1.12,1.25,10.12
1542222551539557933,340,0,/imu_data_acquisition2,33229.0,-0.0570678710938,0.0941772460938,0.673156738281,0.731262207031,-4.0,15.5625,-2.4375,-1.12,1.25,10.12
1542222551554696083,341,0,/imu_data_acquisition2,33239.0,-0.0582885742188,0.09521484375,0.673034667969,0.731140136719,-1.75,19.1875,-1.375,-1.39,1.02,10.12
1542222551562920093,342,0,/imu_data_acquisition2,33252.0,-0.059814453125,0.0966186523438,0.672729492188,0.731140136719,-1.3125,24.3125,-3.0625,-1.42,0.1,9.73
1542222551573355913,343,0,/imu_data_acquisition2,33262.0,-0.0616455078125,0.098388671875,0.672180175781,0.731201171875,-1.75,29.9375,-6.0625,-0.96,0.33,9.67
1542222551582979917,344,0,/imu_data_acquisition2,33273.0,-0.0639038085938,0.100463867188,0.671569824219,0.731323242188,-1.6875,36.5625,-7.6875,-0.3,0.23,9.29
1542222551592015981,345,0,/imu_data_acquisition2,33281.0,-0.0665893554688,0.103210449219,0.670776367188,0.7314453125,-0.75,45.625,-8.625,-0.3,0.23,9.29
1542222551599158048,346,0,/imu_data_acquisition2,33289.0,-0.0700073242188,0.106750488281,0.669799804688,0.731506347656,0.125,58.3125,-10.4375,-0.64,0.7,9.97
1542222551612445116,347,0,/imu_data_acquisition2,33302.0,-0.0744018554688,0.111328125,0.66845703125,0.731567382812,0.375,75.1875,-13.875,-1.02,0.1,9.62
1542222551622838020,348,0,/imu_data_acquisition2,33312.0,-0.07958984375,0.117126464844,0.666870117188,0.731628417969,2.875,92.8125,-15.875,-0.9,-0.58,9.26
1542222551633423089,349,0,/imu_data_acquisition2,33322.0,-0.0858154296875,0.124450683594,0.664855957031,0.731506347656,6.8125,114.8125,-17.8125,-0.32,0.52,-0.01
1542222551641602039,350,0,/imu_data_acquisition2,33331.0,-0.0933837890625,0.133544921875,0.662353515625,0.731262207031,8.9375,140.9375,-21.5,-0.32,0.52,9.08
1542222551651478052,351,0,/imu_data_acquisition2,33340.0,-0.102783203125,0.144470214844,0.659362792969,0.730651855469,8.8125,172.6875,-24.3125,0.62,0.79,8.1
1542222551661232948,352,0,/imu_data_acquisition2,33350.0,-0.114440917969,0.157409667969,0.655456542969,0.729736328125,5.125,209.3125,-31.0625,-1.35,-0.08,8.65
1542222551672516107,353,0,/imu_data_acquisition2,33362.0,-0.127990722656,0.172485351562,0.650939941406,0.728088378906,6.4375,244.8125,-31.125,-3.96,0.24,9.74
1542222551683073997,354,0,/imu_data_acquisition2,33373.0,-0.143127441406,0.189392089844,0.646728515625,0.724853515625,3.4375,275.375,-16.1875,-9.67,1.67,12.13
1542222551689311027,355,0,/imu_data_acquisition2,33379.0,-0.159545898438,0.20751953125,0.643127441406,0.719604492188,-3.0,299.25,3.1875,-9.67,1.67,12.13
1542222551701611042,356,0,/imu_data_acquisition2,33391.0,-0.175598144531,0.223510742188,0.639465332031,0.71435546875,-15.75,278.0,-0.625,-5.58,0.93,13.01
1542222551715888023,357,0,/imu_data_acquisition2,33406.0,-0.192321777344,0.239013671875,0.635681152344,0.708374023438,-29.3125,289.375,-12.9375,-4.06,0.32,13.5
1542222551725296974,358,0,/imu_data_acquisition2,33413.0,-0.209838867188,0.254455566406,0.630615234375,0.702575683594,-29.3125,289.375,-12.9375,-7.13,0.75,14.73
1542222551732923030,359,0,/imu_data_acquisition2,33423.0,-0.229370117188,0.27099609375,0.622802734375,0.697204589844,-28.8125,319.0,-42.6875,-8.42,1.06,14.62
1542222551745002031,360,0,/imu_data_acquisition2,33433.0,-0.251831054688,0.290222167969,0.611083984375,0.692077636719,-20.3125,373.0625,-78.9375,-8.42,1.06,14.62
1542222551750061988,361,0,/imu_data_acquisition2,33440.0,-0.276123046875,0.311157226562,0.595642089844,0.687133789062,-8.9375,410.3125,-111.1875,-10.56,0.93,14.58
1542222551762691974,362,0,/imu_data_acquisition2,33452.0,-0.299865722656,0.332641601562,0.576965332031,0.683044433594,13.8125,418.1875,-140.9375,-4.64,-0.3,32.58
1542222551775502920,363,0,/imu_data_acquisition2,33465.0,-0.319458007812,0.351318359375,0.557250976562,0.68115234375,30.5,222.1875,-187.25,-8.9,-1.17,39.49
1542222551785772085,364,0,/imu_data_acquisition2,33473.0,-0.333618164062,0.3603515625,0.539428710938,0.684020996094,30.5,-0.0625,-0.0625,-5.45,-1.44,38.39
1542222551792215108,365,0,/imu_data_acquisition2,33482.0,-0.3447265625,0.362121582031,0.526000976562,0.68798828125,-6.125,121.5,-174.625,-5.45,-1.44,38.39
1542222551802937030,366,0,/imu_data_acquisition2,33491.0,-0.34765625,0.361328125,0.515380859375,0.694946289062,44.9375,24.9375,-145.8125,3.31,3.58,13.82
1542222551816404104,367,0,/imu_data_acquisition2,33506.0,-0.347290039062,0.357055664062,0.505920410156,0.704284667969,38.375,-60.3125,-157.6875,4.48,4.11,4.36
1542222551823992013,368,0,/imu_data_acquisition2,33513.0,-0.347106933594,0.350402832031,0.4970703125,0.7138671875,38.375,-60.3125,-157.6875,2.89,5.55,5.81
1542222551842174053,369,0,/imu_data_acquisition2,33527.0,-0.348083496094,0.342895507812,0.488525390625,0.722900390625,8.75,-62.25,-152.375,2.35,6.24,7.46
1542222551843977928,370,0,/imu_data_acquisition2,33531.0,-0.349365234375,0.3349609375,0.480712890625,0.731201171875,8.75,-62.25,-152.375,2.35,6.24,7.46
1542222551851814985,371,0,/imu_data_acquisition2,33541.0,-0.349670410156,0.326843261719,0.474426269531,0.73876953125,7.25,-72.25,-132.5,2.0,6.82,8.73
1542222551860188961,372,0,/imu_data_acquisition2,33549.0,-0.34814453125,0.318725585938,0.47021484375,0.745727539062,12.8125,-88.9375,-7.5,1.95,6.57,10.38
1542222551873117923,373,0,/imu_data_acquisition2,33563.0,-0.34423828125,0.310607910156,0.468322753906,0.752075195312,22.5625,-109.6875,-70.875,1.81,5.03,10.76
1542222551895657062,374,0,/imu_data_acquisition2,33574.0,-0.337707519531,0.302429199219,0.468811035156,0.758056640625,35.3125,-133.0625,-38.125,1.64,3.91,10.64
1542222551898869037,375,0,/imu_data_acquisition2,33583.0,-0.328430175781,0.294128417969,0.471374511719,0.763793945312,51.125,-156.5625,-8.5,0.84,2.07,10.53
1542222551901392936,376,0,/imu_data_acquisition2,33591.0,-0.316528320312,0.285949707031,0.475524902344,0.769348144531,68.9375,-176.3125,16.0625,0.84,2.07,10.53
1542222551913005113,377,0,/imu_data_acquisition2,33602.0,-0.302307128906,0.277709960938,0.480834960938,0.774780273438,85.6875,-193.0,34.6875,0.24,1.43,10.8
1542222551927315950,378,0,/imu_data_acquisition2,33614.0,-6.103515625e-05,-6.103515625e-05,-6.103515625e-05,0.780029296875,97.25,-208.375,48.0,-1.82,-0.87,12.92
1542222551933646917,379,0,/imu_data_acquisition2,33623.0,-0.268981933594,0.260009765625,0.49365234375,0.785095214844,102.4375,-223.625,57.0,-2.61,-2.42,13.56
1542222551941843986,380,0,/imu_data_acquisition2,33631.0,-0.250793457031,0.249633789062,0.500793457031,0.789916992188,102.1875,-240.4375,61.875,-2.61,-2.42,13.56
1542222551953748941,381,0,/imu_data_acquisition2,33642.0,-0.231750488281,0.237976074219,0.508056640625,0.794677734375,101.4375,-257.9375,61.0625,-3.16,-3.72,13.89
1542222551961200952,382,0,/imu_data_acquisition2,33651.0,-0.211791992188,0.225158691406,0.514770507812,0.799682617188,105.125,-272.875,54.0,-3.71,-3.68,13.79
1542222551974111080,383,0,/imu_data_acquisition2,33663.0,-0.191223144531,0.211303710938,0.520446777344,0.804931640625,108.375,-284.9375,41.625,-4.78,-2.86,14.55
1542222551982839107,384,0,/imu_data_acquisition2,33672.0,-0.0143432617188,-6.103515625e-05,-6.103515625e-05,0.810363769531,107.0,-291.875,28.125,-4.78,-2.86,14.55
1542222551991537094,385,0,/imu_data_acquisition2,33681.0,-0.149841308594,0.180969238281,0.528442382812,0.815795898438,105.3125,-297.75,16.0,-5.11,-3.01,13.58
1542222552001755952,386,0,/imu_data_acquisition2,33691.0,-0.1279296875,0.166076660156,0.530090332031,0.821655273438,125.1875,-296.4375,0.125,-5.1,-2.45,12.56
1542222552010087013,387,0,/imu_data_acquisition2,33699.0,-0.10595703125,0.151062011719,0.531311035156,0.826843261719,125.1875,-296.4375,0.125,-5.5,-1.33,12.71
1542222552023359060,388,0,/imu_data_acquisition2,33713.0,-0.0828247070312,0.139770507812,0.532043457031,0.830932617188,158.8125,-264.0,8.4375,-2.26,-0.01,-0.01
1542222552032618999,389,0,/imu_data_acquisition2,33722.0,-0.0596313476562,0.128479003906,0.533630371094,0.833740234375,157.375,-263.375,25.125,-10.74,2.65,21.69
1542222552040380001,390,0,/imu_data_acquisition2,33730.0,-0.036865234375,0.116760253906,0.536865234375,0.834716796875,146.6875,-263.9375,51.875,-11.04,3.71,20.67
1542222552050123929,391,0,/imu_data_acquisition2,33739.0,-0.0150756835938,0.104675292969,0.542053222656,0.833679199219,131.0625,-258.375,82.875,-12.27,3.62,19.75
1542222552059366941,392,0,/imu_data_acquisition2,33749.0,0.00543212890625,0.0924072265625,0.549072265625,0.830627441406,113.875,-250.4375,112.0625,-16.27,2.02,17.56
1542222552074424982,393,0,/imu_data_acquisition2,33763.0,0.023681640625,0.079345703125,0.5576171875,0.825988769531,85.8125,-241.3125,135.0,-17.96,-1.86,16.38
1542222552084268093,394,0,/imu_data_acquisition2,33774.0,0.040771484375,0.065673828125,0.566833496094,0.820190429688,69.4375,-14.5,-0.0625,-21.11,-6.01,9.74
1542222552089339017,395,0,/imu_data_acquisition2,33779.0,-6.103515625e-05,-6.103515625e-05,-6.103515625e-05,0.813781738281,65.6875,-232.9375,150.8125,-21.11,-6.01,9.74
1542222552101205110,396,0,/imu_data_acquisition2,33790.0,0.0717163085938,0.0390014648438,0.584228515625,0.807434082031,49.0625,-215.3125,140.8125,-20.91,-5.89,4.63
1542222552112412929,397,0,/imu_data_acquisition2,33801.0,0.082763671875,0.027099609375,0.591552734375,0.801574707031,24.625,-181.625,125.5,-21.0,-5.79,0.86
1542222552123507976,398,0,/imu_data_acquisition2,33812.0,0.0903930664062,0.01708984375,0.598022460938,0.796203613281,5.5,-140.3125,111.4375,-20.96,-5.29,-1.61
1542222552136975049,399,0,/imu_data_acquisition2,33826.0,0.0953369140625,0.009521484375,0.604187011719,0.791076660156,-3.0625,-98.4375,103.4375,-20.72,-2.98,-3.43
1542222552146297931,400,0,/imu_data_acquisition2,33834.0,0.0977172851562,0.0045166015625,0.610534667969,0.785888671875,-8.125,-56.1875,102.5,-20.78,-2.89,-4.09
1542222552150338888,401,0,/imu_data_acquisition2,33840.0,0.09716796875,0.00177001953125,0.617431640625,0.780639648438,-19.3125,-13.125,105.125,-20.78,-2.89,-4.09
1542222552161746978,402,0,/imu_data_acquisition2,33851.0,0.0909423828125,0.00177001953125,0.625061035156,0.775268554688,-51.5,54.375,109.5625,-22.28,-2.79,-2.21
1542222552176079034,403,0,/imu_data_acquisition2,33865.0,0.0777587890625,0.0035400390625,0.632385253906,0.770751953125,-7.3125,-0.0625,-0.0625,-20.85,-9.48,-9.78
1542222552183574914,404,0,/imu_data_acquisition2,33872.0,0.0639038085938,0.00506591796875,0.6376953125,0.767639160156,-112.25,122.6875,69.5,-2.19,-9.81,12.62
1542222552195272922,405,0,/imu_data_acquisition2,33882.0,0.0523681640625,0.0081787109375,0.6416015625,0.765197753906,-79.5625,118.6875,50.5625,6.11,-16.43,16.72
1542222552201240062,406,0,/imu_data_acquisition2,33890.0,0.04150390625,0.0142822265625,0.6435546875,0.764099121094,-51.75,139.125,21.375,3.05,-13.86,0.99
1542222552210784912,407,0,/imu_data_acquisition2,33900.0,0.0287475585938,0.0225830078125,0.64306640625,0.764953613281,-52.5625,171.625,-17.0625,0.23,-9.94,2.64
1542222552224205017,408,0,/imu_data_acquisition2,33914.0,0.0167846679688,0.0325927734375,0.641906738281,0.765930175781,-31.9375,181.25,-24.875,-2.01,-6.6,15.93
1542222552235868930,409,0,/imu_data_acquisition2,33921.0,0.00750732421875,-6.103515625e-05,-6.103515625e-05,0.766052246094,1.4375,171.5625,-12.1875,-2.99,-0.67,14.13
1542222552240611076,410,0,/imu_data_acquisition2,33930.0,-0.001220703125,0.0555419921875,0.640808105469,0.765686035156,9.8125,173.0,-7.0625,-2.29,0.51,12.02
1542222552250636100,411,0,/imu_data_acquisition2,33940.0,-0.0103759765625,0.0673217773438,0.640441894531,0.764953613281,6.9375,176.75,-3.5,-2.67,2.14,15.56
1542222552260240077,412,0,/imu_data_acquisition2,33950.0,-0.02001953125,0.07861328125,0.640808105469,0.763427734375,-2.0,176.5625,8.8125,-5.9,3.12,18.31
1542222552271497964,413,0,/imu_data_acquisition2,33961.0,-0.0298461914062,0.087890625,0.641784667969,0.76123046875,-20.1875,160.3125,18.1875,-7.25,2.19,16.85
1542222552284132003,414,0,/imu_data_acquisition2,33972.0,-0.0379028320312,0.0945434570312,0.642639160156,0.759338378906,-23.25,122.5,16.0,-6.47,-0.39,13.92
1542222552292335033,415,0,/imu_data_acquisition2,33981.0,-0.0447387695312,0.0997314453125,0.643005371094,0.758056640625,-23.125,99.75,8.0625,-4.42,-0.72,14.1
1542222552301798105,416,0,/imu_data_acquisition2,33992.0,-0.0502319335938,0.103698730469,0.643005371094,0.757141113281,-19.25,78.9375,2.3125,-3.79,-0.16,12.24
1542222552314094066,417,0,/imu_data_acquisition2,34003.0,-0.0545043945312,0.106567382812,0.642883300781,0.756530761719,-16.875,58.5625,-0.0625,-3.09,-0.04,11.77
1542222552327124118,418,0,/imu_data_acquisition2,34013.0,-0.0574951171875,0.108337402344,0.642761230469,0.756225585938,-13.75,39.4375,-1.5625,-3.77,0.37,-0.01
1542222552338124036,419,0,/imu_data_acquisition2,34026.0,-0.0595092773438,0.109191894531,0.642639160156,0.756042480469,-11.4375,23.25,-1.5,-1.83,0.18,10.54
1542222552344805002,420,0,/imu_data_acquisition2,34033.0,-0.0609130859375,0.109680175781,0.642517089844,0.755920410156,-8.1875,15.3125,-1.875,-1.83,0.18,10.54
1542222552355530023,421,0,/imu_data_acquisition2,34042.0,-0.01513671875,-6.103515625e-05,-6.103515625e-05,0.755859375,-6.75,12.6875,-1.8125,-2.45,0.34,10.49
1542222552366406917,422,0,/imu_data_acquisition2,34055.0,-0.0628662109375,0.1103515625,0.642395019531,0.755798339844,-6.0625,8.375,-0.5,-1.83,0.22,10.02
1542222552375618934,423,0,/imu_data_acquisition2,34063.0,-0.0635375976562,0.1103515625,0.642395019531,0.755676269531,-5.9375,5.0625,-0.0625,-1.65,-0.12,9.72
1542222552381743907,424,0,/imu_data_acquisition2,34070.0,-0.0640258789062,0.110290527344,0.642456054688,0.755615234375,-4.375,3.25,0.3125,-1.67,-0.03,9.65
1542222552391680955,425,0,/imu_data_acquisition2,34081.0,-0.0643310546875,0.110229492188,0.642456054688,0.755615234375,-3.5,2.0625,0.5625,-2.17,0.35,10.18
1542222552403156995,426,0,/imu_data_acquisition2,34091.0,-0.0645141601562,0.109985351562,0.642639160156,0.755493164062,-3.8125,-1.3125,2.0,-1.69,0.1,10.22
1542222552412810087,427,0,/imu_data_acquisition2,34102.0,-0.0645751953125,0.10986328125,0.642761230469,0.75537109375,-1.4375,-0.375,1.9375,-1.93,0.06,10.26
1542222552423604965,428,0,/imu_data_acquisition2,34113.0,-0.0645141601562,0.109802246094,0.642883300781,0.755310058594,-0.625,-1.0625,1.375,-1.95,0.26,9.91
1542222552431010961,429,0,/imu_data_acquisition2,34120.0,-0.064453125,0.109130859375,0.642944335938,0.755310058594,-0.125,-1.3125,1.0625,-2.4,-0.09,10.07
1542222552442125082,430,0,/imu_data_acquisition2,34132.0,-0.0640258789062,0.108459472656,0.64306640625,0.75537109375,1.0625,-2.625,1.125,-1.69,0.49,9.85
1542222552452610969,431,0,/imu_data_acquisition2,34141.0,-0.0637817382812,0.1083984375,0.643127441406,0.755310058594,1.3125,-2.3125,1.125,-1.75,0.16,9.85
1542222552461604118,432,0,/imu_data_acquisition2,34149.0,-0.0635375976562,0.108276367188,0.643188476562,0.755310058594,1.125,-2.8125,0.875,-1.75,0.24,10.13
1542222552476303100,433,0,/imu_data_acquisition2,34165.0,-0.0632934570312,0.108154296875,0.643310546875,0.755310058594,1.125,-2.875,0.9375,-1.78,0.38,9.99
1542222552485276937,434,0,/imu_data_acquisition2,34175.0,-0.0631713867188,0.108093261719,0.643371582031,0.755249023438,0.8125,-1.75,0.875,-1.62,0.38,9.95
1542222552492846012,435,0,/imu_data_acquisition2,34182.0,-0.0631713867188,0.108093261719,0.643371582031,0.755249023438,0.375,-0.1875,0.5625,-1.76,0.15,9.66
1542222552500996112,436,0,/imu_data_acquisition2,34191.0,-0.0629272460938,0.107360839844,0.643371582031,0.75537109375,0.0625,1.3125,0.375,-1.86,0.12,9.91
1542222552514894008,437,0,/imu_data_acquisition2,34205.0,-0.0626220703125,0.106567382812,0.643432617188,0.755432128906,-0.125,1.5,0.3125,-1.58,0.27,9.8
1542222552520263910,438,0,/imu_data_acquisition2,34209.0,-0.0628051757812,0.106689453125,0.643432617188,0.755432128906,-0.625,2.5,0.0,-2.13,0.02,9.39
1542222552537864923,439,0,/imu_data_acquisition2,34221.0,-0.06298828125,0.106872558594,0.643432617188,0.75537109375,-0.875,3.3125,-0.3125,-2.66,-0.1,9.89
1542222552545058012,440,0,/imu_data_acquisition2,34232.0,-0.0631103515625,0.106994628906,0.643432617188,0.75537109375,-0.4375,2.1875,-0.25,-2.1,-0.21,9.78
1542222552550215959,441,0,/imu_data_acquisition2,34240.0,-0.063232421875,0.107177734375,0.643127441406,0.755554199219,-0.0625,2.375,-0.3125,-2.18,-0.05,9.78
1542222552561153888,442,0,/imu_data_acquisition2,34250.0,-0.0632934570312,0.107360839844,0.643127441406,0.755554199219,0.625,2.125,-0.1875,-2.24,-0.03,9.65
1542222552572693109,443,0,/imu_data_acquisition2,34260.0,-0.0633544921875,0.107543945312,0.643127441406,0.755554199219,0.9375,2.0,-0.3125,-2.18,-0.09,9.81
1542222552579963922,444,0,/imu_data_acquisition2,34269.0,-0.0633544921875,0.107727050781,0.64306640625,0.755493164062,1.625,1.5625,-0.25,-1.82,-0.07,9.46
1542222552591315031,445,0,/imu_data_acquisition2,34280.0,-0.0634765625,0.107177734375,0.64306640625,0.755615234375,1.3125,2.0,-0.1875,-1.95,-0.07,9.65
1542222552602129936,446,0,/imu_data_acquisition2,34290.0,-0.0633544921875,0.107543945312,0.641967773438,0.756469726562,1.875,2.125,-0.875,-1.79,0.04,9.65
1542222552610387086,447,0,/imu_data_acquisition2,34300.0,-0.0634155273438,0.107788085938,0.641845703125,0.756530761719,1.75,3.125,-1.5,-2.08,-0.01,-0.01
1542222552621751070,448,0,/imu_data_acquisition2,34310.0,-0.0635375976562,0.108032226562,0.641784667969,0.756591796875,0.875,2.875,-0.9375,-2.02,0.14,9.68
1542222552637167930,449,0,/imu_data_acquisition2,34323.0,-0.0635986328125,0.107604980469,0.641723632812,0.756713867188,0.125,2.8125,-1.0,-1.89,0.14,9.78
1542222552642395973,450,0,/imu_data_acquisition2,34332.0,-0.063720703125,0.107299804688,0.641662597656,0.756774902344,-0.3125,3.0625,-1.0625,-1.97,0.14,9.61
1542222552652194023,451,0,/imu_data_acquisition2,34341.0,-0.0637817382812,0.107055664062,-6.103515625e-05,0.757995605469,-1.0,3.5,-1.4375,-2.09,0.05,9.73
1542222552660959005,452,0,/imu_data_acquisition2,34349.0,-0.0640869140625,0.106872558594,0.640197753906,0.758056640625,-0.9375,3.6875,-1.375,-2.24,0.08,9.73
1542222552671015024,453,0,/imu_data_acquisition2,34360.0,-0.0643920898438,0.106689453125,0.640014648438,0.758178710938,-1.3125,3.625,-1.9375,-2.09,0.05,9.78
1542222552682073116,454,0,/imu_data_acquisition2,34371.0,-0.0647583007812,0.1064453125,0.639892578125,0.75830078125,-1.4375,3.875,-2.0,-2.04,0.04,9.44
1542222552691291093,455,0,/imu_data_acquisition2,34380.0,-0.065185546875,0.106201171875,0.639770507812,0.758422851562,-1.875,3.8125,-2.4375,-2.19,-0.06,9.5
1542222552700870990,456,0,/imu_data_acquisition2,34390.0,-0.0655517578125,0.106018066406,0.639587402344,0.758544921875,-2.1875,2.4375,-2.25,-2.34,0.01,9.52
1542222552712526082,457,0,/imu_data_acquisition2,34400.0,-0.0659790039062,0.105712890625,0.639465332031,0.758666992188,-3.0,1.375,-2.4375,-2.31,-0.06,9.66
1542222552721195936,458,0,/imu_data_acquisition2,34410.0,-0.0662231445312,0.10498046875,0.639343261719,0.758850097656,-3.8125,0.3125,-2.375,-1.64,0.1,-0.01
1542222552730981111,459,0,/imu_data_acquisition2,34420.0,-0.06640625,0.104125976562,0.639221191406,0.759033203125,-4.25,0.875,-2.3125,-1.75,0.02,9.82
1542222552739964008,460,0,/imu_data_acquisition2,34429.0,-0.06689453125,0.10400390625,0.639099121094,0.759094238281,-5.0,2.1875,-2.375,-1.5,0.05,10.0
1542222552751270055,461,0,/imu_data_acquisition2,34440.0,-0.0675659179688,0.103942871094,0.638977050781,0.759216308594,-6.0,4.6875,-3.125,-2.02,0.24,-0.01
