%time,field.header.seq,field.header.stamp,field.header.frame_id,field.time_stamp,field.quat_x,field.quat_y,field.quat_z,field.quat_w,field.gyro_x,field.gyro_y,field.gyro_z,field.accel_x,field.accel_y,field.accel_z
1541792316329948902,3427,0,/imu_data_acquisition2,241287.0,-0.26123046875,-0.000732421875,0.512573242188,0.817932128906,44.6875,212.625,-206.1875,-1.84,-4.94,9.69
1541792316340651035,3428,0,/imu_data_acquisition2,241294.0,-0.264953613281,0.0123901367188,0.491455078125,0.829528808594,78.75,215.1875,-234.0625,-2.22,-2.33,11.3
1541792316347517013,3430,0,/imu_data_acquisition2,241306.0,-0.268676757812,0.0365600585938,0.444885253906,0.853515625,86.9375,192.625,-265.0,1.07,1.0,15.52
1541792316354437112,3431,0,/imu_data_acquisition2,241313.0,-0.268676757812,0.0365600585938,0.444885253906,0.853515625,86.9375,192.625,-265.0,1.07,1.0,15.52
1541792316363765954,3432,0,/imu_data_acquisition2,241323.0,-0.26953125,0.044921875,0.421997070312,0.864440917969,80.4375,157.6875,-0.0625,4.13,10.59,17.25
1541792316370248079,3433,0,/imu_data_acquisition2,241330.0,-0.270324707031,0.0498657226562,0.402038574219,0.873413085938,55.625,113.0625,-233.375,4.96,8.11,-0.01
1541792316380247116,3434,0,/imu_data_acquisition2,241340.0,-0.271179199219,0.0511474609375,0.387512207031,0.879577636719,25.375,60.125,-176.625,7.12,10.78,16.54
1541792316391521930,3435,0,/imu_data_acquisition2,241350.0,-0.267028808594,0.05078125,0.37744140625,0.88525390625,65.875,6.3125,-128.8125,8.2,13.27,13.92
1541792316403805017,3436,0,/imu_data_acquisition2,241363.0,-0.261962890625,0.049072265625,0.373718261719,0.888427734375,57.625,-30.625,-56.125,7.6,9.53,14.09
1541792316413830041,3437,0,/imu_data_acquisition2,241373.0,-0.256164550781,0.0466918945312,0.375671386719,0.889465332031,52.8125,-57.8125,12.0625,6.6,8.12,14.56
1541792316420732021,3438,0,/imu_data_acquisition2,241380.0,-0.247924804688,0.0439453125,0.3818359375,0.889282226562,70.5,-0.0625,-0.0625,4.26,4.76,13.52
1541792316432534933,3439,0,/imu_data_acquisition2,241391.0,-0.238220214844,0.0403442382812,0.391845703125,0.887756347656,76.375,-109.8125,106.375,2.79,3.12,13.51
1541792316440798044,3440,0,/imu_data_acquisition2,241400.0,-0.227661132812,0.0360717773438,0.40478515625,0.884887695312,76.4375,-129.125,142.3125,1.25,1.18,13.24
1541792316455162048,3441,0,/imu_data_acquisition2,241414.0,-0.216857910156,0.031005859375,0.419982910156,0.880676269531,71.125,-144.125,170.25,-2.26,-1.67,11.44
1541792316464989900,3442,0,/imu_data_acquisition2,241424.0,-0.205749511719,0.0252075195312,0.436584472656,0.87548828125,67.5,-156.0625,188.25,-3.22,-1.85,11.12
1541792316470751047,3443,0,/imu_data_acquisition2,241430.0,-0.194641113281,0.0189819335938,0.453979492188,0.869262695312,62.8125,-162.5625,200.875,-0.66,-0.01,-0.01
1541792316482875108,3444,0,/imu_data_acquisition2,241442.0,-0.0120239257812,-6.103515625e-05,-6.103515625e-05,0.862182617188,56.875,-161.375,209.875,-4.19,-2.01,10.87
1541792316493038892,3445,0,/imu_data_acquisition2,241451.0,-0.173828125,0.0067138671875,0.489807128906,0.854309082031,49.1875,-156.375,215.5,-5.44,-1.55,10.52
1541792316504859924,3446,0,/imu_data_acquisition2,241464.0,-0.164123535156,0.0009765625,0.507446289062,0.845886230469,46.0,-149.4375,216.5625,-6.27,-2.11,10.33
1541792316518636941,3447,0,/imu_data_acquisition2,241474.0,-0.1552734375,-0.00433349609375,0.524658203125,0.837036132812,39.25,-139.9375,215.4375,-6.27,-2.11,10.33
1541792316523504018,3448,0,/imu_data_acquisition2,241482.0,-0.147155761719,-0.00927734375,0.541137695312,0.827941894531,33.875,-130.5625,210.125,-6.64,-2.28,9.88
1541792316531791925,3449,0,/imu_data_acquisition2,241491.0,-0.139587402344,-0.0137939453125,0.556518554688,0.818908691406,31.0625,-120.5,199.8125,-6.49,-2.34,9.0
1541792316543010950,3450,0,/imu_data_acquisition2,241501.0,-0.132690429688,-0.0177612304688,0.570739746094,0.810180664062,29.0,-108.625,187.75,-6.56,-2.41,8.8
1541792316555444002,3451,0,/imu_data_acquisition2,241514.0,-0.126586914062,-0.0209350585938,0.583679199219,0.8017578125,26.0625,-93.5625,174.9375,-6.17,-3.55,8.67
1541792316565048933,3452,0,/imu_data_acquisition2,241524.0,-0.121398925781,-0.0232543945312,0.595458984375,0.793823242188,24.5,-77.4375,161.8125,-5.93,-3.61,9.1
1541792316570544958,3453,0,/imu_data_acquisition2,241530.0,-0.116638183594,-0.0243530273438,0.60595703125,0.786499023438,28.875,-13.375,-0.0625,-0.81,-0.01,-0.01
1541792316582133054,3454,0,/imu_data_acquisition2,241541.0,-0.1123046875,-0.0244750976562,0.615356445312,0.779846191406,33.25,-46.9375,133.6875,-5.61,-3.76,9.65
1541792316593816041,3455,0,/imu_data_acquisition2,241553.0,-0.1083984375,-0.0238037109375,0.623596191406,0.773864746094,35.4375,-35.3125,119.25,-4.57,-4.24,10.1
1541792316603976011,3456,0,/imu_data_acquisition2,241562.0,-0.104797363281,-0.022705078125,0.630676269531,0.768615722656,36.625,-26.9375,104.4375,-3.95,-4.36,10.0
1541792316616108894,3457,0,/imu_data_acquisition2,241574.0,-0.101379394531,-0.0211791992188,0.636657714844,0.76416015625,38.25,-20.3125,88.5,-3.48,-4.47,10.13
1541792316623536109,3458,0,/imu_data_acquisition2,241583.0,-0.00439453125,-6.103515625e-05,-6.103515625e-05,0.760559082031,39.6875,-14.75,72.0625,-2.55,-4.31,10.37
1541792316630414962,3459,0,/imu_data_acquisition2,241590.0,-0.0951538085938,-0.0174560546875,0.644165039062,0.7587890625,40.125,-8.9375,39.0625,-2.11,-4.1,10.45
1541792316645092964,3460,0,/imu_data_acquisition2,241604.0,-0.0921020507812,-0.0155639648438,0.646789550781,0.756958007812,40.125,-8.9375,39.0625,-1.58,-3.82,10.45
1541792316654628992,3461,0,/imu_data_acquisition2,241613.0,-0.0892944335938,-0.0140991210938,0.647644042969,0.756591796875,36.1875,-9.75,11.625,-0.58,-2.99,10.47
1541792316662435054,3462,0,/imu_data_acquisition2,241622.0,-0.08642578125,-0.0130615234375,0.647888183594,0.756713867188,34.0,-12.5,-0.0625,-0.25,-2.39,10.82
1541792316672771930,3463,0,/imu_data_acquisition2,241631.0,-0.0834350585938,-0.0125122070312,0.647766113281,0.757141113281,31.4375,-18.1875,-4.4375,0.01,-1.81,11.17
1541792316683024883,3464,0,/imu_data_acquisition2,241641.0,-0.080078125,-0.0126953125,0.647521972656,0.757690429688,29.4375,-26.875,-6.8125,0.17,-1.24,11.38
1541792316690923929,3465,0,/imu_data_acquisition2,241650.0,-0.0762329101562,-0.013671875,0.647521972656,0.758117675781,26.9375,-37.75,-4.4375,0.31,0.17,11.32
1541792316704638004,3466,0,/imu_data_acquisition2,241664.0,-0.0720825195312,-0.0155029296875,0.648010253906,0.758056640625,22.8125,-49.0625,2.5625,0.25,0.74,11.13
1541792316714678049,3467,0,/imu_data_acquisition2,241674.0,-0.0676879882812,-0.018310546875,0.649291992188,0.75732421875,18.1875,-60.1875,13.625,0.07,1.1,10.97
1541792316720603942,3468,0,/imu_data_acquisition2,241680.0,-0.0629272460938,-0.0218505859375,0.6513671875,0.755798339844,14.3125,-70.5,26.4375,-0.46,0.98,10.48
1541792316735198020,3469,0,/imu_data_acquisition2,241691.0,-0.0577392578125,-0.0259399414062,0.654296875,0.753601074219,14.375,-79.0625,39.0,-0.8,0.91,10.07
1541792316745477914,3470,0,/imu_data_acquisition2,241705.0,-0.0521240234375,-0.0302734375,0.657958984375,0.750610351562,15.0,-85.8125,50.9375,-1.2,0.83,9.69
1541792316751624107,3471,0,/imu_data_acquisition2,241711.0,-0.04638671875,-0.0349731445312,0.662353515625,0.746948242188,14.0625,-90.3125,62.1875,-2.0,0.39,8.83
1541792316765120983,3472,0,/imu_data_acquisition2,241725.0,-0.0405883789062,-0.0398559570312,0.667236328125,0.74267578125,12.25,-92.9375,71.8125,-2.32,0.04,8.53
1541792316772559881,3473,0,/imu_data_acquisition2,241731.0,-0.0350341796875,-0.0448608398438,0.672546386719,0.737854003906,9.6875,-92.9375,79.6875,-2.56,-0.32,8.26
1541792316781563997,3474,0,/imu_data_acquisition2,241741.0,-0.0296630859375,-0.0498657226562,0.678100585938,0.732666015625,7.5625,-91.5,84.75,-2.79,-0.65,8.06
1541792316794333934,3475,0,/imu_data_acquisition2,241753.0,-0.0245971679688,-0.0548095703125,0.683715820312,0.727294921875,6.3125,-88.75,87.125,-3.29,-1.49,8.02
1541792316810834884,3476,0,/imu_data_acquisition2,241769.0,-0.0196533203125,-0.0594482421875,0.689147949219,0.721923828125,6.8125,-81.5,83.5625,-3.85,-1.92,8.1
1541792316816879034,3477,0,/imu_data_acquisition2,241776.0,-0.014892578125,-0.0639038085938,0.694396972656,0.716613769531,6.875,-77.625,79.3125,-4.24,-2.47,7.98
1541792316823661088,3478,0,/imu_data_acquisition2,241781.0,-0.0103149414062,-0.0680541992188,0.699279785156,0.711486816406,6.875,-77.625,79.3125,-4.24,-2.47,7.98
1541792316833316087,3479,0,/imu_data_acquisition2,241792.0,-0.0059814453125,-0.0718994140625,0.703796386719,0.706726074219,7.9375,-72.5,73.3125,-4.43,-2.78,7.98
1541792316845376014,3480,0,/imu_data_acquisition2,241805.0,-0.00189208984375,-0.0751953125,0.707763671875,0.702392578125,10.0,-65.8125,65.5,-4.45,-3.05,7.79
1541792316854458093,3481,0,/imu_data_acquisition2,241812.0,0.00201416015625,-0.077880859375,0.711181640625,0.698669433594,13.0,-58.5,56.3125,-2.34,-0.01,-0.01
1541792316864087104,3482,0,/imu_data_acquisition2,241823.0,0.005859375,-0.0797729492188,0.713989257812,0.695556640625,18.1875,-50.9375,45.75,-5.16,-3.91,7.94
1541792316871853113,3483,0,/imu_data_acquisition2,241831.0,0.0096435546875,-0.0809326171875,0.716186523438,0.693115234375,23.4375,-43.3125,35.0,-5.38,-3.91,7.84
1541792316883225917,3484,0,/imu_data_acquisition2,241841.0,0.0130615234375,-0.0814819335938,0.7177734375,0.69140625,25.4375,-35.125,24.6875,-5.72,-3.87,7.08
1541792316892774105,3485,0,/imu_data_acquisition2,241851.0,0.0159301757812,-0.0814208984375,0.718811035156,0.690246582031,25.4375,-24.875,15.6875,-5.9,-3.94,6.75
1541792316902136087,3486,0,/imu_data_acquisition2,241861.0,0.0181884765625,-0.0806884765625,0.719421386719,0.689636230469,24.875,-13.3125,7.8125,-5.99,-3.91,6.32
1541792316914673089,3487,0,/imu_data_acquisition2,241873.0,0.01953125,-0.0792846679688,0.719665527344,0.689514160156,23.1875,-0.75,1.375,-6.2,-3.94,6.33
1541792316922178983,3488,0,/imu_data_acquisition2,241880.0,0.0200805664062,-0.0773315429688,0.719604492188,0.689758300781,21.0625,11.6875,-3.9375,-6.54,-3.91,6.77
1541792316931075096,3489,0,/imu_data_acquisition2,241890.0,0.019775390625,-0.074951171875,0.719299316406,0.690368652344,17.1875,23.0625,-8.125,-6.77,-3.96,7.05
1541792316945221900,3490,0,/imu_data_acquisition2,241904.0,0.0186157226562,-0.0722045898438,0.718688964844,0.691284179688,12.9375,32.5,-11.875,-6.82,-4.1,7.19
1541792316954243898,3491,0,/imu_data_acquisition2,241912.0,0.016845703125,-0.0692138671875,0.717895507812,0.692504882812,10.4375,40.5625,-15.625,-6.88,-4.19,7.33
1541792316961885929,3492,0,/imu_data_acquisition2,241921.0,0.0145263671875,-0.0658569335938,0.716918945312,0.69384765625,8.0625,48.0625,-18.4375,-6.77,-4.17,7.37
1541792316973316907,3493,0,/imu_data_acquisition2,241931.0,0.0115966796875,-0.062255859375,0.7158203125,0.695373535156,5.5,54.9375,-20.4375,-6.61,-4.07,7.34
1541792316982525110,3494,0,/imu_data_acquisition2,241940.0,0.00860595703125,-0.0579223632812,0.714538574219,0.697143554688,10.875,63.0,-23.375,-4.96,4.81,9.31
1541792316991128921,3495,0,/imu_data_acquisition2,241950.0,0.00140380859375,-0.0569458007812,0.714416503906,0.697387695312,-51.25,68.875,1.625,-3.46,-0.37,14.14
1541792317004465103,3496,0,/imu_data_acquisition2,241963.0,-0.0037841796875,-0.0560302734375,0.714599609375,0.697265625,-34.5,51.125,5.25,3.98,12.18,20.27
1541792317012489080,3497,0,/imu_data_acquisition2,241971.0,-0.018798828125,-0.0709838867188,0.718322753906,0.691833496094,-248.5,-0.25,86.625,2.14,21.23,39.31
1541792317021102905,3498,0,/imu_data_acquisition2,241980.0,-0.0308837890625,-0.0879516601562,0.719970703125,0.687744140625,-242.8125,-40.125,54.5,2.06,-11.07,-6.22
1541792317032572984,3499,0,/imu_data_acquisition2,241991.0,-0.0333862304688,-0.0829467773438,0.716857910156,0.691467285156,19.75,67.1875,-53.125,-2.46,25.24,9.69
1541792317042798995,3500,0,/imu_data_acquisition2,242001.0,-0.0531616210938,-0.0979614257812,0.718078613281,0.68701171875,-289.6875,39.9375,61.5625,-1.54,1.94,13.72
1541792317051362037,3501,0,/imu_data_acquisition2,242010.0,-0.0686645507812,-0.111267089844,0.717712402344,0.683959960938,-241.0625,20.0,32.875,-4.2,-22.85,21.9
1541792317064146041,3502,0,/imu_data_acquisition2,242023.0,-6.103515625e-05,-6.103515625e-05,-6.103515625e-05,0.686279296875,-23.5625,-36.8125,-46.5,1.36,-2.31,-0.97
1541792317072036027,3503,0,/imu_data_acquisition2,242030.0,-6.103515625e-05,-6.103515625e-05,-6.103515625e-05,0.687927246094,-15.9375,0.8125,-12.9375,-0.68,1.96,15.96
1541792317081434965,3504,0,/imu_data_acquisition2,242041.0,-0.0709228515625,-0.120910644531,0.712646484375,0.687377929688,-65.0,-14.875,0.0,0.68,-7.48,9.81
1541792317092699050,3505,0,/imu_data_acquisition2,242052.0,-0.0726318359375,-0.122436523438,0.712219238281,0.687316894531,-27.4375,2.25,-1.4375,-0.33,-6.58,10.87
1541792317103945016,3506,0,/imu_data_acquisition2,242062.0,-0.0719604492188,-0.122314453125,0.712219238281,0.6875,6.625,-4.25,-2.3125,0.16,-5.09,9.79
1541792317112224102,3507,0,/imu_data_acquisition2,242072.0,-0.0704956054688,-0.121276855469,0.712524414062,0.6875,21.5,-3.8125,0.9375,0.98,-3.7,9.35
1541792317122898101,3508,0,/imu_data_acquisition2,242082.0,-0.0691528320312,-0.1201171875,0.712951660156,0.687438964844,21.125,-2.4375,3.3125,1.11,-1.65,9.07
1541792317133922100,3509,0,/imu_data_acquisition2,242091.0,-0.0682373046875,-0.119201660156,0.713317871094,0.687255859375,15.25,-0.875,3.5625,0.57,-1.71,9.84
1541792317143074989,3510,0,/imu_data_acquisition2,242102.0,-0.067626953125,-0.118530273438,0.713500976562,0.687194824219,10.75,0.375,1.875,0.65,-1.37,9.17
1541792317154192924,3511,0,/imu_data_acquisition2,242112.0,-0.0673217773438,-0.118225097656,0.713562011719,0.687255859375,5.0625,0.125,0.5,0.87,-1.43,9.21
1541792317161139965,3512,0,/imu_data_acquisition2,242120.0,-0.0674438476562,-0.118225097656,0.713500976562,0.687316894531,-0.9375,1.4375,-0.0625,0.37,-1.52,9.66
1541792317172980070,3513,0,/imu_data_acquisition2,242131.0,-6.103515625e-05,-6.103515625e-05,-6.103515625e-05,0.687255859375,-7.3125,1.0625,-0.5,0.36,-2.23,9.79
1541792317182885885,3514,0,/imu_data_acquisition2,242140.0,-0.0682983398438,-0.118957519531,0.713256835938,0.687377929688,-6.0,0.375,-0.0625,0.26,-1.88,9.99
1541792317191390991,3515,0,/imu_data_acquisition2,242151.0,-0.0687866210938,-0.119506835938,0.713012695312,0.6875,-8.8125,-0.1875,-2.375,0.51,-2.36,9.63
1541792317203445911,3516,0,/imu_data_acquisition2,242162.0,-0.0692749023438,-0.1201171875,0.712768554688,0.687561035156,-9.3125,-0.5,-2.375,0.58,-2.66,9.4
1541792317212490081,3517,0,/imu_data_acquisition2,242170.0,-6.103515625e-05,-6.103515625e-05,-6.103515625e-05,0.687744140625,-6.5625,0.0625,-3.5625,0.71,-2.32,9.54
1541792317221388101,3518,0,/imu_data_acquisition2,242181.0,-0.0698852539062,-0.120849609375,0.712219238281,0.68798828125,-5.0625,-0.25,-4.25,0.68,-2.25,9.55
1541792317232377052,3519,0,/imu_data_acquisition2,242191.0,-0.0703735351562,-0.121337890625,0.711853027344,0.688171386719,-8.0625,-0.125,-2.75,0.58,-2.9,9.31
1541792317242392063,3520,0,/imu_data_acquisition2,242200.0,-0.0706176757812,-0.121643066406,0.711608886719,0.688354492188,-4.8125,0.125,-2.6875,0.64,-2.82,9.62
1541792317251790046,3521,0,/imu_data_acquisition2,242211.0,-0.0707397460938,-0.121887207031,0.711486816406,0.688415527344,-3.375,-0.6875,-1.875,0.47,-2.58,9.71
1541792317262873888,3522,0,/imu_data_acquisition2,242222.0,-0.0708618164062,-0.122192382812,0.71142578125,0.688415527344,-3.6875,-1.375,-0.625,0.52,-2.83,9.43
1541792317271884918,3523,0,/imu_data_acquisition2,242230.0,-0.07080078125,-0.122375488281,0.71142578125,0.688415527344,-0.6875,-2.125,-0.3125,0.83,-2.83,9.39
1541792317281410932,3524,0,/imu_data_acquisition2,242241.0,-0.0706176757812,-0.122375488281,0.711364746094,0.6884765625,1.375,-1.9375,-0.5,0.74,-2.58,9.54
1541792317293293952,3525,0,/imu_data_acquisition2,242251.0,-0.0704345703125,-0.122436523438,0.711364746094,0.6884765625,1.1875,-1.8125,-0.1875,0.62,-2.5,9.5
1541792317301505088,3526,0,/imu_data_acquisition2,242260.0,-0.0701293945312,-0.122253417969,0.71142578125,0.688537597656,3.0625,-1.25,-0.6875,0.56,-2.32,9.76
1541792317312134027,3527,0,/imu_data_acquisition2,242271.0,-0.06982421875,-0.122253417969,0.71142578125,0.6884765625,2.125,-2.25,-0.5,0.64,-2.4,9.58
1541792317323745012,3528,0,/imu_data_acquisition2,242281.0,-0.0696411132812,-0.122192382812,0.711486816406,0.6884765625,2.0625,-1.625,-0.375,0.54,-2.5,9.56
1541792317331502914,3529,0,/imu_data_acquisition2,242291.0,-0.0693969726562,-0.122131347656,0.711059570312,0.68896484375,3.25,-2.0625,-1.3125,0.73,-2.08,9.62
1541792317343058109,3530,0,/imu_data_acquisition2,242302.0,-0.0692749023438,-0.122253417969,0.711059570312,0.68896484375,0.1875,-2.0,-0.5,0.74,-2.29,9.46
1541792317352879047,3531,0,/imu_data_acquisition2,242311.0,-0.069091796875,-0.122375488281,0.710998535156,0.68896484375,-0.5,-1.9375,-0.875,0.55,-2.51,9.35
1541792317373249053,3533,0,/imu_data_acquisition2,242332.0,-0.068603515625,-0.122192382812,0.7109375,0.689208984375,1.375,-1.625,-1.5625,0.86,-2.26,9.65
1541792317385946035,3534,0,/imu_data_acquisition2,242343.0,-0.0684204101562,-0.122192382812,0.710876464844,0.689270019531,0.0625,-1.1875,-1.25,0.55,-2.5,9.53
1541792317391258001,3535,0,/imu_data_acquisition2,242350.0,-0.0684204101562,-0.122253417969,0.710815429688,0.689270019531,-0.875,-0.9375,-0.6875,0.68,-2.76,9.7
1541792317402509927,3536,0,/imu_data_acquisition2,242361.0,-0.0682983398438,-0.122192382812,0.710754394531,0.689392089844,1.4375,-0.4375,-1.375,0.8,-2.47,9.45
1541792317412913084,3537,0,/imu_data_acquisition2,242371.0,-0.068115234375,-0.122009277344,0.710693359375,0.689453125,1.625,-0.1875,-1.25,0.68,-2.24,9.53
1541792317420896053,3538,0,/imu_data_acquisition2,242380.0,-0.068115234375,-0.121948242188,0.710632324219,0.689514160156,0.5,0.4375,-0.0625,0.36,-2.61,9.8
1541792317432483911,3539,0,/imu_data_acquisition2,242391.0,-0.068115234375,-0.121887207031,0.710632324219,0.689575195312,0.3125,0.0,-0.8125,0.8,-2.55,9.42
1541792317442651987,3540,0,/imu_data_acquisition2,242401.0,-0.0679321289062,-0.121643066406,0.710571289062,0.689697265625,2.0,0.75,-1.25,0.66,-2.2,9.82
1541792317451268911,3541,0,/imu_data_acquisition2,242410.0,-0.00543212890625,-6.103515625e-05,-6.103515625e-05,0.689758300781,-0.1875,0.375,-0.625,0.57,-2.53,9.46
1541792317462424993,3542,0,/imu_data_acquisition2,242421.0,-0.0678100585938,-0.121398925781,0.710510253906,0.689819335938,1.125,0.4375,-1.0,0.6,-2.4,9.52
1541792317472886085,3543,0,/imu_data_acquisition2,242431.0,-0.0677490234375,-0.121276855469,0.71044921875,0.689880371094,0.6875,0.375,-0.875,0.57,-2.48,9.66
1541792317481009960,3544,0,/imu_data_acquisition2,242440.0,-0.0676879882812,-0.121276855469,0.71044921875,0.68994140625,0.5,0.375,-0.8125,0.65,-2.47,9.57
1541792317492577075,3545,0,/imu_data_acquisition2,242451.0,-0.067626953125,-0.12109375,0.710388183594,0.690002441406,1.0,0.0625,-0.6875,0.46,-2.46,9.58
1541792317501878976,3546,0,/imu_data_acquisition2,242461.0,-0.0675659179688,-0.120971679688,0.710388183594,0.690002441406,0.75,0.0,-0.6875,0.57,-2.53,9.5
1541792317518002986,3547,0,/imu_data_acquisition2,242476.0,-0.0675048828125,-0.120788574219,0.710388183594,0.690124511719,1.625,-0.0625,-1.0625,0.5,-2.4,9.63
1541792317525196075,3548,0,/imu_data_acquisition2,242484.0,-0.0675048828125,-0.120666503906,0.710388183594,0.690124511719,-0.5625,-0.25,-0.5625,0.47,-2.44,9.53
1541792317533575057,3549,0,/imu_data_acquisition2,242490.0,-0.0674438476562,-0.120544433594,0.710327148438,0.690185546875,-0.3125,-0.5625,-1.0625,0.57,-2.34,9.5
1541792317542026042,3550,0,/imu_data_acquisition2,242501.0,-0.0675048828125,-0.12060546875,0.710266113281,0.690246582031,-1.25,-0.625,-0.8125,0.6,-2.45,9.4
1541792317553529024,3551,0,/imu_data_acquisition2,242512.0,-0.0675048828125,-0.120727539062,0.710205078125,0.690246582031,-1.8125,-0.875,-0.6875,0.64,-2.56,9.5
1541792317562100887,3552,0,/imu_data_acquisition2,242520.0,-0.0675659179688,-0.120788574219,0.710205078125,0.690307617188,-1.5,-0.8125,-0.8125,0.44,-2.45,9.41
1541792317572007894,3553,0,/imu_data_acquisition2,242531.0,-0.00506591796875,-6.103515625e-05,-6.103515625e-05,0.690307617188,-1.1875,-0.9375,-0.6875,0.76,-2.51,9.57
1541792317582915067,3554,0,/imu_data_acquisition2,242541.0,-0.0675659179688,-0.120910644531,0.710083007812,0.690307617188,-1.1875,-0.875,-0.625,0.4,-2.58,9.66
1541792317590877056,3555,0,/imu_data_acquisition2,242550.0,-0.067626953125,-0.121032714844,0.710083007812,0.690307617188,-1.8125,-1.4375,-0.3125,0.53,-2.5,9.53
1541792317602834939,3556,0,/imu_data_acquisition2,242561.0,-0.067626953125,-0.121154785156,0.710083007812,0.690307617188,-1.0625,-1.375,-0.625,0.63,-2.47,9.48
1541792317613781929,3557,0,/imu_data_acquisition2,242571.0,-0.0675659179688,-0.121154785156,0.710083007812,0.690307617188,-1.0,-1.0,-0.4375,0.52,-2.38,9.48
1541792317621957063,3558,0,/imu_data_acquisition2,242580.0,-0.00518798828125,-6.103515625e-05,-6.103515625e-05,0.690307617188,-1.6875,-0.5625,-0.375,0.53,-2.67,9.63
1541792317632631063,3559,0,/imu_data_acquisition2,242591.0,-0.0676879882812,-0.121337890625,0.710083007812,0.690307617188,-1.25,-1.0,-0.375,0.82,-2.45,9.36
1541792317643178939,3560,0,/imu_data_acquisition2,242600.0,-0.0677490234375,-0.121398925781,0.710083007812,0.690307617188,-1.25,-0.3125,-0.375,0.73,-2.4,9.4
1541792317652043104,3561,0,/imu_data_acquisition2,242611.0,-0.0678100585938,-0.121520996094,0.710021972656,0.690246582031,-2.0,-0.75,-0.5,0.41,-2.53,9.51
1541792317663104057,3562,0,/imu_data_acquisition2,242622.0,-0.0679931640625,-0.121704101562,0.710021972656,0.690246582031,-3.0625,-0.625,0.1875,0.68,-2.73,9.38
1541792317672190904,3563,0,/imu_data_acquisition2,242630.0,-0.0680541992188,-0.121765136719,0.7099609375,0.690246582031,-1.0,-0.1875,-0.625,0.67,-2.45,9.58
1541792317681814908,3564,0,/imu_data_acquisition2,242641.0,-0.0681762695312,-0.121887207031,0.7099609375,0.690246582031,-2.625,-0.25,-0.3125,0.67,-2.49,9.51
1541792317693624973,3565,0,/imu_data_acquisition2,242651.0,-0.0682373046875,-0.121948242188,0.7099609375,0.690246582031,-1.6875,-0.5,-0.375,0.62,-2.4,9.59
1541792317702223062,3566,0,/imu_data_acquisition2,242660.0,-0.0684204101562,-0.1220703125,0.709899902344,0.690246582031,-3.1875,0.3125,0.0625,0.45,-2.63,9.69
1541792317712114095,3567,0,/imu_data_acquisition2,242671.0,-6.103515625e-05,-6.103515625e-05,-6.103515625e-05,0.690246582031,-1.9375,0.1875,-0.625,0.59,-2.42,9.59
1541792317723932981,3568,0,/imu_data_acquisition2,242681.0,-0.0687255859375,-0.122253417969,0.709838867188,0.690246582031,-3.5,0.5,-0.125,0.63,-2.63,9.54
1541792317730954885,3569,0,/imu_data_acquisition2,242690.0,-0.0689086914062,-0.122314453125,0.709838867188,0.690246582031,-2.625,0.6875,-0.5625,0.71,-2.42,9.64
1541792317742644071,3570,0,/imu_data_acquisition2,242702.0,-0.0692138671875,-0.122436523438,0.709777832031,0.690246582031,-3.8125,0.875,-0.0625,0.46,-2.8,9.71
1541792317754208087,3571,0,/imu_data_acquisition2,242711.0,-0.0695190429688,-0.122680664062,0.709716796875,0.690185546875,-4.875,0.75,-0.1875,0.58,-2.48,9.26
1541792317761205911,3572,0,/imu_data_acquisition2,242720.0,-0.06982421875,-0.122741699219,0.709655761719,0.690246582031,-3.8125,1.1875,-0.75,0.57,-2.48,9.52
1541792317772617101,3573,0,/imu_data_acquisition2,242731.0,-0.0701904296875,-0.122985839844,0.709594726562,0.690246582031,-5.0625,1.0625,-0.5,0.87,-2.68,9.54
1541792317781414031,3574,0,/imu_data_acquisition2,242740.0,-0.0706176757812,-0.0137939453125,-6.103515625e-05,0.690246582031,-5.3125,1.8125,-0.5,0.4,-2.66,9.65
1541792317790947914,3575,0,/imu_data_acquisition2,242750.0,-0.071044921875,-0.123474121094,0.70947265625,0.690185546875,-5.9375,1.125,-0.5,0.75,-2.51,9.37
1541792317802578926,3576,0,/imu_data_acquisition2,242761.0,-0.0714721679688,-0.123596191406,0.709350585938,0.690246582031,-5.8125,1.875,-0.75,0.3,-2.47,9.55
1541792317812469959,3577,0,/imu_data_acquisition2,242771.0,-0.0718994140625,-0.123840332031,0.709289550781,0.690185546875,-7.0,1.0,-0.375,0.67,-2.36,9.3
1541792317821419954,3578,0,/imu_data_acquisition2,242780.0,-0.0723266601562,-0.1240234375,0.709167480469,0.690246582031,-5.8125,1.6875,-0.6875,0.66,-2.66,9.65
1541792317833282947,3579,0,/imu_data_acquisition2,242791.0,-0.07275390625,-0.124450683594,0.709106445312,0.690185546875,-7.5,0.75,-0.0625,0.83,-2.73,9.31
1541792317843399047,3580,0,/imu_data_acquisition2,242802.0,-0.0733032226562,-0.0152587890625,-6.103515625e-05,0.690185546875,-6.0,2.75,-0.4375,0.05,-3.09,8.94
1541792317852343082,3581,0,/imu_data_acquisition2,242811.0,-0.0741577148438,-0.125183105469,0.708984375,0.690063476562,-11.875,2.25,1.6875,1.15,-3.16,9.39
1541792317862045049,3582,0,/imu_data_acquisition2,242820.0,-0.074462890625,-0.125061035156,0.708801269531,0.690185546875,-1.4375,4.375,-2.0,1.09,-1.52,9.56
1541792317872466087,3583,0,/imu_data_acquisition2,242831.0,-0.0753173828125,-0.125244140625,0.708679199219,0.690185546875,-8.9375,5.1875,0.375,0.58,-2.78,9.78
1541792317882514953,3584,0,/imu_data_acquisition2,242841.0,-0.0762939453125,-0.125732421875,0.708557128906,0.690185546875,-11.9375,4.875,0.375,0.3,-2.53,10.61
1541792317890821933,3585,0,/imu_data_acquisition2,242850.0,-0.0137939453125,-6.103515625e-05,-6.103515625e-05,0.690185546875,-8.8125,4.625,-1.375,1.09,-1.93,9.48
1541792317902894973,3586,0,/imu_data_acquisition2,242861.0,-0.0781860351562,-0.126403808594,0.708129882812,0.690246582031,-13.0,6.25,-0.4375,1.06,-2.37,9.39
1541792317912976980,3587,0,/imu_data_acquisition2,242871.0,-0.0797119140625,-0.126953125,0.707885742188,0.690185546875,-17.4375,8.3125,0.375,1.06,-2.73,8.54
1541792317920905113,3588,0,/imu_data_acquisition2,242880.0,-0.0813598632812,-0.127197265625,0.707580566406,0.690368652344,-15.5625,12.0,-1.875,1.34,-2.25,-0.01
1541792317931724071,3589,0,/imu_data_acquisition2,242890.0,-0.0813598632812,-0.127197265625,0.707580566406,0.690368652344,-20.125,16.25,-2.125,2.01,-2.04,9.02
1541792317944200992,3590,0,/imu_data_acquisition2,242902.0,-0.0862426757812,-0.127380371094,0.706481933594,0.690856933594,-22.75,24.75,-3.6875,1.68,-1.37,9.36
1541792317951167106,3591,0,/imu_data_acquisition2,242910.0,-0.0123901367188,-6.103515625e-05,-6.103515625e-05,0.690856933594,-43.0,29.4375,-0.6875,1.85,-4.52,8.38
1541792317962876081,3592,0,/imu_data_acquisition2,242921.0,-0.0950927734375,-0.127746582031,0.704528808594,0.691589355469,-34.5,45.0625,-8.0,1.53,-0.95,9.99
1541792317972613096,3593,0,/imu_data_acquisition2,242931.0,-0.100952148438,-0.127136230469,0.703308105469,0.692077636719,-43.9375,55.75,-5.0625,1.56,-5.88,8.63
1541792317980848073,3594,0,/imu_data_acquisition2,242940.0,-0.100952148438,-0.127136230469,0.703308105469,0.692077636719,-46.8125,68.25,-6.4375,1.33,-2.54,9.82
1541792317992697000,3595,0,/imu_data_acquisition2,242951.0,-0.113708496094,-0.122680664062,0.699645996094,0.694641113281,-23.125,82.625,-0.0625,1.1,-1.57,9.36
1541792318002015113,3596,0,/imu_data_acquisition2,242961.0,-0.121826171875,-0.1201171875,0.697448730469,0.695922851562,-46.9375,92.8125,-13.3125,0.65,-5.05,9.62
1541792318011003017,3597,0,/imu_data_acquisition2,242970.0,-0.129150390625,-0.115966796875,0.69482421875,0.697937011719,-27.0625,101.5625,-22.1875,0.97,-2.87,9.34
1541792318025190114,3598,0,/imu_data_acquisition2,242981.0,-0.136596679688,-0.110961914062,0.691772460938,0.700378417969,-20.875,110.75,-27.25,0.31,-3.31,9.65
1541792318032139062,3599,0,/imu_data_acquisition2,242991.0,-0.144653320312,-0.105651855469,0.688293457031,0.702941894531,-23.375,118.75,-30.375,-0.01,-3.22,9.54
1541792318042071104,3600,0,/imu_data_acquisition2,243001.0,-0.153076171875,-0.0062255859375,-6.103515625e-05,0.705749511719,-23.5625,126.125,-34.125,0.24,-3.37,9.94
1541792318053541898,3601,0,/imu_data_acquisition2,243011.0,-0.161682128906,-0.0936279296875,0.680236816406,0.708740234375,-19.9375,134.0625,-0.0625,0.13,-2.43,10.05
1541792318064037084,3602,0,/imu_data_acquisition2,243022.0,-0.170776367188,-0.0870361328125,0.675720214844,0.711791992188,-22.8125,140.5,-39.875,-0.13,-2.76,9.46
1541792318072673082,3603,0,/imu_data_acquisition2,243032.0,-0.180908203125,-0.0805053710938,0.670776367188,0.714721679688,-32.375,148.875,-41.4375,-0.62,-3.86,9.99
1541792318084408998,3604,0,/imu_data_acquisition2,243042.0,-0.19140625,-0.0733642578125,0.665100097656,0.718078613281,-30.0625,159.6875,-49.375,-0.85,-3.96,9.97
1541792318095012903,3605,0,/imu_data_acquisition2,243053.0,-0.2021484375,-0.0654907226562,0.658630371094,0.721862792969,-26.5,168.75,-57.375,-0.98,-0.01,-0.01
1541792318101727008,3606,0,/imu_data_acquisition2,243061.0,-0.212524414062,-0.0568237304688,0.6513671875,0.726196289062,-16.0625,176.4375,-67.25,-1.42,-4.14,9.73
1541792318113873004,3607,0,/imu_data_acquisition2,243072.0,-0.222351074219,-0.0472412109375,0.643127441406,0.731201171875,-3.75,181.625,-78.625,-1.76,-4.08,9.15
1541792318124578952,3608,0,/imu_data_acquisition2,243083.0,-0.231811523438,-0.037109375,0.633911132812,0.736938476562,5.1875,187.4375,-91.3125,-1.71,-4.36,9.01
1541792318131838083,3609,0,/imu_data_acquisition2,243091.0,-0.231811523438,-0.037109375,0.633911132812,0.736938476562,20.75,195.0625,-108.8125,-1.75,-4.32,9.18
1541792318143455982,3610,0,/imu_data_acquisition2,243103.0,-0.248413085938,-0.0137939453125,0.610961914062,0.751525878906,39.3125,202.5625,-129.8125,-2.04,-4.66,8.95
1541792318154947042,3611,0,/imu_data_acquisition2,243113.0,-0.25537109375,-0.00079345703125,0.596801757812,0.760681152344,57.0,208.9375,-152.25,-2.03,-5.55,9.23
1541792318161744117,3612,0,/imu_data_acquisition2,243121.0,-6.103515625e-05,-6.103515625e-05,-6.103515625e-05,0.760681152344,86.4375,213.8125,-177.75,-2.12,-4.92,9.57
1541792318174038887,3613,0,/imu_data_acquisition2,243133.0,-0.263549804688,0.0285034179688,0.562377929688,0.783264160156,115.3125,213.1875,-203.25,-2.5,-2.53,9.75
1541792318185050964,3614,0,/imu_data_acquisition2,243143.0,-0.26611328125,0.0427856445312,0.542724609375,0.795471191406,116.25,206.3125,-220.0625,-1.97,-3.47,9.31
1541792318192038059,3615,0,/imu_data_acquisition2,243151.0,-0.268737792969,0.0556640625,0.52197265625,0.8076171875,106.625,197.375,-234.0,-1.67,-5.42,9.67
1541792318203907966,3616,0,/imu_data_acquisition2,243163.0,-0.268737792969,0.0556640625,0.52197265625,0.8076171875,122.75,186.5,-256.6875,2.66,-1.89,12.84
1541792318214871883,3617,0,/imu_data_acquisition2,243172.0,-0.268859863281,0.0784912109375,0.476013183594,0.833679199219,131.125,162.1875,-271.375,4.44,3.02,15.87
1541792318222376108,3618,0,/imu_data_acquisition2,243182.0,-6.103515625e-05,-6.103515625e-05,-6.103515625e-05,0.846069335938,119.0625,122.9375,-269.5,6.97,6.62,16.0
1541792318233835935,3619,0,/imu_data_acquisition2,243192.0,-0.267150878906,0.0857543945312,0.453247070312,0.846069335938,73.375,73.0,-237.1875,7.15,7.87,17.57
1541792318244226932,3620,0,/imu_data_acquisition2,243202.0,-0.266357421875,0.0884399414062,0.434020996094,0.856079101562,47.1875,21.0,-187.6875,8.55,8.09,15.44
1541792318252358913,3621,0,/imu_data_acquisition2,243212.0,-0.265075683594,0.0874633789062,0.419555664062,0.86376953125,72.3125,-33.0625,-138.5625,8.54,11.24,13.55
1541792318263974905,3622,0,/imu_data_acquisition2,243222.0,-0.259582519531,0.08447265625,0.409606933594,0.870422363281,79.5,-0.0625,-0.0625,7.7,9.83,13.42
1541792318275599002,3623,0,/imu_data_acquisition2,243233.0,-6.103515625e-05,-6.103515625e-05,-6.103515625e-05,0.875305175781,65.375,-88.75,-10.6875,4.53,5.23,14.87
1541792318282284021,3624,0,/imu_data_acquisition2,243242.0,-0.244262695312,0.0762329101562,0.405395507812,0.877624511719,72.3125,-114.3125,39.8125,3.24,3.19,14.74
1541792318294171094,3625,0,/imu_data_acquisition2,243253.0,-0.234680175781,0.071044921875,0.410217285156,0.87841796875,74.125,-138.25,82.9375,1.87,3.67,13.38
1541792318305872917,3626,0,/imu_data_acquisition2,243263.0,-0.223876953125,0.0650024414062,0.418640136719,0.877746582031,71.75,-152.875,121.0,-1.7,1.45,13.05
1541792318312391042,3627,0,/imu_data_acquisition2,243272.0,-0.212463378906,0.0584716796875,0.429992675781,0.87548828125,54.625,-161.8125,158.5625,-3.28,-0.01,12.7
1541792318324505090,3628,0,/imu_data_acquisition2,243283.0,-0.201721191406,0.0513305664062,0.444274902344,0.871337890625,44.375,-168.25,184.625,-4.22,-0.58,12.04
1541792318333940982,3629,0,/imu_data_acquisition2,243292.0,-0.191284179688,0.0437622070312,0.46044921875,0.86572265625,37.6875,-169.0,200.8125,-5.18,-0.52,11.22
1541792318342281103,3630,0,/imu_data_acquisition2,243301.0,-0.18115234375,0.0360717773438,0.477600097656,0.858947753906,26.625,-163.25,211.9375,-6.52,-1.07,9.88
1541792318353537082,3631,0,/imu_data_acquisition2,243312.0,-0.171936035156,0.028564453125,0.495300292969,0.85107421875,19.5,-154.25,216.0625,-1.99,-0.01,-0.01
1541792318362493991,3632,0,/imu_data_acquisition2,243321.0,-0.163513183594,0.0214233398438,0.512878417969,0.842468261719,8.25,-142.0625,216.6875,-7.66,-1.78,9.62
1541792318372437000,3633,0,/imu_data_acquisition2,243331.0,-0.156372070312,0.0146484375,0.530090332031,0.833251953125,0.3125,-130.5625,209.9375,-7.4,-2.34,8.49
1541792318383483886,3634,0,/imu_data_acquisition2,243342.0,-0.150207519531,0.00823974609375,0.546508789062,0.823852539062,-4.5625,-117.75,197.625,-7.11,-2.94,7.84
1541792318391849994,3635,0,/imu_data_acquisition2,243351.0,-0.144958496094,0.0023193359375,0.561645507812,0.814575195312,-7.375,-101.375,182.125,-6.83,-3.39,7.47
1541792318402348041,3636,0,/imu_data_acquisition2,243361.0,-0.140563964844,-0.00274658203125,0.575317382812,0.805725097656,-2.25,-81.9375,163.8125,-1.26,-0.01,-0.01
1541792318412986993,3637,0,/imu_data_acquisition2,243372.0,-0.136779785156,-0.00653076171875,0.58740234375,0.797668457031,4.875,-63.1875,145.25,-0.93,-0.01,-0.01
1541792318424025058,3638,0,/imu_data_acquisition2,243382.0,-0.133361816406,-0.00885009765625,0.597839355469,0.790405273438,10.875,-45.9375,126.1875,-5.59,-3.76,8.26
1541792318431410074,3639,0,/imu_data_acquisition2,243391.0,-0.130432128906,-0.00994873046875,0.606750488281,0.784057617188,13.0,-31.4375,107.75,-4.46,-4.26,8.88
1541792318443627119,3640,0,/imu_data_acquisition2,243403.0,-0.126159667969,-0.009765625,0.620300292969,0.774108886719,14.3125,-19.625,89.1875,-3.81,-4.52,9.1
1541792318453082084,3641,0,/imu_data_acquisition2,243411.0,-6.103515625e-05,-6.103515625e-05,-6.103515625e-05,0.774108886719,17.5625,-10.6875,69.3125,-3.24,-4.66,9.35
1541792318462371110,3642,0,/imu_data_acquisition2,243421.0,-0.124450683594,-0.0087890625,0.624938964844,0.770629882812,22.8125,-3.625,48.75,-2.75,-4.52,9.65
1541792318473579883,3643,0,/imu_data_acquisition2,243432.0,-0.122802734375,-0.00732421875,0.628173828125,0.768249511719,28.125,1.1875,28.8125,-1.83,-3.8,10.0
1541792318482238054,3644,0,/imu_data_acquisition2,243441.0,-0.12109375,-0.00543212890625,0.630065917969,0.767028808594,28.125,1.1875,28.8125,-1.32,-3.41,10.09
1541792318492841005,3645,0,/imu_data_acquisition2,243452.0,-0.119323730469,-0.0035400390625,0.630737304688,0.766723632812,30.0625,3.875,-4.375,-0.73,-2.99,10.2
1541792318504226922,3646,0,/imu_data_acquisition2,243462.0,-0.117614746094,-0.001708984375,0.630432128906,0.767272949219,29.625,2.3125,-17.3125,0.22,-1.98,10.73
1541792318512271881,3647,0,/imu_data_acquisition2,243471.0,-0.115783691406,-0.00018310546875,0.629272460938,0.768493652344,29.125,-0.0625,-0.0625,0.53,-1.47,11.14
1541792318523108005,3648,0,/imu_data_acquisition2,243482.0,-0.11376953125,0.0009765625,0.627563476562,0.770202636719,29.625,-9.75,-32.1875,0.76,-0.75,11.39
1541792318532349109,3649,0,/imu_data_acquisition2,243491.0,-0.111328125,0.0015869140625,0.625549316406,0.772155761719,29.625,-9.75,-32.1875,1.12,0.75,11.25
1541792318542325973,3650,0,/imu_data_acquisition2,243501.0,-0.108337402344,0.00152587890625,0.62353515625,0.774230957031,26.9375,-32.5625,-29.5,1.15,1.31,10.99
1541792318553534030,3651,0,/imu_data_acquisition2,243512.0,-0.104858398438,0.00054931640625,0.621887207031,0.776062011719,20.625,-45.0,-19.875,1.05,1.69,10.58
1541792318563694953,3652,0,/imu_data_acquisition2,243521.0,-0.101135253906,-0.00146484375,0.620971679688,0.777282714844,12.75,-56.9375,-6.375,0.82,1.86,10.31
1541792318573390007,3653,0,/imu_data_acquisition2,243532.0,-0.0972900390625,-0.004638671875,0.621032714844,0.777709960938,4.4375,-66.875,9.25,0.08,1.74,9.8
1541792318583564043,3654,0,/imu_data_acquisition2,243542.0,-0.093505859375,-0.0086669921875,0.622192382812,0.777221679688,4.4375,-66.875,9.25,-0.4,1.65,9.79
1541792318591478109,3655,0,/imu_data_acquisition2,243550.0,-0.0897216796875,-0.0134887695312,0.624450683594,0.775756835938,-1.625,-74.5625,25.25,-0.4,1.65,9.79
1541792318602931022,3656,0,/imu_data_acquisition2,243562.0,-0.0859985351562,-0.0187377929688,0.627685546875,0.773498535156,-11.4375,-83.75,54.625,-2.24,1.02,10.12
1541792318614681005,3657,0,/imu_data_acquisition2,243572.0,-0.0823974609375,-0.0244140625,0.6318359375,0.770324707031,-14.375,-88.4375,66.1875,-2.72,0.78,10.02
1541792318623356103,3658,0,/imu_data_acquisition2,243582.0,-0.0787353515625,-0.0304565429688,0.63671875,0.766479492188,-17.625,-92.5625,76.25,-3.15,0.45,9.97
1541792318632531881,3659,0,/imu_data_acquisition2,243591.0,-0.0750732421875,-0.0369262695312,0.642150878906,0.761962890625,-17.625,-92.5625,76.25,-3.82,0.02,9.52
1541792318644262075,3660,0,/imu_data_acquisition2,243602.0,-0.0714111328125,-0.0435180664062,0.648071289062,0.756958007812,-19.0,-96.5625,88.8125,-4.1,-0.27,9.12
1541792318652399063,3661,0,/imu_data_acquisition2,243612.0,-0.067626953125,-0.0502319335938,0.654235839844,0.751586914062,-17.8125,-96.0625,92.1875,-4.37,-0.48,8.77
1541792318663590908,3662,0,/imu_data_acquisition2,243622.0,-0.0638427734375,-0.0567626953125,0.660522460938,0.745971679688,-15.3125,-93.625,92.9375,-4.64,-0.77,8.64
1541792318675103902,3663,0,/imu_data_acquisition2,243632.0,-0.0599975585938,-0.06298828125,0.666748046875,0.740173339844,-12.875,-89.875,91.4375,-4.94,-1.64,8.44
1541792318681463956,3664,0,/imu_data_acquisition2,243641.0,-0.0562744140625,-0.0689086914062,0.672790527344,0.734436035156,-12.875,-89.875,91.4375,-4.94,-1.64,8.44
1541792318693382978,3665,0,/imu_data_acquisition2,243651.0,-0.0524291992188,-0.0741577148438,0.678588867188,0.728881835938,-7.9375,-84.5625,87.5,-5.16,-2.76,8.1
1541792318705382108,3666,0,/imu_data_acquisition2,243662.0,-0.048583984375,-0.0787353515625,0.683898925781,0.723693847656,6.5,-69.8125,73.375,-5.39,-3.36,7.69
1541792318712028026,3667,0,/imu_data_acquisition2,243671.0,-0.013427734375,-6.103515625e-05,-6.103515625e-05,0.718994140625,15.3125,-61.25,63.375,-5.61,-3.84,7.69
1541792318724031925,3668,0,/imu_data_acquisition2,243682.0,-0.0405883789062,-0.0848999023438,0.69287109375,0.714904785156,20.625,-52.0625,52.75,-5.61,-4.23,7.37
1541792318732538938,3669,0,/imu_data_acquisition2,243691.0,-0.0366821289062,-0.086669921875,0.696350097656,0.711486816406,20.625,-52.0625,52.75,-5.61,-4.23,7.37
1541792318741549015,3670,0,/imu_data_acquisition2,243701.0,-0.0328979492188,-0.0875854492188,0.699096679688,0.708862304688,25.5625,-43.1875,40.75,-5.66,-4.89,6.88
1541792318754621028,3671,0,/imu_data_acquisition2,243713.0,-0.0294189453125,-0.0877685546875,0.701110839844,0.70703125,32.3125,-21.25,15.125,-5.82,-5.52,6.58
1541792318765450000,3672,0,/imu_data_acquisition2,243723.0,-0.0263671875,-0.0870971679688,0.702270507812,0.7060546875,36.375,-10.125,1.75,-6.2,-5.87,7.01
1541792318773061990,3673,0,/imu_data_acquisition2,243732.0,-0.0236206054688,-0.0855102539062,0.702697753906,0.705932617188,39.125,0.5,-10.5625,-6.29,-6.03,6.9
1541792318783735036,3674,0,/imu_data_acquisition2,243742.0,-0.0211791992188,-0.083251953125,0.702331542969,0.706665039062,39.125,0.5,-10.5625,-6.29,-6.03,6.9
1541792318793545007,3675,0,/imu_data_acquisition2,243751.0,-6.103515625e-05,-6.103515625e-05,-6.103515625e-05,0.708129882812,41.625,9.5,-22.375,-6.54,-5.93,7.17
1541792318802993059,3676,0,/imu_data_acquisition2,243762.0,-0.0173950195312,-0.07666015625,0.699584960938,0.710205078125,39.0,24.625,-39.25,-6.93,-5.93,7.33
1541792318814553022,3677,0,/imu_data_acquisition2,243773.0,-0.0162353515625,-0.0729370117188,0.697387695312,0.712768554688,37.875,31.25,-45.6875,-7.81,-5.02,7.93
1541792318825757026,3678,0,/imu_data_acquisition2,243783.0,-0.0155029296875,-0.0689086914062,0.69482421875,0.715698242188,32.3125,38.375,-52.1875,-8.13,0.72,7.45
1541792318831706047,3679,0,/imu_data_acquisition2,243791.0,-0.0155029296875,-0.0647583007812,0.691833496094,0.718994140625,32.3125,38.375,-52.1875,-8.13,0.72,7.45
1541792318844032049,3680,0,/imu_data_acquisition2,243802.0,-0.0211791992188,-0.0648803710938,0.689147949219,0.721435546875,-85.5,60.625,-27.5,-7.03,3.7,37.34
1541792318854720115,3681,0,/imu_data_acquisition2,243813.0,-0.0140991210938,-6.103515625e-05,-6.103515625e-05,0.723205566406,-85.5,60.625,-27.5,8.59,-21.83,-1.63
1541792318862998008,3682,0,/imu_data_acquisition2,243822.0,-0.0452270507812,-0.081787109375,0.688354492188,0.719299316406,-171.1875,-45.6875,20.25,1.91,11.04,14.63
1541792318874591112,3683,0,/imu_data_acquisition2,243833.0,-0.0531005859375,-0.0944213867188,0.688537597656,0.717041015625,-32.9375,27.1875,-35.9375,-4.79,-20.35,27.76
1541792318882879018,3684,0,/imu_data_acquisition2,243840.0,-0.056396484375,-0.0948486328125,0.685974121094,0.71923828125,-32.9375,27.1875,-35.9375,-4.79,-20.35,27.76
1541792318892582893,3685,0,/imu_data_acquisition2,243852.0,-0.071533203125,-0.108581542969,0.68603515625,0.715881347656,-242.5625,2.375,35.625,0.29,4.46,14.82
1541792318904653072,3686,0,/imu_data_acquisition2,243863.0,-0.071044921875,-0.111999511719,0.68359375,0.717712402344,-22.25,-3.1875,-27.4375,0.51,-9.79,9.07
1541792318914985895,3687,0,/imu_data_acquisition2,243873.0,-0.0718994140625,-0.113647460938,0.681762695312,0.719116210938,-73.625,-2.5625,6.0,-0.77,-5.87,11.72
1541792318923410892,3688,0,/imu_data_acquisition2,243883.0,-0.0762939453125,-0.118041992188,0.681396484375,0.71826171875,-4.125,-0.5625,-7.9375,0.23,-5.05,9.34
1541792318933281898,3689,0,/imu_data_acquisition2,243892.0,-0.0764770507812,-0.118286132812,0.680847167969,0.71875,-4.125,-0.5625,-7.9375,1.05,-2.55,9.48
1541792318941658973,3690,0,/imu_data_acquisition2,243900.0,-0.07568359375,-0.118103027344,0.680969238281,0.71875,8.8125,-4.625,0.5,1.05,-2.55,9.48
1541792318953733921,3691,0,/imu_data_acquisition2,243913.0,-0.0736083984375,-0.116638183594,0.681396484375,0.718811035156,28.625,-4.3125,5.0,1.11,-1.44,8.8
1541792318964550971,3692,0,/imu_data_acquisition2,243923.0,-0.0716552734375,-0.115234375,0.682006835938,0.718627929688,22.3125,-4.25,5.0625,0.93,-1.13,9.16
1541792318974287033,3693,0,/imu_data_acquisition2,243933.0,-0.070068359375,-0.114135742188,0.682556152344,0.718444824219,11.9375,-1.0625,3.75,0.74,-0.84,9.75
1541792318982954978,3694,0,/imu_data_acquisition2,243942.0,-0.0693359375,-0.113525390625,0.682922363281,0.71826171875,11.9375,-1.0625,3.75,0.59,-0.9,9.67
1541792318994126081,3695,0,/imu_data_acquisition2,243953.0,-0.0691528320312,-0.113159179688,0.683044433594,0.71826171875,4.5625,1.3125,0.875,0.59,-0.9,9.67
1541792319002768039,3696,0,/imu_data_acquisition2,243962.0,-6.103515625e-05,-6.103515625e-05,-6.103515625e-05,0.718200683594,-6.75,0.875,0.25,0.46,-2.33,-0.01
1541792319013731002,3697,0,/imu_data_acquisition2,243973.0,-0.0704956054688,-0.1142578125,0.682739257812,0.718200683594,-15.3125,1.3125,-2.5625,0.54,-2.33,9.78
1541792319024964094,3698,0,/imu_data_acquisition2,243984.0,-0.0714721679688,-0.115112304688,0.682434082031,0.71826171875,-15.3125,1.3125,-2.5625,0.17,-2.39,9.63
1541792319031456947,3699,0,/imu_data_acquisition2,243990.0,-0.072509765625,-0.115966796875,0.68212890625,0.718383789062,-15.8125,1.0625,-3.0625,0.17,-2.39,9.63
1541792319044059991,3700,0,/imu_data_acquisition2,244003.0,-0.0733642578125,-0.11669921875,0.681701660156,0.718505859375,-13.625,1.25,-3.8125,0.78,-2.69,9.71
1541792319056572914,3701,0,/imu_data_acquisition2,244013.0,-0.07421875,-0.117431640625,0.681335449219,0.718627929688,-13.625,1.25,-3.8125,0.45,-2.84,9.25
1541792319063606977,3702,0,/imu_data_acquisition2,244023.0,-0.0748901367188,-0.118041992188,0.680969238281,0.718811035156,-10.5625,0.875,-3.125,0.74,-2.79,9.42
1541792319074724912,3703,0,/imu_data_acquisition2,244034.0,-0.0755615234375,-0.118591308594,0.6806640625,0.718933105469,-7.25,0.0,-2.6875,0.71,-2.85,9.64
1541792319085751056,3704,0,/imu_data_acquisition2,244043.0,-0.0759887695312,-0.119079589844,0.680419921875,0.719055175781,-5.1875,-1.1875,-0.625,0.62,-2.78,9.42
1541792319092976093,3705,0,/imu_data_acquisition2,244052.0,-0.0764770507812,-0.119262695312,0.6787109375,0.720642089844,-5.1875,-1.1875,-0.625,0.7,-2.95,9.4
1541792319103910923,3706,0,/imu_data_acquisition2,244062.0,-0.0767211914062,-0.11962890625,0.678588867188,0.720642089844,-5.1875,-1.1875,-0.625,0.7,-0.01,-0.01
1541792319115736007,3707,0,/imu_data_acquisition2,244073.0,-0.0768432617188,-0.119934082031,0.678588867188,0.720581054688,-3.5,-1.9375,0.125,0.62,-2.32,9.39
1541792319123781919,3708,0,/imu_data_acquisition2,244083.0,-0.07666015625,-0.120056152344,0.678588867188,0.720581054688,-0.5625,-1.6875,0.1875,0.57,-2.73,9.34
1541792319134093999,3709,0,/imu_data_acquisition2,244091.0,-0.0765380859375,-0.1201171875,0.678649902344,0.720520019531,-0.5625,-1.6875,0.1875,0.57,-2.73,9.34
1541792319143810987,3710,0,/imu_data_acquisition2,244102.0,-0.076416015625,-0.120056152344,0.677978515625,0.72119140625,1.9375,-1.6875,-0.8125,0.46,-2.29,9.66
1541792319153410911,3711,0,/imu_data_acquisition2,244113.0,-0.0763549804688,-0.120239257812,0.677978515625,0.721130371094,-0.875,-1.9375,-0.0625,0.56,-2.62,9.47
1541792319165293931,3712,0,/imu_data_acquisition2,244124.0,-0.076171875,-0.120300292969,0.677917480469,0.72119140625,1.0,-1.9375,-1.0,0.76,-2.48,9.71
1541792319175513029,3713,0,/imu_data_acquisition2,244133.0,-0.0760498046875,-0.120361328125,0.677856445312,0.721252441406,0.1875,-1.75,-1.0625,0.62,-2.51,9.65
1541792319183176994,3714,0,/imu_data_acquisition2,244142.0,-0.075927734375,-0.120422363281,0.677856445312,0.721313476562,-0.5,-1.4375,-0.9375,0.62,-2.51,9.65
1541792319195069074,3715,0,/imu_data_acquisition2,244153.0,-0.0758666992188,-0.120483398438,0.677795410156,0.721313476562,-1.0625,-1.375,-0.6875,0.65,-2.49,9.67
1541792319201381921,3716,0,/imu_data_acquisition2,244160.0,-0.0133056640625,-6.103515625e-05,-6.103515625e-05,0.721313476562,-0.8125,-1.5,-0.6875,0.81,-2.67,9.53
1541792319213707923,3717,0,/imu_data_acquisition2,244173.0,-0.0757446289062,-0.120666503906,0.677734375,0.721374511719,0.25,-0.75,-0.6875,0.73,-2.94,9.52
1541792319226701974,3718,0,/imu_data_acquisition2,244184.0,-0.0757446289062,-0.120666503906,0.677734375,0.721374511719,0.25,-0.6875,-0.0625,0.81,-0.01,-0.01
1541792319231448888,3719,0,/imu_data_acquisition2,244190.0,-0.0755004882812,-0.120483398438,0.677734375,0.721435546875,3.375,-0.4375,-0.875,0.81,-2.61,9.64
1541792319244007110,3720,0,/imu_data_acquisition2,244203.0,-0.075439453125,-0.120483398438,0.677734375,0.721435546875,0.6875,0.0625,0.1875,0.61,-2.49,9.73
1541792319256186962,3721,0,/imu_data_acquisition2,244213.0,-0.0753173828125,-0.120300292969,0.677734375,0.721435546875,1.9375,0.375,-0.4375,0.61,-2.53,9.38
1541792319263591051,3722,0,/imu_data_acquisition2,244223.0,-0.0752563476562,-0.120239257812,0.677734375,0.721435546875,0.6875,0.0625,0.0625,0.72,-2.22,9.54
1541792319275137901,3723,0,/imu_data_acquisition2,244234.0,-0.0751342773438,-0.1201171875,0.677795410156,0.721496582031,2.6875,0.4375,-0.4375,0.66,-2.53,9.82
1541792319283441066,3724,0,/imu_data_acquisition2,244241.0,-0.0751342773438,-0.1201171875,0.677795410156,0.721496582031,0.1875,0.5625,0.0,0.66,-2.53,9.82
1541792319293762922,3725,0,/imu_data_acquisition2,244253.0,-0.0751953125,-0.120056152344,0.677795410156,0.721496582031,0.375,1.0,-0.25,0.71,-2.44,9.48
1541792319305202960,3726,0,/imu_data_acquisition2,244264.0,-0.0751342773438,-0.119934082031,0.677795410156,0.721496582031,0.5,0.6875,-0.0625,0.77,-2.34,9.38
1541792319316066026,3727,0,/imu_data_acquisition2,244273.0,-0.0750732421875,-0.119750976562,0.677795410156,0.721557617188,1.0625,0.625,-0.25,0.41,-2.67,9.52
1541792319325845956,3728,0,/imu_data_acquisition2,244284.0,-0.0750122070312,-0.11962890625,0.677795410156,0.721618652344,1.25,0.0625,-0.625,0.72,-2.49,9.42
1541792319334279060,3729,0,/imu_data_acquisition2,244293.0,-0.0750122070312,-0.11962890625,0.677795410156,0.721618652344,1.25,0.0625,-0.625,0.72,-2.49,9.42
1541792319344599008,3730,0,/imu_data_acquisition2,244303.0,-0.0750732421875,-0.119750976562,0.677734375,0.721557617188,-1.1875,-0.75,0.0,0.56,-2.39,9.55
1541792319353948116,3731,0,/imu_data_acquisition2,244313.0,-0.0125122070312,-6.103515625e-05,-6.103515625e-05,0.721618652344,-0.1875,-0.3125,-0.625,0.52,-2.54,9.37
1541792319365200996,3732,0,/imu_data_acquisition2,244324.0,-0.0750122070312,-0.119812011719,0.677734375,0.721618652344,-1.6875,-1.1875,-0.1875,0.46,-2.49,9.62
1541792319375154018,3733,0,/imu_data_acquisition2,244334.0,-0.0750122070312,-0.119812011719,0.677673339844,0.721618652344,-0.9375,-1.0625,-0.6875,0.84,-2.64,9.36
1541792319382584095,3734,0,/imu_data_acquisition2,244342.0,-0.0750122070312,-0.120056152344,0.677673339844,0.721618652344,-2.0,-2.0,-0.375,0.84,-2.64,9.36
1541792319393666028,3735,0,/imu_data_acquisition2,244352.0,-0.0750122070312,-0.1201171875,0.677673339844,0.721618652344,-1.6875,-1.0625,-0.6875,0.56,-2.28,9.53
1541792319402331113,3736,0,/imu_data_acquisition2,244360.0,-0.0750732421875,-0.120361328125,0.677612304688,0.721618652344,-3.3125,-1.8125,-0.5625,0.71,-2.45,9.3
1541792319414077043,3737,0,/imu_data_acquisition2,244373.0,-0.0750122070312,-0.120544433594,0.677551269531,0.721618652344,-2.0625,-1.625,-1.0,0.71,-2.79,9.46
1541792319425460100,3738,0,/imu_data_acquisition2,244384.0,-0.0751953125,-0.120849609375,0.677551269531,0.721557617188,-4.4375,-1.75,-0.1875,0.62,-2.64,9.47
1541792319431065082,3739,0,/imu_data_acquisition2,244390.0,-0.0752563476562,-0.121154785156,0.677429199219,0.721618652344,-3.1875,-1.5625,-0.875,0.62,-2.64,9.47
1541792319443387985,3740,0,/imu_data_acquisition2,244403.0,-0.075439453125,-0.121459960938,0.677429199219,0.721557617188,-3.9375,-1.4375,-0.4375,0.57,-2.77,9.73
1541792319454380035,3741,0,/imu_data_acquisition2,244411.0,-0.0755004882812,-0.121704101562,0.677368164062,0.721557617188,-2.875,-1.5,-0.8125,0.87,-2.58,9.44
1541792319465194940,3742,0,/imu_data_acquisition2,244424.0,-0.0757446289062,-0.121948242188,0.677307128906,0.721557617188,-4.125,-1.0,-0.1875,0.66,-2.78,9.66
1541792319474653005,3743,0,/imu_data_acquisition2,244434.0,-0.0758666992188,-0.122192382812,0.677307128906,0.721496582031,-3.375,-1.0,-0.5,0.45,-2.49,9.36
1541792319484121084,3744,0,/imu_data_acquisition2,244440.0,-0.0134887695312,-6.103515625e-05,-6.103515625e-05,0.721496582031,-2.625,-0.75,-0.5625,0.45,-2.49,9.36
1541792319492775917,3745,0,/imu_data_acquisition2,244452.0,-0.076171875,-0.12255859375,0.67724609375,0.721435546875,-3.3125,-0.75,-0.1875,0.87,-2.84,9.69
1541792319504084110,3746,0,/imu_data_acquisition2,244462.0,-0.0763549804688,-0.122741699219,0.67724609375,0.721435546875,-3.3125,0.1875,-0.4375,0.56,-2.69,9.59
1541792319515194892,3747,0,/imu_data_acquisition2,244473.0,-0.0765991210938,-0.122924804688,0.677185058594,0.721435546875,-3.875,0.125,-0.3125,0.51,-2.64,9.45
1541792319524698019,3748,0,/imu_data_acquisition2,244484.0,-0.076904296875,-0.123107910156,0.677185058594,0.721374511719,-3.8125,0.1875,-0.375,0.49,-2.49,9.54
1541792319532984972,3749,0,/imu_data_acquisition2,244491.0,-0.0771484375,-0.123107910156,0.677124023438,0.721374511719,-3.4375,1.0,-0.5,0.49,-2.49,9.54
1541792319543463945,3750,0,/imu_data_acquisition2,244500.0,-0.0775146484375,-0.123291015625,0.677062988281,0.721374511719,-4.875,0.875,-0.1875,0.78,-2.7,9.54
1541792319552499055,3751,0,/imu_data_acquisition2,244511.0,-0.015380859375,-6.103515625e-05,-6.103515625e-05,0.721313476562,-4.875,1.4375,-0.3125,0.51,-2.53,9.44
1541792319565067052,3752,0,/imu_data_acquisition2,244524.0,-0.078369140625,-0.123718261719,0.676940917969,0.721313476562,-6.4375,1.0625,0.0625,0.51,-2.58,9.61
1541792319576020956,3753,0,/imu_data_acquisition2,244533.0,-0.0787353515625,-0.123779296875,0.676879882812,0.721313476562,-4.25,1.5625,-0.75,0.51,-2.58,9.61
1541792319582865953,3754,0,/imu_data_acquisition2,244542.0,-0.0792236328125,-0.1240234375,0.676818847656,0.721313476562,-7.0625,1.4375,0.1875,0.55,-2.86,9.42
1541792319594023942,3755,0,/imu_data_acquisition2,244552.0,-0.0796508789062,-0.124206542969,0.6767578125,0.721313476562,-4.9375,1.6875,-0.4375,0.9,-2.66,9.42
1541792319601675987,3756,0,/imu_data_acquisition2,244560.0,-0.0802001953125,-0.12451171875,0.676635742188,0.721252441406,-7.5625,-0.0625,-0.0625,0.51,-0.01,-0.01
1541792319613806962,3757,0,/imu_data_acquisition2,244573.0,-0.0807495117188,-0.124816894531,0.676574707031,0.721252441406,-6.8125,1.5,0.0,0.54,-2.74,9.24
1541792319626701116,3758,0,/imu_data_acquisition2,244585.0,-0.0812377929688,-0.125061035156,0.676513671875,0.72119140625,-7.875,1.625,0.125,0.63,-2.76,9.43
1541792319631344079,3759,0,/imu_data_acquisition2,244590.0,-0.081787109375,-0.125366210938,0.676391601562,0.72119140625,-7.875,1.625,0.125,0.63,-2.76,9.43
1541792319642895936,3760,0,/imu_data_acquisition2,244602.0,-0.082275390625,-0.125732421875,0.676330566406,0.721130371094,-6.75,0.8125,-0.0625,1.08,-2.06,8.59
1541792319656835079,3761,0,/imu_data_acquisition2,244612.0,-0.005126953125,-6.103515625e-05,-6.103515625e-05,0.721008300781,-12.5625,3.3125,1.375,0.13,-2.96,9.79
1541792319667951107,3762,0,/imu_data_acquisition2,244624.0,-0.0842895507812,-0.126892089844,0.676147460938,0.720886230469,-14.125,2.75,0.9375,0.63,-1.69,10.36
1541792319676014900,3763,0,/imu_data_acquisition2,244635.0,-0.084716796875,-0.126770019531,0.675903320312,0.721069335938,-18.9375,4.625,2.1875,0.88,-3.75,10.27
1541792319685148954,3764,0,/imu_data_acquisition2,244641.0,-0.086181640625,-0.127563476562,0.67578125,0.720825195312,-18.9375,4.625,2.1875,0.88,-3.75,10.27
1541792319692065000,3765,0,/imu_data_acquisition2,244651.0,-0.0869140625,-0.127746582031,0.675476074219,0.721008300781,-8.3125,5.0625,-2.8125,0.41,-2.35,10.22
1541792319703077077,3766,0,/imu_data_acquisition2,244661.0,-0.0883178710938,-0.128234863281,0.675231933594,0.721008300781,-16.125,7.125,-0.75,0.62,-2.75,10.0
1541792319717334985,3767,0,/imu_data_acquisition2,244674.0,-0.0119018554688,-6.103515625e-05,-6.103515625e-05,0.720947265625,-21.0,7.5625,0.3125,1.11,-2.92,9.01
1541792319727597951,3768,0,/imu_data_acquisition2,244684.0,-0.0919189453125,-0.129516601562,0.674499511719,0.721008300781,-20.875,11.125,-1.9375,0.98,-1.24,9.68
1541792319734313011,3769,0,/imu_data_acquisition2,244693.0,-0.0943603515625,-0.129943847656,0.673889160156,0.72119140625,-25.25,16.75,-3.4375,0.98,-1.24,9.68
1541792319742722034,3770,0,/imu_data_acquisition2,244700.0,-6.103515625e-05,-6.103515625e-05,-6.103515625e-05,0.721435546875,-32.875,25.3125,-4.625,0.83,-1.88,10.99
1541792319753305912,3771,0,/imu_data_acquisition2,244713.0,-0.102172851562,-0.13134765625,0.671936035156,0.721618652344,-47.0,27.5,-4.9375,2.39,-2.06,7.74
1541792319766165018,3772,0,/imu_data_acquisition2,244724.0,-0.0145874023438,-6.103515625e-05,-6.103515625e-05,0.721923828125,-63.5,42.1875,-6.4375,1.54,-6.28,8.58
1541792319776247024,3773,0,/imu_data_acquisition2,244734.0,-0.112915039062,-0.130798339844,0.667724609375,0.724060058594,-27.375,57.5,-31.625,1.72,1.36,10.14
1541792319782347917,3774,0,/imu_data_acquisition2,244741.0,-0.12060546875,-0.130493164062,0.664794921875,0.7255859375,-66.1875,69.5625,-24.375,1.63,-5.64,8.28
1541792319793569087,3775,0,/imu_data_acquisition2,244752.0,-0.127624511719,-0.127868652344,0.660827636719,0.728454589844,-41.875,87.6875,-41.75,1.12,-6.4,9.15
1541792319802697896,3776,0,/imu_data_acquisition2,244760.0,-0.134887695312,-0.124206542969,0.656005859375,0.732116699219,-35.3125,100.875,-53.9375,1.25,-5.08,9.07
1541792319814975976,3777,0,/imu_data_acquisition2,244774.0,-0.142639160156,-0.119934082031,0.650451660156,0.736328125,-35.5,113.0625,-62.1875,0.91,-1.66,9.6
1541792319826700925,3778,0,/imu_data_acquisition2,244784.0,-0.149291992188,-0.113525390625,0.643798828125,0.741882324219,-8.5,126.0625,-80.9375,0.33,-3.97,9.43
1541792319832916021,3779,0,/imu_data_acquisition2,244790.0,-0.157592773438,-0.107543945312,0.63671875,0.747131347656,-28.0625,135.375,-80.6875,0.33,-3.97,9.43
1541792319842711925,3780,0,/imu_data_acquisition2,244802.0,-0.166259765625,-0.101013183594,0.62890625,0.752746582031,-26.1875,144.6875,-88.125,0.0,-3.75,9.5
1541792319854479074,3781,0,/imu_data_acquisition2,244813.0,-0.175048828125,-0.0935668945312,0.620300292969,0.758850097656,-21.625,155.5625,-96.5625,-0.2,-3.43,10.04
1541792319864866971,3782,0,/imu_data_acquisition2,244823.0,-0.18408203125,-0.0855712890625,0.611083984375,0.76513671875,-19.5625,164.3125,-102.625,0.1,-2.66,9.79
1541792319875940084,3783,0,/imu_data_acquisition2,244834.0,-0.193908691406,-0.0150146484375,-6.103515625e-05,0.771301269531,-27.0,172.25,-105.875,-1.16,-3.99,10.02
1541792319883766889,3784,0,/imu_data_acquisition2,244842.0,-0.204284667969,-0.0690307617188,0.590576171875,0.777648925781,-29.5,181.625,-113.5,-1.16,-3.99,10.02
1541792319891309022,3785,0,/imu_data_acquisition2,244850.0,-0.214721679688,-0.06005859375,0.578857421875,0.784362792969,-26.9375,189.625,-124.875,-1.39,-4.48,9.39
1541792319903054952,3786,0,/imu_data_acquisition2,244862.0,-0.005859375,-6.103515625e-05,-6.103515625e-05,0.791748046875,-14.9375,197.0,-139.25,-1.79,-4.66,9.08
1541792319915756940,3787,0,/imu_data_acquisition2,244874.0,-0.233642578125,-0.03955078125,0.551513671875,0.7998046875,-0.3125,203.1875,-154.75,-1.96,-4.25,9.11
1541792319924957036,3788,0,/imu_data_acquisition2,244883.0,-0.242004394531,-0.0283203125,0.535949707031,0.808349609375,10.625,208.1875,-168.3125,-1.97,-3.9,9.01
1541792319933258056,3789,0,/imu_data_acquisition2,244892.0,-0.249633789062,-0.0165405273438,0.519165039062,0.817260742188,21.5,212.5,-181.0,-2.68,-4.16,9.48
1541792319943619012,3790,0,/imu_data_acquisition2,244901.0,-0.256286621094,-0.0042724609375,0.500915527344,0.82666015625,35.125,215.5625,-196.5,-2.79,-3.64,9.37
1541792319951471090,3791,0,/imu_data_acquisition2,244910.0,-0.262329101562,0.0081787109375,0.481262207031,0.836364746094,43.25,217.5625,-0.0625,-2.79,-4.06,9.57
1541792319964950084,3792,0,/imu_data_acquisition2,244924.0,-0.267333984375,0.0205688476562,0.459716796875,0.846618652344,55.125,217.25,-233.625,-1.83,-3.27,10.29
1541792319975204944,3793,0,/imu_data_acquisition2,244933.0,-0.270751953125,0.0332641601562,0.436340332031,0.857482910156,74.75,217.125,-254.125,-2.4,-0.87,13.42
1541792319981975078,3794,0,/imu_data_acquisition2,244941.0,-0.274047851562,0.0443115234375,0.412414550781,0.86767578125,65.5,202.4375,-261.4375,-1.4,1.85,-0.01
1541792319993571996,3795,0,/imu_data_acquisition2,244952.0,-0.277465820312,0.052490234375,0.389770507812,0.876525878906,45.5,168.875,-250.875,1.54,3.61,16.47
1541792320002723932,3796,0,/imu_data_acquisition2,244960.0,-0.0132446289062,-6.103515625e-05,-6.103515625e-05,0.884216308594,48.1875,122.75,-13.6875,3.01,9.8,19.76
1541792320017695903,3797,0,/imu_data_acquisition2,244976.0,-0.277160644531,0.0609130859375,-6.103515625e-05,0.890441894531,97.5625,25.1875,-12.5625,7.25,17.38,15.14
1541792320026313066,3798,0,/imu_data_acquisition2,244985.0,-0.271118164062,0.063232421875,0.346557617188,0.895751953125,97.5625,25.1875,-108.5625,8.05,9.56,15.26
1541792320032450914,3799,0,/imu_data_acquisition2,244990.0,-0.265747070312,0.064208984375,0.344299316406,0.898193359375,70.5,-5.875,-26.8125,8.05,9.56,15.26
1541792320048062086,3800,0,/imu_data_acquisition2,245006.0,-0.2587890625,0.0640258789062,0.347778320312,0.898864746094,72.875,-42.3125,38.9375,7.65,7.3,15.15
1541792320055583953,3801,0,/imu_data_acquisition2,245013.0,-0.249084472656,0.0629272460938,0.355346679688,0.898742675781,92.1875,-74.5625,85.1875,7.04,5.82,14.37
1541792320066106081,3802,0,/imu_data_acquisition2,245022.0,-6.103515625e-05,-6.103515625e-05,-6.103515625e-05,0.8974609375,96.9375,-101.0625,124.375,4.31,1.94,14.15
1541792320076641082,3803,0,/imu_data_acquisition2,245033.0,-0.225891113281,0.0576171875,0.380004882812,0.895141601562,98.8125,-122.4375,154.9375,2.86,0.29,13.7
