%time,field.header.seq,field.header.stamp,field.header.frame_id,field.time_stamp,field.quat_x,field.quat_y,field.quat_z,field.quat_w,field.gyro_x,field.gyro_y,field.gyro_z,field.accel_x,field.accel_y,field.accel_z
1542226136945638895,70,0,/imu_data_acquisition2,102701.0,-0.360717773438,0.181579589844,0.774780273438,0.486389160156,-7.5,-0.0625,-0.0625,-3.06,-1.5,7.49
1542226136957509040,71,0,/imu_data_acquisition2,102713.0,-0.346557617188,0.165954589844,-6.103515625e-05,0.492919921875,-46.6875,-258.4375,-62.375,-4.71,-0.4,10.69
1542226136970016956,72,0,/imu_data_acquisition2,102723.0,-0.331604003906,0.152038574219,0.785339355469,0.500183105469,-7.125,-256.375,-71.8125,-5.06,0.69,11.36
1542226136977483034,73,0,/imu_data_acquisition2,102732.0,-0.315734863281,0.138671875,0.789367675781,0.507934570312,-8.375,-261.125,-72.5625,-5.26,1.25,11.65
1542226136997991085,75,0,/imu_data_acquisition2,102754.0,-0.283081054688,0.11083984375,0.796630859375,0.5224609375,-12.375,-262.75,-70.0,-5.78,-0.31,10.94
1542226137005414962,76,0,/imu_data_acquisition2,102761.0,-0.266540527344,0.09716796875,0.7998046875,0.529052734375,-9.3125,-260.0625,-66.375,-5.78,-0.31,10.94
1542226137020659923,77,0,/imu_data_acquisition2,102775.0,-0.249816894531,0.0841674804688,0.802490234375,0.535278320312,10.125,-243.375,-61.3125,-5.79,-0.82,9.48
1542226137026864051,78,0,/imu_data_acquisition2,102783.0,-0.233276367188,0.0725708007812,0.804565429688,0.541259765625,21.125,-226.4375,-60.0,-6.09,-1.17,10.57
1542226137036139011,79,0,/imu_data_acquisition2,102792.0,-0.217224121094,0.0624389648438,0.806030273438,0.547058105469,32.8125,-209.5625,-59.1875,-7.01,-1.81,13.22
1542226137045433044,80,0,/imu_data_acquisition2,102800.0,-0.201721191406,0.0538940429688,0.806823730469,0.552673339844,32.8125,-209.5625,-59.1875,-7.01,-1.81,13.22
1542226137056232929,81,0,/imu_data_acquisition2,102810.0,-0.186096191406,0.0464477539062,0.80712890625,0.558410644531,44.1875,-202.625,-60.5625,-8.37,-2.58,16.69
1542226137065679073,82,0,/imu_data_acquisition2,102822.0,-0.169372558594,0.038818359375,0.807067871094,0.564270019531,53.5,-230.1875,-67.375,-9.65,-1.92,17.13
1542226137088036060,83,0,/imu_data_acquisition2,102832.0,-0.151306152344,0.030517578125,0.806823730469,0.5703125,53.4375,-240.375,-71.0625,-9.88,-2.02,16.05
1542226137090109109,84,0,/imu_data_acquisition2,102843.0,-0.132507324219,0.021728515625,0.80615234375,0.576293945312,55.0625,-243.9375,-74.625,-10.51,-1.87,14.49
1542226137098083019,85,0,/imu_data_acquisition2,102854.0,-0.0938110351562,0.0040283203125,0.803283691406,0.588134765625,59.3125,-244.6875,-75.6875,-10.52,-1.84,13.62
1542226137108443021,86,0,/imu_data_acquisition2,102863.0,-6.103515625e-05,-6.103515625e-05,-6.103515625e-05,0.588134765625,59.3125,-244.6875,-75.6875,-10.52,-1.84,13.62
1542226137117160081,87,0,/imu_data_acquisition2,102872.0,-0.0741577148438,-0.00408935546875,0.801330566406,0.593627929688,74.75,-232.875,-70.6875,-10.66,-2.38,11.48
1542226137126924037,88,0,/imu_data_acquisition2,102883.0,-0.0546264648438,-0.0111083984375,0.799072265625,0.5986328125,85.9375,-221.4375,-66.125,-11.15,-2.41,11.35
1542226137139014005,89,0,/imu_data_acquisition2,102894.0,-0.0352172851562,-0.016845703125,0.796630859375,0.603149414062,97.0625,-209.625,-60.25,-11.69,-2.13,11.21
1542226137145396947,90,0,/imu_data_acquisition2,102901.0,-0.01611328125,-0.0211791992188,0.794189453125,0.607116699219,97.0625,-209.625,-60.25,-11.69,-2.13,11.21
1542226137156655073,91,0,/imu_data_acquisition2,102912.0,0.002685546875,-0.0243530273438,0.791809082031,0.610290527344,104.75,-198.5,-52.125,-13.42,-0.58,9.4
1542226137170752048,92,0,/imu_data_acquisition2,102923.0,0.0208129882812,-0.0269165039062,0.789672851562,0.612548828125,102.0625,-176.1875,-28.125,-13.5,-0.4,7.64
1542226137179488897,93,0,/imu_data_acquisition2,102933.0,0.0379028320312,-0.0291748046875,0.788024902344,0.61376953125,94.875,-159.875,-13.8125,-13.56,-0.62,6.03
1542226137189542055,94,0,/imu_data_acquisition2,102945.0,0.0673217773438,-0.0324096679688,0.786437988281,0.613159179688,88.25,-138.9375,-0.875,-14.4,-1.54,4.6
1542226137206001043,96,0,/imu_data_acquisition2,102961.0,0.0792846679688,-0.0331420898438,0.786437988281,0.611694335938,81.625,-117.0625,9.1875,-15.04,-1.65,4.21
1542226137216417074,97,0,/imu_data_acquisition2,102972.0,0.08935546875,-0.0335693359375,0.786743164062,0.60986328125,70.0,-97.0625,15.5,-16.7,-2.48,-0.01
1542226137228574037,98,0,/imu_data_acquisition2,102984.0,0.0971069335938,-0.0341186523438,0.787109375,0.608154296875,36.25,-51.75,13.6875,-17.05,-2.71,-0.17
1542226137238008975,99,0,/imu_data_acquisition2,102993.0,0.102355957031,-0.0344848632812,0.787536621094,0.606750488281,36.25,-51.75,13.6875,-17.29,-2.6,-0.84
1542226137246361970,100,0,/imu_data_acquisition2,103002.0,0.105041503906,-0.0341186523438,0.787780761719,0.60595703125,23.1875,-22.5,8.375,-17.29,-2.6,-0.84
1542226137258538007,101,0,/imu_data_acquisition2,103011.0,0.105041503906,-6.103515625e-05,-6.103515625e-05,0.60546875,15.0625,10.75,5.4375,-16.68,2.21,-1.02
1542226137274595975,102,0,/imu_data_acquisition2,103023.0,0.101440429688,-0.0307006835938,0.789428710938,0.604675292969,-6.25,49.25,14.9375,-6.29,8.47,2.57
1542226137278134107,103,0,/imu_data_acquisition2,103033.0,0.0924682617188,-0.0302734375,0.792175292969,0.602478027344,-116.625,120.8125,76.625,2.71,-3.48,16.23
1542226137289410114,104,0,/imu_data_acquisition2,103044.0,0.0781860351562,-0.0325317382812,0.796630859375,0.598449707031,-116.625,120.8125,-0.0625,9.04,1.75,11.71
1542226137295856952,105,0,/imu_data_acquisition2,103051.0,0.0667114257812,-0.0330810546875,0.801452636719,0.593444824219,-79.8125,107.625,86.3125,9.04,1.75,11.71
1542226137307924985,106,0,/imu_data_acquisition2,103062.0,0.0557861328125,-0.0320434570312,0.806884765625,0.587219238281,-60.0625,112.4375,100.9375,3.04,-2.54,0.13
1542226137326241016,107,0,/imu_data_acquisition2,103072.0,0.0426635742188,-0.0303344726562,0.811828613281,0.581481933594,-68.8125,138.1875,92.6875,1.1,-9.2,1.73
1542226137328614950,108,0,/imu_data_acquisition2,103083.0,0.027099609375,-0.0269775390625,0.815490722656,0.577453613281,-79.1875,163.25,33.8125,-2.27,-15.78,10.74
1542226137339679956,109,0,/imu_data_acquisition2,103093.0,-6.103515625e-05,-6.103515625e-05,-6.103515625e-05,0.575622558594,-15.1875,-0.0625,-0.0625,-2.27,-15.78,10.74
1542226137344743967,110,0,/imu_data_acquisition2,103101.0,-0.00250244140625,-0.0225830078125,0.816833496094,0.576416015625,-79.375,153.0625,-6.0,-2.36,-10.66,9.52
1542226137357872009,111,0,/imu_data_acquisition2,103113.0,-0.0159912109375,-0.0198974609375,0.8154296875,0.578308105469,-66.4375,149.5625,-24.875,-3.25,2.57,14.65
1542226137368804931,112,0,/imu_data_acquisition2,103123.0,-0.0281372070312,-0.015625,0.814514160156,0.579284667969,-41.75,146.4375,-11.9375,-4.36,4.29,15.26
1542226137377185106,113,0,/imu_data_acquisition2,103133.0,-0.00732421875,-6.103515625e-05,-6.103515625e-05,0.578369140625,-28.5,131.4375,14.1875,-3.95,1.93,14.29
1542226137388463973,114,0,/imu_data_acquisition2,103144.0,-0.0480346679688,-0.0078125,0.815795898438,0.576293945312,-33.625,112.8125,29.375,-4.41,-0.95,13.83
1542226137398534059,115,0,/imu_data_acquisition2,103151.0,-0.0571899414062,-0.0062255859375,0.816833496094,0.573974609375,-48.25,98.5625,31.625,-4.41,-0.95,13.83
1542226137405101060,116,0,/imu_data_acquisition2,103161.0,-0.0657958984375,-0.006103515625,0.817687988281,0.571838378906,-58.75,83.1875,27.3125,-3.72,-0.37,13.01
1542226137417031049,117,0,/imu_data_acquisition2,103171.0,-0.0736694335938,-0.00732421875,0.818542480469,0.569702148438,-66.3125,67.625,26.125,-2.94,-1.57,11.23
1542226137428621053,118,0,/imu_data_acquisition2,103183.0,-0.0812377929688,-0.00921630859375,0.819213867188,0.567565917969,-71.4375,59.125,23.875,-3.03,-3.91,11.31
1542226137437890052,119,0,/imu_data_acquisition2,103193.0,-0.0883178710938,-0.0116577148438,0.819763183594,0.565734863281,-72.875,51.875,20.0625,-2.91,-3.13,11.67
1542226137444576978,120,0,/imu_data_acquisition2,103200.0,-0.0947265625,-0.0145874023438,0.820129394531,0.564147949219,-73.0625,41.875,15.625,-2.91,-3.13,11.67
1542226137459844112,121,0,/imu_data_acquisition2,103214.0,-0.100341796875,-0.017822265625,0.8203125,0.562744140625,-70.125,32.75,12.1875,-2.67,-3.31,10.79
1542226137468962907,122,0,/imu_data_acquisition2,103224.0,-0.105590820312,-0.0209350585938,0.820495605469,0.561462402344,-66.625,29.5625,10.6875,-2.61,-3.54,10.91
1542226137477535963,123,0,/imu_data_acquisition2,103233.0,-0.1103515625,-0.0237426757812,0.820495605469,0.560424804688,-60.5625,27.125,8.125,-2.1,-3.11,10.48
1542226137488617897,124,0,/imu_data_acquisition2,103245.0,-6.103515625e-05,-6.103515625e-05,-6.103515625e-05,0.5595703125,-52.8125,23.4375,5.25,-2.33,-2.57,10.19
1542226137496385097,125,0,/imu_data_acquisition2,103251.0,-0.118041992188,-0.0281982421875,0.820251464844,0.559020996094,-43.4375,21.9375,3.0625,-2.33,-2.57,10.19
1542226137504317045,126,0,/imu_data_acquisition2,103260.0,-0.121154785156,-0.0297241210938,0.820007324219,0.55859375,-35.625,20.0625,1.5625,-2.56,-2.58,9.99
1542226137518244981,127,0,/imu_data_acquisition2,103274.0,-0.123779296875,-0.0308227539062,0.819763183594,0.558349609375,-28.625,18.375,0.4375,-1.82,-2.39,9.65
1542226137528539896,128,0,/imu_data_acquisition2,103283.0,-0.125915527344,-0.0316162109375,0.819519042969,0.55810546875,-22.75,15.875,-0.3125,-2.0,-2.41,9.67
1542226137546350002,130,0,/imu_data_acquisition2,103301.0,-0.129943847656,-0.0327758789062,0.818908691406,0.558044433594,-18.375,16.5,-2.25,-2.43,-2.25,9.58
1542226137556734085,131,0,/imu_data_acquisition2,103312.0,-0.131896972656,-0.0332641601562,0.818481445312,0.558166503906,-17.25,16.3125,-3.3125,-2.0,-1.82,9.06
1542226137568258047,132,0,/imu_data_acquisition2,103323.0,-0.133544921875,-0.0336303710938,0.818176269531,0.558227539062,-14.6875,13.8125,-3.0,-1.95,-2.47,9.82
1542226137579855918,133,0,/imu_data_acquisition2,103334.0,-0.135070800781,-0.0338745117188,0.817810058594,0.558349609375,-12.625,14.25,-3.1875,-2.28,-2.27,9.7
1542226137588268995,134,0,/imu_data_acquisition2,103344.0,-0.136474609375,-0.0340576171875,0.817504882812,0.558532714844,-10.4375,12.5625,-3.375,-2.1,-2.47,9.93
1542226137596415996,135,0,/imu_data_acquisition2,103352.0,-0.137634277344,-0.0341186523438,0.817199707031,0.558654785156,-8.25,11.1875,-3.0,-2.1,-2.47,9.93
1542226137605545043,136,0,/imu_data_acquisition2,103361.0,-0.138732910156,-0.0343017578125,0.817138671875,0.558410644531,-8.1875,11.125,-3.25,-2.18,-2.27,9.36
1542226137615782022,137,0,/imu_data_acquisition2,103371.0,-0.139892578125,-0.0343017578125,0.816833496094,0.55859375,-7.6875,11.4375,-3.4375,-2.4,-2.29,9.63
1542226137628599882,138,0,/imu_data_acquisition2,103384.0,-0.141235351562,-0.0343017578125,0.816528320312,0.558715820312,-6.625,10.5,-3.0,-1.93,-2.1,9.02
1542226137638595104,139,0,/imu_data_acquisition2,103394.0,-6.103515625e-05,-6.103515625e-05,-6.103515625e-05,0.558898925781,-5.3125,10.0,-2.9375,-1.93,-2.1,9.02
1542226137646436929,140,0,/imu_data_acquisition2,103401.0,-0.143127441406,-0.0341186523438,0.815979003906,0.55908203125,-5.0625,10.1875,-2.75,-1.96,-2.35,9.33
1542226137654443979,141,0,/imu_data_acquisition2,103410.0,-0.144104003906,-0.033935546875,0.815734863281,0.559143066406,-4.625,11.4375,-2.5625,-2.24,-2.37,9.44
1542226137666239976,142,0,/imu_data_acquisition2,103421.0,-0.145080566406,-0.0337524414062,0.8154296875,0.559326171875,-4.4375,11.0625,-2.8125,-2.25,-2.27,-0.01
1542226137678689956,143,0,/imu_data_acquisition2,103434.0,-0.146301269531,-0.0335693359375,0.815124511719,0.559448242188,-3.8125,10.75,-2.875,-2.6,-2.4,-0.01
1542226137688736915,144,0,/imu_data_acquisition2,103444.0,-0.0064697265625,-6.103515625e-05,-6.103515625e-05,0.559631347656,-3.1875,10.0,-2.5625,-2.6,-2.4,9.32
1542226137696476936,145,0,/imu_data_acquisition2,103451.0,-0.147888183594,-0.033203125,0.814636230469,0.559814453125,-3.4375,8.625,-0.0625,-1.82,-2.34,9.42
1542226137704637050,146,0,/imu_data_acquisition2,103460.0,-0.148498535156,-0.033203125,0.814392089844,0.559997558594,-4.0,6.625,-3.125,-2.37,-2.46,9.31
1542226137714165925,147,0,/imu_data_acquisition2,103470.0,-0.149536132812,-0.032958984375,0.814147949219,0.560119628906,-3.3125,7.125,-2.9375,-2.8,-2.17,9.42
1542226137727771043,148,0,/imu_data_acquisition2,103483.0,-0.150512695312,-0.0328979492188,0.813842773438,0.560302734375,-3.5,6.1875,-3.6875,-2.48,-2.47,9.23
1542226137740566015,149,0,/imu_data_acquisition2,103495.0,-0.151000976562,-0.0328369140625,0.813598632812,0.560546875,-2.3125,5.75,-3.375,-2.2,-2.34,9.41
1542226137747216939,150,0,/imu_data_acquisition2,103503.0,-0.151428222656,-0.03271484375,0.813354492188,0.560791015625,-1.1875,5.125,-3.625,-2.2,-2.34,9.41
1542226137755858898,151,0,/imu_data_acquisition2,103512.0,-0.151794433594,-0.0325317382812,0.813110351562,0.56103515625,-0.625,5.0,-3.625,-2.28,-2.43,9.44
1542226137767311096,152,0,/imu_data_acquisition2,103522.0,-0.152465820312,-0.0323486328125,0.812866210938,0.561218261719,-0.0625,4.875,-3.5625,-2.61,-2.49,9.1
1542226137778081893,153,0,/imu_data_acquisition2,103534.0,-0.153076171875,-0.0322265625,0.812561035156,0.561462402344,0.5625,4.625,-3.5,-2.49,-2.48,9.37
1542226137788949012,154,0,/imu_data_acquisition2,103544.0,-0.153625488281,-0.0320434570312,0.812316894531,0.561706542969,0.6875,4.0625,-3.4375,-2.49,-2.48,9.37
1542226137797885894,155,0,/imu_data_acquisition2,103552.0,-0.154174804688,-0.0317993164062,0.812072753906,0.561950683594,1.0625,3.9375,-3.625,-2.55,-2.42,9.3
1542226137806600093,156,0,/imu_data_acquisition2,103562.0,-0.154724121094,-0.0315551757812,0.811828613281,0.562133789062,1.375,3.6875,-3.4375,-2.51,-2.49,9.21
1542226137816411018,157,0,/imu_data_acquisition2,103571.0,-0.1552734375,-0.03125,0.811584472656,0.562316894531,1.75,3.625,-2.9375,-2.58,-2.45,9.35
1542226137826561927,158,0,/imu_data_acquisition2,103582.0,-0.155822753906,-0.031005859375,0.811401367188,0.5625,1.875,3.5625,-2.4375,-2.46,-0.01,-0.01
1542226137838728904,159,0,/imu_data_acquisition2,103594.0,-0.156372070312,-0.0307006835938,0.811218261719,0.562622070312,2.0625,3.9375,-2.1875,-2.51,-2.39,9.24
1542226137844744920,160,0,/imu_data_acquisition2,103600.0,-0.15673828125,-0.0303955078125,0.81103515625,0.562805175781,2.125,3.875,-1.9375,-2.26,-0.01,-0.01
1542226137855520963,161,0,/imu_data_acquisition2,103611.0,-0.157104492188,-0.014404296875,-6.103515625e-05,0.56298828125,3.0,4.3125,-2.125,-2.44,-2.44,9.05
1542226137867430925,162,0,/imu_data_acquisition2,103621.0,-0.1572265625,-0.029541015625,0.810729980469,0.563171386719,4.25,4.375,-1.75,-1.96,-2.43,9.1
1542226137879616975,163,0,/imu_data_acquisition2,103634.0,-0.157287597656,-0.0288696289062,0.810668945312,0.563232421875,6.0625,5.625,-0.4375,-2.34,-2.67,9.0
1542226137887741088,164,0,/imu_data_acquisition2,103643.0,-0.157470703125,-0.0279541015625,0.810607910156,0.563293457031,7.5625,7.875,0.75,-2.13,-2.49,9.28
1542226137897092103,165,0,/imu_data_acquisition2,103651.0,-6.103515625e-05,-6.103515625e-05,-6.103515625e-05,0.563293457031,10.125,10.3125,2.4375,-2.47,-2.57,9.04
1542226137904623031,166,0,/imu_data_acquisition2,103661.0,-0.158386230469,-0.0255737304688,0.810546875,0.563232421875,11.5625,12.4375,3.5,-2.3,-2.45,9.17
1542226137915766000,167,0,/imu_data_acquisition2,103671.0,-0.158996582031,-0.0239868164062,0.810607910156,0.563110351562,13.25,15.3125,4.9375,-2.46,-2.42,9.08
1542226137927803993,168,0,/imu_data_acquisition2,103683.0,-0.15966796875,-0.0221557617188,0.810607910156,0.562927246094,14.125,17.75,5.625,-2.42,-2.29,9.08
1542226137941181898,169,0,/imu_data_acquisition2,103696.0,-0.160461425781,-0.0202026367188,0.810668945312,0.562683105469,15.3125,19.6875,6.9375,-2.35,-2.14,9.28
1542226137946091890,170,0,/imu_data_acquisition2,103702.0,-0.161254882812,-0.0180053710938,0.810791015625,0.562377929688,16.0,21.25,7.9375,-2.35,-2.14,9.28
1542226137958595037,171,0,/imu_data_acquisition2,103713.0,-0.162109375,-0.0156860351562,0.810852050781,0.562133789062,16.8125,23.25,7.6875,-2.65,-2.12,9.15
1542226137965718030,172,0,/imu_data_acquisition2,103722.0,-0.163146972656,-0.0131225585938,0.810791015625,0.561950683594,17.8125,26.3125,6.375,-2.57,-2.21,9.09
1542226137981832981,173,0,/imu_data_acquisition2,103737.0,-0.164367675781,-0.0103149414062,0.810729980469,0.561767578125,21.0625,29.6875,8.8125,-2.72,-2.06,9.13
1542226137995964050,174,0,/imu_data_acquisition2,103748.0,-0.165405273438,-0.00738525390625,0.810791015625,0.561462402344,20.0625,32.0625,11.75,-2.96,-2.03,9.13
1542226138001010894,175,0,/imu_data_acquisition2,103751.0,-0.166625976562,-0.0042724609375,0.810913085938,0.560974121094,20.0625,32.0625,11.75,-2.96,-2.03,9.13
1542226138009663105,176,0,/imu_data_acquisition2,103766.0,-0.0119018554688,-6.103515625e-05,-6.103515625e-05,0.560180664062,19.0,34.875,15.1875,-3.54,-1.99,8.55
1542226138020860910,177,0,/imu_data_acquisition2,103774.0,-0.169921875,0.0023193359375,0.8115234375,0.55908203125,19.0625,39.0,19.625,-3.54,-1.99,8.55
1542226138040303945,179,0,/imu_data_acquisition2,103796.0,-0.174255371094,0.0103759765625,0.812438964844,0.556274414062,21.625,49.8125,26.1875,-3.48,-4.41,10.11
1542226138048513889,180,0,/imu_data_acquisition2,103802.0,-0.176696777344,0.015380859375,0.812866210938,0.554809570312,29.5,55.5,27.375,-3.48,-4.41,10.11
1542226138054869890,181,0,/imu_data_acquisition2,103811.0,-0.178466796875,0.0209350585938,0.813049316406,0.553771972656,39.5,53.0625,22.0625,-2.18,-1.37,8.75
1542226138066672086,182,0,/imu_data_acquisition2,103821.0,-0.182312011719,0.0256958007812,0.814025878906,0.550842285156,14.3125,67.3125,44.0625,-2.15,-0.91,8.63
1542226138076550006,183,0,/imu_data_acquisition2,103831.0,-0.1875,0.0311889648438,0.815185546875,0.547058105469,10.375,84.4375,54.0625,-3.34,-1.26,9.27
1542226138086081027,184,0,/imu_data_acquisition2,103842.0,-0.193420410156,0.037353515625,0.816833496094,0.542175292969,9.3125,95.0,69.125,-3.2,-1.12,9.55
1542226138096718072,185,0,/imu_data_acquisition2,103851.0,-0.199890136719,0.0440063476562,0.818908691406,0.536193847656,8.6875,103.1875,83.75,-2.3,-1.15,9.15
1542226138109332084,186,0,/imu_data_acquisition2,103861.0,-0.208618164062,0.0515747070312,0.820861816406,0.529113769531,0.4375,132.0,94.6875,-3.87,-1.62,10.94
1542226138115597009,187,0,/imu_data_acquisition2,103871.0,-0.218505859375,0.0602416992188,0.823059082031,0.520751953125,0.25,149.6875,110.0625,-3.72,-1.27,10.36
1542226138128386020,188,0,/imu_data_acquisition2,103883.0,-0.228820800781,0.0692749023438,0.825378417969,0.511474609375,-0.875,156.6875,120.75,-3.59,-2.69,9.11
1542226138134702920,189,0,/imu_data_acquisition2,103891.0,-0.239624023438,0.0800170898438,0.827514648438,0.501403808594,10.0625,173.4375,131.625,-4.45,-3.13,10.25
1542226138145662069,190,0,/imu_data_acquisition2,103901.0,-0.251342773438,0.0926513671875,0.828979492188,0.490966796875,23.4375,195.5625,135.8125,-4.11,-2.48,10.36
1542226138157453060,191,0,/imu_data_acquisition2,103912.0,-0.264038085938,0.106872558594,0.829162597656,0.481018066406,36.375,217.375,126.6875,-4.64,-2.66,10.66
1542226138172307968,192,0,/imu_data_acquisition2,103926.0,-0.277587890625,0.122985839844,0.828063964844,0.471252441406,51.5625,240.9375,122.875,-5.77,-2.99,11.01
1542226138178325891,193,0,/imu_data_acquisition2,103934.0,-0.291931152344,0.140991210938,0.825500488281,0.461975097656,69.5,262.75,114.8125,-6.35,-2.35,10.95
1542226138189172029,194,0,/imu_data_acquisition2,103944.0,-0.306640625,0.160583496094,0.821166992188,0.453735351562,89.6875,279.8125,100.125,-7.13,-1.55,12.04
1542226138194905996,195,0,/imu_data_acquisition2,103950.0,-0.321899414062,0.180725097656,0.815124511719,0.446350097656,98.75,292.5625,83.375,-8.08,-1.01,11.5
1542226138205221891,196,0,/imu_data_acquisition2,103961.0,-0.337890625,0.20068359375,0.807678222656,0.439575195312,98.4375,303.125,67.75,-8.31,-1.04,11.98
1542226138216490030,197,0,/imu_data_acquisition2,103972.0,-0.354187011719,0.220336914062,0.798889160156,0.433349609375,99.3125,307.8125,54.375,-9.48,-2.35,16.37
1542226138224116086,198,0,/imu_data_acquisition2,103980.0,-0.370056152344,0.239501953125,0.789001464844,0.427917480469,102.3125,304.3125,39.1875,-10.15,-1.65,14.41
1542226138236476898,199,0,/imu_data_acquisition2,103992.0,-0.385681152344,0.25732421875,0.7783203125,0.423400878906,98.3125,295.6875,21.625,-9.49,-1.9,12.34
1542226138252055883,200,0,/imu_data_acquisition2,104008.0,-0.401428222656,0.273803710938,0.766662597656,0.419738769531,91.5,292.5625,3.0,-9.19,-1.93,12.42
1542226138256794929,201,0,/imu_data_acquisition2,104011.0,-0.416870117188,0.289367675781,0.754272460938,0.416625976562,89.6875,285.8125,-9.3125,-8.01,-1.95,12.02
1542226138265779018,202,0,/imu_data_acquisition2,104020.0,-0.432067871094,0.303039550781,0.741394042969,0.41455078125,81.125,274.0625,-29.5,-6.63,-0.56,12.82
1542226138273818969,203,0,/imu_data_acquisition2,104030.0,-0.446411132812,0.312805175781,0.728759765625,0.414489746094,60.625,239.0625,-63.3125,0.35,-0.87,20.37
1542226138285289049,204,0,/imu_data_acquisition2,104040.0,-0.0040283203125,-6.103515625e-05,-6.103515625e-05,0.417114257812,48.0625,166.3125,-85.0,-8.77,-2.56,-0.01
1542226138294536113,205,0,/imu_data_acquisition2,104050.0,-0.461181640625,0.320434570312,0.713623046875,0.418823242188,24.5625,-0.0625,-0.0625,3.54,-1.89,20.5
1542226138308782100,206,0,/imu_data_acquisition2,104060.0,-0.461608886719,0.317932128906,0.712829589844,0.421508789062,-5.5625,-14.8125,-41.5,5.31,1.58,12.41
1542226138315749883,207,0,/imu_data_acquisition2,104070.0,-0.461303710938,0.313598632812,0.712890625,0.424987792969,-17.125,-37.375,-51.8125,4.7,1.42,9.5
1542226138325428009,208,0,/imu_data_acquisition2,104080.0,-0.461364746094,0.306701660156,0.714172363281,0.427856445312,-47.125,-51.875,-55.5625,3.64,0.86,9.93
1542226138334970951,209,0,/imu_data_acquisition2,104090.0,-0.461303710938,0.298767089844,0.715942382812,0.430541992188,-58.75,-59.9375,-56.8125,2.51,0.6,11.46
1542226138346832990,210,0,/imu_data_acquisition2,104100.0,-0.460083007812,0.290283203125,-6.103515625e-05,0.433654785156,-56.875,-77.6875,-56.3125,1.82,0.55,12.48
1542226138354506969,211,0,/imu_data_acquisition2,104110.0,-0.456665039062,0.281433105469,0.721618652344,0.437622070312,-47.4375,-106.25,-53.375,0.06,1.03,14.3
1542226138365976095,212,0,/imu_data_acquisition2,104120.0,-0.450744628906,0.272033691406,0.726013183594,0.442443847656,-37.8125,-138.625,-49.375,-1.16,1.58,15.57
1542226138374532938,213,0,/imu_data_acquisition2,104130.0,-0.442443847656,0.261657714844,0.731506347656,0.447937011719,-34.25,-172.875,-46.6875,-2.58,2.11,16.28
1542226138386765003,214,0,/imu_data_acquisition2,104142.0,-0.431823730469,0.249389648438,0.738525390625,0.453796386719,-41.125,-212.3125,-45.0,-4.17,2.58,15.36
1542226138395368099,215,0,/imu_data_acquisition2,104150.0,-0.4189453125,0.234680175781,0.747131347656,0.459594726562,-54.875,-252.75,-42.1875,-4.27,2.42,13.4
1542226138405898094,216,0,/imu_data_acquisition2,104161.0,-0.404296875,0.217651367188,0.7568359375,0.465148925781,-70.5,-285.9375,-39.8125,-3.97,1.95,10.62
1542226138417408943,217,0,/imu_data_acquisition2,104171.0,-0.388488769531,0.199157714844,0.766906738281,0.470397949219,-79.1875,-305.0,-39.25,-3.46,-0.63,6.23
1542226138424582958,218,0,/imu_data_acquisition2,104180.0,-0.3720703125,0.180480957031,0.776428222656,0.475646972656,-76.9375,-309.5625,-41.625,-3.5,-2.06,-0.01
1542226138435806989,219,0,/imu_data_acquisition2,104191.0,-0.355285644531,0.162841796875,0.784606933594,0.481323242188,-60.1875,-301.4375,-48.0,-3.82,-2.71,5.7
1542226138445337057,220,0,/imu_data_acquisition2,104200.0,-0.338317871094,0.147155761719,0.791076660156,0.487976074219,-33.25,-287.3125,-58.5625,-4.51,-2.34,7.01
1542226138455017089,221,0,/imu_data_acquisition2,104211.0,-0.321166992188,0.133178710938,0.7958984375,0.49560546875,-9.8125,-274.375,-69.375,-5.37,0.14,9.59
1542226138467516899,222,0,/imu_data_acquisition2,104221.0,-0.303955078125,0.119873046875,0.799743652344,0.503601074219,0.4375,-267.5,-76.0625,-5.71,0.51,10.01
1542226138475336074,223,0,/imu_data_acquisition2,104231.0,-0.286804199219,0.106811523438,0.802978515625,0.511413574219,2.1875,-263.0,-77.3125,-5.87,0.32,9.93
1542226138485459089,224,0,/imu_data_acquisition2,104241.0,-0.00421142578125,-6.103515625e-05,-6.103515625e-05,0.518737792969,5.0,-255.75,-74.1875,-6.52,-0.34,10.65
1542226138496702909,225,0,/imu_data_acquisition2,104251.0,-0.253051757812,0.0826416015625,0.807983398438,0.525573730469,11.25,-246.375,-70.0,-6.78,-0.26,11.11
1542226138504937887,226,0,/imu_data_acquisition2,104261.0,-0.236572265625,0.0718994140625,0.809814453125,0.532043457031,17.75,-236.5,-66.1875,-7.07,-0.14,11.71
1542226138515583038,227,0,/imu_data_acquisition2,104271.0,-0.220336914062,0.06201171875,0.811279296875,0.538024902344,22.625,-227.125,-62.3125,-8.08,-0.8,14.32
1542226138526407957,228,0,/imu_data_acquisition2,104280.0,-0.204406738281,0.0526733398438,0.812377929688,0.543579101562,25.75,-219.4375,-59.125,-8.93,-1.31,16.02
1542226138535329103,229,0,/imu_data_acquisition2,104291.0,-0.188293457031,0.043701171875,0.813232421875,0.548950195312,29.5625,-217.8125,-57.5625,-9.57,-1.48,16.96
1542226138546469926,230,0,/imu_data_acquisition2,104301.0,-0.015380859375,-6.103515625e-05,-6.103515625e-05,0.55419921875,32.0625,-223.9375,-58.3125,-9.67,-1.72,15.74
1542226138554877042,231,0,/imu_data_acquisition2,104310.0,-0.154296875,0.0250244140625,0.814025878906,0.559448242188,31.875,-232.5,-61.5,-9.46,-1.9,14.46
1542226138565902948,232,0,/imu_data_acquisition2,104321.0,-0.136657714844,0.0152587890625,0.813659667969,0.564819335938,33.25,-235.5625,-66.875,-9.44,-2.24,13.54
1542226138575947046,233,0,/imu_data_acquisition2,104332.0,-0.118896484375,0.0059814453125,0.812683105469,0.570434570312,38.375,-232.25,-72.375,-9.69,-2.45,12.87
1542226138587430000,234,0,/imu_data_acquisition2,104341.0,-0.101196289062,-0.00238037109375,0.81103515625,0.576171875,47.25,-225.4375,-76.9375,-9.99,-3.04,12.28
1542226138596304893,235,0,/imu_data_acquisition2,104351.0,-0.0834350585938,-0.00958251953125,0.808837890625,0.58203125,58.8125,-216.5625,-80.4375,-10.62,-3.49,12.53
1542226138605478048,236,0,/imu_data_acquisition2,104361.0,-6.103515625e-05,-6.103515625e-05,-6.103515625e-05,0.587951660156,72.625,-207.1875,-83.25,-10.93,-3.53,12.48
1542226138616641044,237,0,/imu_data_acquisition2,104372.0,-0.0475463867188,-0.0198974609375,0.802917480469,0.593872070312,86.875,-200.3125,-85.25,-11.67,-3.51,11.89
1542226138625900030,238,0,/imu_data_acquisition2,104381.0,-0.029296875,-0.0231323242188,0.799438476562,0.599609375,99.75,-192.875,-85.25,-12.29,-3.19,11.46
1542226138634845018,239,0,/imu_data_acquisition2,104390.0,-0.0110473632812,-0.0252685546875,0.795776367188,0.60498046875,110.625,-185.4375,-82.5,-12.71,-2.03,10.43
1542226138646126031,240,0,/imu_data_acquisition2,104401.0,0.00689697265625,-0.0267944335938,0.792175292969,0.609680175781,113.5,-177.875,-75.5,-13.13,-1.55,8.43
1542226138656459093,241,0,/imu_data_acquisition2,104411.0,0.02392578125,-0.0281372070312,0.788818359375,0.613525390625,108.6875,-168.5,-65.8125,-13.12,-1.2,7.15
1542226138664735078,242,0,/imu_data_acquisition2,104420.0,0.0398559570312,-0.0292358398438,0.785888671875,0.616394042969,103.9375,-157.0,-53.0625,-13.15,-0.38,5.89
1542226138675806045,243,0,/imu_data_acquisition2,104431.0,0.0543823242188,-0.0299682617188,0.783569335938,0.6181640625,97.1875,-140.4375,-37.875,-13.54,0.0,5.17
1542226138687326908,244,0,/imu_data_acquisition2,104441.0,0.0668334960938,-0.0306396484375,0.782043457031,0.618896484375,83.8125,-121.4375,-22.125,-14.52,-0.52,3.78
1542226138694660902,245,0,/imu_data_acquisition2,104450.0,-6.103515625e-05,-6.103515625e-05,-6.103515625e-05,0.61865234375,69.25,-102.9375,-7.0625,-15.02,-1.07,2.64
1542226138705950021,246,0,/imu_data_acquisition2,104461.0,0.0836791992188,-0.0313110351562,0.78173828125,0.6171875,49.8125,-58.75,15.0,-15.65,-1.38,1.49
1542226138717714071,247,0,/imu_data_acquisition2,104471.0,0.0901489257812,-0.0311889648438,0.7822265625,0.615661621094,49.8125,-58.75,15.0,-17.21,-1.36,-0.15
1542226138724675893,248,0,/imu_data_acquisition2,104481.0,0.094482421875,-0.0301513671875,0.783203125,0.61376953125,43.9375,-32.3125,22.25,-17.5,0.43,-1.31
1542226138735965967,249,0,/imu_data_acquisition2,104491.0,0.0963745117188,-0.0281982421875,0.784912109375,0.611389160156,34.6875,-1.8125,31.625,-17.27,1.67,-1.33
1542226138747359037,250,0,/imu_data_acquisition2,104501.0,0.0942993164062,-0.026123046875,0.787658691406,0.608276367188,8.5625,35.5,47.1875,-9.61,6.29,-0.82
1542226138754807949,251,0,/imu_data_acquisition2,104511.0,0.0806884765625,-0.0280151367188,0.793579101562,0.602416992188,-107.0625,118.625,103.25,0.53,-4.97,13.53
1542226138765966892,252,0,/imu_data_acquisition2,104521.0,0.0670166015625,-0.0298461914062,0.79931640625,0.596435546875,-107.0625,118.625,103.25,3.45,-5.68,21.31
1542226138776458024,253,0,/imu_data_acquisition2,104531.0,0.0562133789062,-0.0303344726562,0.804748535156,0.590209960938,-74.25,101.3125,101.5625,9.87,-0.1,14.03
1542226138784615993,254,0,/imu_data_acquisition2,104540.0,0.0440063476562,-0.0286254882812,0.809692382812,0.584533691406,-63.6875,129.1875,92.1875,2.2,-11.46,-1.21
1542226138796060085,255,0,/imu_data_acquisition2,104551.0,0.0283203125,-0.0250854492188,0.812866210938,0.581237792969,-71.375,175.625,56.875,-0.84,-13.68,8.34
1542226138805520057,256,0,/imu_data_acquisition2,104560.0,0.0126342773438,-0.0216674804688,0.81396484375,0.580383300781,-74.75,174.5625,19.4375,-3.09,-17.29,13.12
1542226138814882040,257,0,/imu_data_acquisition2,104571.0,-0.00146484375,-0.0179443359375,0.813232421875,0.581604003906,-61.125,161.75,-13.75,-2.84,-8.09,10.06
1542226138826788902,258,0,/imu_data_acquisition2,104582.0,-0.0143432617188,-0.0134887695312,0.811828613281,0.583618164062,-45.875,154.625,-26.25,-2.26,-0.62,10.92
1542226138835180997,259,0,/imu_data_acquisition2,104591.0,-0.0260620117188,-0.00787353515625,0.811157226562,0.584167480469,-26.9375,151.6875,-7.375,-2.72,5.2,13.0
1542226138845578908,260,0,/imu_data_acquisition2,104601.0,-0.0369873046875,-0.00238037109375,0.811645507812,0.582946777344,-23.25,142.625,18.0,-5.06,4.96,17.39
1542226138855794906,261,0,/imu_data_acquisition2,104610.0,-0.0369873046875,-0.00238037109375,0.811645507812,0.582946777344,-47.3125,119.0625,28.6875,-6.41,1.19,17.52
1542226138865830898,262,0,/imu_data_acquisition2,104621.0,-0.0569458007812,-6.103515625e-05,0.8134765625,0.578796386719,-69.75,88.25,25.0,-6.23,-1.07,15.75
1542226138876055002,263,0,/imu_data_acquisition2,104631.0,-0.0650634765625,-0.00189208984375,0.814270019531,0.576843261719,-74.625,65.0625,22.9375,-4.53,-1.38,12.91
1542226138884758949,264,0,/imu_data_acquisition2,104640.0,-0.0726318359375,-0.00421142578125,0.81494140625,0.574951171875,-75.625,56.0625,21.1875,-2.71,-3.47,11.12
1542226138896492958,265,0,/imu_data_acquisition2,104651.0,-0.0796508789062,-0.0068359375,0.8154296875,0.573303222656,-74.625,49.625,17.8125,-2.91,-4.27,10.92
1542226138907059907,266,0,/imu_data_acquisition2,104661.0,-0.0860595703125,-0.010009765625,0.815795898438,0.57177734375,-75.4375,39.5,14.1875,-2.66,-3.3,11.2
1542226138914617061,267,0,/imu_data_acquisition2,104671.0,-0.0919189453125,-0.013671875,0.816040039062,0.570434570312,-76.0625,32.0625,11.5,-2.37,-2.31,10.72
1542226138926510095,268,0,/imu_data_acquisition2,104681.0,-0.0974731445312,-0.0173950195312,0.816162109375,0.569274902344,-74.6875,28.125,9.4375,-2.3,-2.02,10.29
1542226138935789108,269,0,/imu_data_acquisition2,104691.0,-0.102783203125,-0.02099609375,0.816284179688,0.568054199219,-72.0,26.5,8.875,-2.33,-2.0,-0.01
1542226138944468975,270,0,/imu_data_acquisition2,104700.0,-0.107788085938,-0.0243530273438,0.816284179688,0.567016601562,-67.125,25.1875,7.75,-2.18,-2.89,10.67
1542226138956744909,271,0,/imu_data_acquisition2,104711.0,-0.112243652344,-0.0272216796875,0.816223144531,0.566101074219,-59.0,23.5625,5.5625,-2.19,-3.44,10.89
1542226138966587066,272,0,/imu_data_acquisition2,104721.0,-0.116027832031,-0.0294189453125,0.816040039062,0.565490722656,-47.6875,21.875,2.875,-2.22,-3.27,10.55
1542226138974714040,273,0,/imu_data_acquisition2,104731.0,-0.119201660156,-0.0310668945312,0.815734863281,0.565124511719,-37.375,19.8125,0.625,-2.28,-2.7,10.34
1542226138986346006,274,0,/imu_data_acquisition2,104741.0,-0.121765136719,-0.0321655273438,0.815490722656,0.564880371094,-28.5625,17.6875,-0.0625,-2.02,-2.75,10.0
1542226138994860887,275,0,/imu_data_acquisition2,104750.0,-0.1240234375,-0.032958984375,0.815124511719,0.564880371094,-22.9375,16.875,-2.25,-2.02,-2.47,10.08
1542226139005795001,276,0,/imu_data_acquisition2,104761.0,-0.126098632812,-0.0336303710938,0.814758300781,0.56494140625,-19.6875,16.1875,-3.25,-2.13,-2.23,10.07
1542226139016181945,277,0,/imu_data_acquisition2,104770.0,-0.126098632812,-0.0336303710938,0.814758300781,0.56494140625,-16.6875,14.4375,-3.875,-2.38,-2.53,9.93
1542226139025630950,278,0,/imu_data_acquisition2,104781.0,-0.129211425781,-0.034423828125,0.814086914062,0.565185546875,-12.0625,11.25,-3.375,-2.1,-2.46,9.72
1542226139036907911,279,0,/imu_data_acquisition2,104791.0,-0.130249023438,-0.0345458984375,0.813842773438,0.565307617188,-8.25,9.6875,-2.3125,-2.02,-2.48,9.08
1542226139044699907,280,0,/imu_data_acquisition2,104801.0,-0.131103515625,-0.0346069335938,0.813598632812,0.565368652344,-6.125,8.5625,-1.9375,-2.09,-2.04,9.27
1542226139058495998,281,0,/imu_data_acquisition2,104811.0,-0.131103515625,-0.0346069335938,0.813598632812,0.565368652344,-4.875,8.0625,-1.75,-2.41,-2.26,9.66
1542226139066772937,282,0,/imu_data_acquisition2,104821.0,-0.131896972656,-0.0346069335938,0.813415527344,0.565490722656,-4.625,7.9375,-2.0625,-1.91,-2.16,9.57
1542226139074973106,283,0,/imu_data_acquisition2,104831.0,-0.133544921875,-0.0345458984375,0.81298828125,0.565734863281,-5.3125,8.75,-2.75,-2.23,-2.0,9.06
1542226139088973999,284,0,/imu_data_acquisition2,104842.0,-0.134521484375,-0.0344848632812,0.812683105469,0.56591796875,-6.0,10.3125,-3.0,-2.03,-2.21,9.55
1542226139097060918,285,0,/imu_data_acquisition2,104851.0,-0.135498046875,-0.0344848632812,0.812438964844,0.566040039062,-6.25,10.0625,-2.8125,-1.78,-2.33,9.13
1542226139104505062,286,0,/imu_data_acquisition2,104861.0,-0.135498046875,-0.0344848632812,0.812438964844,0.566040039062,-5.5625,11.125,-2.6875,-2.24,-2.3,9.26
1542226139118510007,287,0,/imu_data_acquisition2,104871.0,-0.136535644531,-0.0343627929688,0.812133789062,0.566223144531,-4.4375,10.125,-2.4375,-2.5,-2.4,9.66
1542226139127140998,288,0,/imu_data_acquisition2,104882.0,-0.138244628906,-0.0341186523438,0.811645507812,0.566528320312,-4.625,9.0,-3.125,-2.39,-2.35,9.26
1542226139134898900,289,0,/imu_data_acquisition2,104891.0,-0.138977050781,-0.0339965820312,0.811401367188,0.566711425781,-3.5,8.0625,-2.625,-2.12,-2.37,9.4
1542226139146578073,290,0,/imu_data_acquisition2,104902.0,-0.139587402344,-0.033935546875,0.811218261719,0.566833496094,-2.9375,6.75,-2.4375,-2.04,-2.23,9.57
1542226139155832052,291,0,/imu_data_acquisition2,104911.0,-0.139587402344,-0.033935546875,0.811218261719,0.566833496094,-2.625,6.25,-2.375,-2.39,-2.23,9.0
1542226139164645910,292,0,/imu_data_acquisition2,104921.0,-0.14013671875,-0.0338134765625,0.810974121094,0.567016601562,-2.5625,6.75,-2.5625,-2.21,-2.09,9.46
1542226139175950050,293,0,/imu_data_acquisition2,104932.0,-0.140991210938,-0.0336303710938,0.810791015625,0.567138671875,-2.5625,6.875,-2.3125,-2.43,-2.26,9.34
1542226139187077999,294,0,/imu_data_acquisition2,104941.0,-0.141906738281,-0.0333251953125,0.810546875,0.567260742188,-2.6875,6.75,-2.75,-2.17,-2.08,9.35
1542226139194926977,295,0,/imu_data_acquisition2,104951.0,-0.142700195312,-0.0331420898438,0.810302734375,0.5673828125,-2.5,6.5625,-2.75,-2.62,-2.45,9.15
1542226139205976963,296,0,/imu_data_acquisition2,104962.0,-0.143798828125,-0.0328979492188,0.81005859375,0.567504882812,-1.625,5.8125,-2.625,-2.46,-2.16,9.64
1542226139215857982,297,0,/imu_data_acquisition2,104971.0,-0.144653320312,-0.0325317382812,0.809814453125,0.567626953125,-1.8125,5.3125,-2.5625,-2.33,-2.42,9.39
1542226139227147102,298,0,/imu_data_acquisition2,104981.0,-0.146179199219,-0.0322265625,0.809387207031,0.56787109375,-1.5,4.9375,-2.5,-2.3,-2.4,-0.01
1542226139236850023,299,0,/imu_data_acquisition2,104992.0,-0.146179199219,-0.0322265625,0.809387207031,0.56787109375,-1.3125,4.8125,-2.125,-2.45,-2.49,9.28
1542226139246952056,300,0,/imu_data_acquisition2,105002.0,-0.147033691406,-0.0321044921875,0.809204101562,0.567932128906,-0.8125,4.625,-1.625,-2.33,-2.48,9.34
1542226139254877090,301,0,/imu_data_acquisition2,105011.0,-6.103515625e-05,-6.103515625e-05,-6.103515625e-05,0.567993164062,-0.9375,4.5,-1.625,-2.35,-2.35,9.27
1542226139267083883,302,0,/imu_data_acquisition2,105022.0,-0.148498535156,-0.0317993164062,0.808837890625,0.568054199219,-0.8125,4.5,-1.625,-2.25,-2.27,9.33
1542226139275445938,303,0,/imu_data_acquisition2,105031.0,-0.149047851562,-0.0316772460938,0.808654785156,0.568176269531,-0.8125,4.5,-1.625,-2.23,-2.33,9.21
1542226139299154996,304,0,/imu_data_acquisition2,105051.0,-0.150085449219,-0.0313110351562,0.808288574219,0.568420410156,-0.3125,4.6875,-2.1875,-2.56,-2.28,9.27
1542226139303809881,305,0,/imu_data_acquisition2,105059.0,-0.150756835938,-0.031005859375,0.80810546875,0.568542480469,0.0,5.0,-2.125,-2.56,-2.28,9.27
1542226139309289932,306,0,/imu_data_acquisition2,105064.0,-0.1513671875,-0.03076171875,0.807922363281,0.568664550781,0.3125,4.8125,-2.1875,-2.41,-2.38,9.24
1542226139315164089,307,0,/imu_data_acquisition2,105071.0,-0.1513671875,-0.03076171875,0.807922363281,0.568664550781,0.875,4.9375,-2.125,-2.62,-2.41,9.11
1542226139326581001,308,0,/imu_data_acquisition2,105081.0,-0.152160644531,-0.0303955078125,0.807739257812,0.568786621094,0.875,4.9375,-2.125,-2.24,-2.42,9.16
1542226139335969924,309,0,/imu_data_acquisition2,105092.0,-0.152709960938,-0.0301513671875,0.807556152344,0.568908691406,1.5625,4.625,-1.125,-2.55,-2.49,9.21
1542226139347475051,310,0,/imu_data_acquisition2,105103.0,-0.153381347656,-0.0298461914062,0.807373046875,0.568969726562,1.9375,4.75,-0.875,-2.41,-2.4,9.22
1542226139355660915,311,0,/imu_data_acquisition2,105111.0,-0.153930664062,-0.0294799804688,0.807250976562,0.569030761719,1.9375,4.75,-0.875,-2.35,-2.27,9.12
1542226139365825891,312,0,/imu_data_acquisition2,105121.0,-0.154418945312,-0.0291137695312,0.80712890625,0.569030761719,1.6875,4.875,-0.5,-2.32,-2.29,9.05
1542226139380199909,313,0,/imu_data_acquisition2,105136.0,-0.155395507812,-0.0282592773438,0.806945800781,0.569091796875,2.4375,6.75,0.3125,-2.07,-2.47,8.96
1542226139386662006,314,0,/imu_data_acquisition2,105142.0,-0.155395507812,-0.0282592773438,0.806945800781,0.569091796875,4.25,8.1875,1.0,-2.35,-2.44,9.02
1542226139397156000,315,0,/imu_data_acquisition2,105153.0,-0.155944824219,-0.0276489257812,0.806884765625,0.569091796875,7.3125,10.125,1.9375,-2.04,-2.52,8.96
1542226139409003019,316,0,/imu_data_acquisition2,105164.0,-0.156982421875,-0.0255126953125,0.806823730469,0.568969726562,11.0,12.5625,3.75,-2.55,-2.47,9.19
1542226139416326045,317,0,/imu_data_acquisition2,105172.0,-0.156982421875,-0.0255126953125,0.806823730469,0.568969726562,13.9375,15.3125,5.375,-2.24,-2.4,9.21
1542226139426958084,318,0,/imu_data_acquisition2,105182.0,-0.157470703125,-0.0238037109375,0.806884765625,0.56884765625,16.8125,18.125,7.375,-2.54,-2.5,9.06
1542226139443424940,319,0,/imu_data_acquisition2,105199.0,-0.158630371094,-0.0193481445312,0.807189941406,0.568237304688,19.875,20.875,-0.0625,-2.45,-2.35,8.91
1542226139448735952,320,0,/imu_data_acquisition2,105204.0,-0.1591796875,-0.0164794921875,0.807434082031,0.567810058594,22.6875,23.75,11.1875,-2.45,-2.31,9.05
1542226139457088947,321,0,/imu_data_acquisition2,105212.0,-0.1591796875,-0.0164794921875,0.807434082031,0.567810058594,22.6875,23.75,11.1875,-2.47,-2.27,9.36
1542226139472573041,322,0,/imu_data_acquisition2,105228.0,-0.159790039062,-0.0134887695312,0.807739257812,0.567321777344,24.4375,27.125,14.3125,-2.95,-2.22,9.02
1542226139476185083,323,0,/imu_data_acquisition2,105232.0,-6.103515625e-05,-6.103515625e-05,-6.103515625e-05,0.566040039062,26.1875,30.25,-0.0625,-2.97,-1.96,9.25
1542226139486972093,324,0,/imu_data_acquisition2,105242.0,-6.103515625e-05,-6.103515625e-05,-6.103515625e-05,0.566040039062,27.0625,32.75,14.875,-3.05,-1.58,8.31
1542226139504290103,325,0,/imu_data_acquisition2,105260.0,-0.162231445312,-0.0032958984375,0.808715820312,0.565368652344,28.9375,36.125,15.6875,-2.16,-2.28,8.75
1542226139508867025,326,0,/imu_data_acquisition2,105265.0,-0.164733886719,0.0050048828125,0.809204101562,0.56396484375,30.875,41.75,17.0,-2.6,-1.47,9.99
1542226139515355110,327,0,/imu_data_acquisition2,105271.0,-0.164733886719,0.0050048828125,0.809204101562,0.56396484375,30.875,41.75,17.0,-2.6,-1.47,9.99
1542226139534236907,328,0,/imu_data_acquisition2,105290.0,-0.166076660156,0.00970458984375,0.8095703125,0.562927246094,39.0,45.75,25.375,-2.96,-1.49,9.51
1542226139540776968,329,0,/imu_data_acquisition2,105295.0,-0.168579101562,0.0206298828125,0.810607910156,0.560363769531,43.75,49.1875,27.25,-1.98,-0.01,-0.01
1542226139546493053,330,0,/imu_data_acquisition2,105302.0,-0.168579101562,0.0206298828125,0.810607910156,0.560363769531,38.75,56.875,37.125,-2.59,-0.99,9.08
1542226139569000959,331,0,/imu_data_acquisition2,105311.0,-0.170593261719,0.0264892578125,0.8115234375,0.558288574219,38.75,56.875,37.125,-1.87,-0.95,9.05
1542226139572912931,332,0,/imu_data_acquisition2,105323.0,-0.177612304688,0.0392456054688,0.814331054688,0.551086425781,28.375,82.1875,61.0,-2.63,-1.06,9.18
1542226139580450057,333,0,/imu_data_acquisition2,105336.0,-0.177612304688,0.0392456054688,0.814331054688,0.551086425781,26.0625,92.4375,75.75,-3.63,-1.42,9.98
1542226139587872028,334,0,/imu_data_acquisition2,105343.0,-0.182495117188,0.0464477539062,0.816345214844,0.545959472656,25.25,99.0,88.0,-2.37,-1.25,9.89
1542226139600558996,335,0,/imu_data_acquisition2,105355.0,-0.187805175781,0.0541381835938,0.818725585938,0.539855957031,21.4375,124.25,95.75,-2.41,-1.4,9.55
1542226139608431100,336,0,/imu_data_acquisition2,105364.0,-0.195007324219,0.0628051757812,0.820983886719,0.532958984375,21.4375,124.25,95.75,-2.77,-1.58,9.82
1542226139623469114,337,0,/imu_data_acquisition2,105374.0,-0.203247070312,0.0726928710938,0.8232421875,0.525085449219,24.375,143.4375,107.375,-2.77,-1.58,9.82
1542226139633371114,338,0,/imu_data_acquisition2,105384.0,-0.2216796875,0.0953369140625,0.827392578125,0.507202148438,34.0,172.1875,121.4375,-3.67,-2.91,10.14
1542226139642174005,339,0,/imu_data_acquisition2,105398.0,-0.232116699219,0.109313964844,0.828308105469,0.498046875,48.8125,194.125,120.125,-3.79,-3.23,10.59
1542226139657610893,340,0,/imu_data_acquisition2,105414.0,-0.243530273438,0.125610351562,0.828002929688,0.489196777344,68.375,220.25,114.6875,-5.5,-2.1,11.24
1542226139665410995,341,0,/imu_data_acquisition2,105420.0,-0.256042480469,0.143615722656,0.825988769531,0.481201171875,83.875,244.3125,100.6875,-5.5,-2.1,11.24
1542226139676011085,342,0,/imu_data_acquisition2,105431.0,-0.269409179688,0.162841796875,0.822448730469,0.473815917969,95.6875,263.6875,87.25,-7.5,-0.07,12.23
1542226139693032979,343,0,/imu_data_acquisition2,105449.0,-0.283630371094,0.182739257812,0.8173828125,0.466918945312,91.5625,289.3125,64.125,-8.0,-0.64,12.55
1542226139700953006,344,0,/imu_data_acquisition2,105454.0,-0.314514160156,0.219787597656,0.804504394531,0.453369140625,79.125,287.375,52.5,-8.57,-1.69,12.72
1542226139710881948,345,0,/imu_data_acquisition2,105466.0,-0.328857421875,0.237487792969,0.796813964844,0.447814941406,90.875,274.375,40.625,-8.94,-1.78,13.71
1542226139717281103,346,0,/imu_data_acquisition2,105472.0,-0.328857421875,0.237487792969,0.796813964844,0.447814941406,90.875,274.375,40.625,-8.88,-1.1,11.6
1542226139725523948,347,0,/imu_data_acquisition2,105482.0,-0.342590332031,0.255004882812,0.787902832031,0.443664550781,101.5625,268.875,21.0,-8.43,-0.83,11.65
1542226139730484962,348,0,/imu_data_acquisition2,105486.0,-0.356079101562,0.272033691406,0.777893066406,0.440551757812,105.75,265.5,4.875,-8.43,-0.83,11.65
1542226139739897012,349,0,/imu_data_acquisition2,105495.0,-0.369262695312,0.287292480469,0.767517089844,0.438171386719,94.4375,252.4375,-9.875,-7.81,-0.42,13.05
1542226139748789072,350,0,/imu_data_acquisition2,105503.0,-0.369262695312,0.287292480469,0.767517089844,0.438171386719,71.4375,218.6875,-28.3125,-2.74,0.34,19.67
1542226139759905099,351,0,/imu_data_acquisition2,105515.0,-0.381408691406,0.299072265625,0.7578125,0.436828613281,36.8125,162.625,-0.0625,1.33,1.36,21.24
1542226139767054080,352,0,/imu_data_acquisition2,105522.0,-0.391723632812,0.305725097656,-6.103515625e-05,0.437133789062,36.8125,162.625,-51.3125,1.69,1.66,16.04
1542226139791994094,353,0,/imu_data_acquisition2,105534.0,-0.399597167969,0.307678222656,0.744812011719,0.436950683594,-40.1875,55.5,-7.5,3.24,-1.41,16.75
1542226139804462909,354,0,/imu_data_acquisition2,105547.0,-0.407958984375,0.304138183594,0.743957519531,0.43310546875,-49.0,18.1875,-10.5625,3.28,-0.36,13.03
1542226139805558919,355,0,/imu_data_acquisition2,105555.0,-0.41015625,0.299377441406,0.7451171875,0.432373046875,-60.75,-8.5,-18.4375,3.44,-0.47,11.91
1542226139807526111,356,0,/imu_data_acquisition2,105563.0,-0.41015625,0.299377441406,0.7451171875,0.432373046875,-60.75,-8.5,-18.4375,3.07,-0.83,11.25
1542226139825179100,357,0,/imu_data_acquisition2,105578.0,-0.411682128906,0.286315917969,0.748718261719,0.433532714844,-64.6875,-46.25,-34.75,2.57,-0.74,11.69
1542226139844497919,358,0,/imu_data_acquisition2,105584.0,-0.411682128906,0.286315917969,-6.103515625e-05,0.433532714844,-61.25,-68.5,-42.625,2.03,-0.43,12.19
1542226139855222940,359,0,/imu_data_acquisition2,105593.0,-6.103515625e-05,-6.103515625e-05,-6.103515625e-05,0.435729980469,-61.25,-68.5,-42.625,0.28,0.45,14.08
1542226139859756946,360,0,/imu_data_acquisition2,105614.0,-0.403564453125,0.25927734375,0.757385253906,0.442993164062,-60.375,-122.5,-53.25,-1.25,1.3,14.93
1542226139869801998,361,0,/imu_data_acquisition2,105624.0,-0.397399902344,0.247375488281,0.761840820312,0.44775390625,-65.6875,-153.8125,-57.5,-1.25,1.3,14.93
1542226139884545087,362,0,/imu_data_acquisition2,105629.0,-0.389465332031,0.233337402344,0.767272949219,0.453002929688,-75.75,-186.625,-61.0625,-1.87,1.38,14.33
1542226139886312961,363,0,/imu_data_acquisition2,105633.0,-0.389465332031,0.233337402344,0.767272949219,0.453002929688,-84.5,-214.875,-62.875,-1.86,1.06,10.79
1542226139888833045,364,0,/imu_data_acquisition2,105645.0,-0.00494384765625,-6.103515625e-05,-6.103515625e-05,0.458435058594,-88.0,-231.9375,-66.0625,-1.98,0.54,9.6
1542226139899446010,365,0,/imu_data_acquisition2,105655.0,-0.35791015625,0.18359375,0.78564453125,0.470092773438,-82.25,-238.875,-70.375,-2.3,0.07,8.72
1542226139919512987,366,0,/imu_data_acquisition2,105663.0,-0.35791015625,0.18359375,0.78564453125,0.470092773438,-82.25,-238.875,-70.375,-2.57,-0.02,8.13
1542226139924455881,367,0,/imu_data_acquisition2,105673.0,-0.345764160156,0.167053222656,0.790832519531,0.4765625,-70.3125,-240.9375,-74.6875,-2.79,0.12,8.59
1542226139929771900,368,0,/imu_data_acquisition2,105683.0,-0.333190917969,0.1513671875,0.795227050781,0.483459472656,-55.9375,-238.1875,-79.125,-3.21,0.01,9.26
1542226139950609922,369,0,/imu_data_acquisition2,105694.0,-0.320251464844,0.136535644531,0.798767089844,0.490661621094,-32.75,-232.0625,-86.0625,-3.76,-0.21,10.31
1542226139952512025,370,0,/imu_data_acquisition2,105705.0,-0.306823730469,0.122375488281,0.801696777344,0.498168945312,-22.6875,-231.0625,-88.25,-4.14,-0.5,10.86
1542226139960552930,371,0,/imu_data_acquisition2,105712.0,-0.293029785156,0.108764648438,0.804016113281,0.505859375,-22.6875,-231.0625,-88.25,-4.14,-0.5,10.86
1542226139976285934,372,0,/imu_data_acquisition2,105727.0,-0.278747558594,0.095947265625,0.805786132812,0.513671875,-11.625,-228.8125,-89.875,-4.89,-0.88,11.65
1542226139980932950,373,0,/imu_data_acquisition2,105734.0,-0.263916015625,0.0839233398438,0.806945800781,0.521606445312,8.4375,-225.6875,-93.125,-5.37,-0.6,11.0
1542226139996252059,374,0,/imu_data_acquisition2,105751.0,-0.233520507812,0.0615234375,0.807861328125,0.53759765625,13.9375,-222.125,-94.1875,-5.47,-0.36,10.63
1542226139998600959,375,0,/imu_data_acquisition2,105755.0,-0.218627929688,0.0510864257812,0.8076171875,0.545349121094,17.0625,-213.75,-93.3125,-5.5,-0.33,10.48
1542226140011785030,376,0,/imu_data_acquisition2,105762.0,-0.218627929688,0.0510864257812,0.8076171875,0.545349121094,17.0625,-213.75,-93.3125,-5.5,-0.33,10.48
1542226140026247024,377,0,/imu_data_acquisition2,105772.0,-0.204162597656,0.0416259765625,0.806945800781,0.552673339844,22.0625,-201.8125,-90.4375,-6.31,-1.46,13.38
1542226140028069972,378,0,/imu_data_acquisition2,105783.0,-0.189880371094,0.0333862304688,0.805908203125,0.559814453125,32.5625,-191.5,-87.8125,-7.34,-1.89,15.52
1542226140039974927,379,0,/imu_data_acquisition2,105794.0,-0.174926757812,0.0257568359375,0.8046875,0.566772460938,42.375,-193.375,-85.625,-8.03,-1.9,15.24
1542226140051736116,380,0,/imu_data_acquisition2,105806.0,-0.158996582031,0.0180053710938,0.803466796875,0.573425292969,48.625,-210.25,-80.8125,-8.16,-2.29,14.31
1542226140057439088,381,0,/imu_data_acquisition2,105813.0,-0.142456054688,0.010009765625,0.802185058594,0.579772949219,48.625,-210.25,-80.8125,-8.16,-2.29,14.31
1542226140079668045,383,0,/imu_data_acquisition2,105834.0,-0.108703613281,-0.0050048828125,0.798706054688,0.591796875,58.0625,-208.25,-79.375,-9.63,-3.34,13.05
1542226140090226888,384,0,/imu_data_acquisition2,105844.0,-0.0916137695312,-0.0113525390625,0.796630859375,0.597412109375,67.0,-203.0,-76.8125,-10.72,-3.61,14.66
1542226140106230974,385,0,/imu_data_acquisition2,105861.0,-0.0744018554688,-0.0167236328125,0.794311523438,0.602661132812,82.5625,-196.4375,-71.875,-11.66,-3.79,15.61
1542226140111912012,386,0,/imu_data_acquisition2,105867.0,-0.0387573242188,-0.0264892578125,0.789367675781,0.612182617188,87.3125,-202.5,-68.625,-12.09,-3.51,13.83
1542226140115320920,387,0,/imu_data_acquisition2,105871.0,-0.0387573242188,-0.0264892578125,0.789367675781,0.612182617188,87.3125,-202.5,-68.625,-12.09,-3.51,13.83
1542226140140360116,388,0,/imu_data_acquisition2,105891.0,-0.020263671875,-0.0313720703125,0.786743164062,0.6162109375,89.3125,-206.0,-64.6875,-12.19,-2.6,9.34
1542226140147440910,389,0,/imu_data_acquisition2,105900.0,0.015625,-0.039794921875,0.781555175781,0.622375488281,91.9375,-189.4375,-51.4375,-12.66,-1.41,6.31
1542226140149070024,390,0,/imu_data_acquisition2,105905.0,0.015625,-0.039794921875,0.781555175781,0.622375488281,91.125,-168.9375,-40.4375,-13.36,-1.2,6.01
1542226140164566993,391,0,/imu_data_acquisition2,105917.0,0.0316772460938,-0.0426025390625,0.779418945312,0.624267578125,89.75,-147.4375,-27.375,-13.92,-1.05,5.91
1542226140172070980,392,0,/imu_data_acquisition2,105924.0,0.0462646484375,-0.0443725585938,0.777770996094,0.625244140625,89.75,-147.4375,-27.375,-14.66,-0.82,5.71
1542226140180016040,393,0,/imu_data_acquisition2,105936.0,0.0591430664062,-0.045654296875,0.776794433594,0.625305175781,70.9375,-0.0625,-0.0625,-15.69,-0.91,3.07
1542226140197129964,394,0,/imu_data_acquisition2,105950.0,0.0703125,-0.0469970703125,0.7763671875,0.624572753906,55.875,-95.1875,8.0625,-16.33,-1.44,1.3
1542226140204324960,395,0,/imu_data_acquisition2,105956.0,0.0795288085938,-0.0484008789062,0.776428222656,0.623291015625,43.3125,-69.4375,12.9375,-17.41,-2.1,-0.06
1542226140206032991,396,0,/imu_data_acquisition2,105961.0,0.0863037109375,-0.04931640625,0.776794433594,0.621887207031,43.3125,-0.0625,-0.0625,-17.41,-2.1,-0.06
1542226140218261957,397,0,/imu_data_acquisition2,105972.0,0.0906982421875,-0.0489501953125,0.777404785156,0.620544433594,37.5625,-37.9375,13.625,-19.83,-0.6,-1.79
1542226140226326942,398,0,/imu_data_acquisition2,105981.0,0.0923461914062,-0.0471801757812,0.778381347656,0.619140625,30.1875,-2.0625,17.375,-19.78,1.61,-2.33
1542226140238215923,399,0,/imu_data_acquisition2,105994.0,0.090087890625,-0.045166015625,0.7802734375,0.617248535156,5.5,36.75,29.9375,2.53,-2.59,10.32
1542226140248689889,400,0,/imu_data_acquisition2,106004.0,0.08203125,-0.0443725585938,0.783996582031,0.613708496094,-45.9375,82.375,63.75,2.53,-2.59,10.32
1542226140258203029,401,0,/imu_data_acquisition2,106011.0,0.0681762695312,-0.0460815429688,0.789306640625,0.608459472656,-108.3125,118.3125,96.0,3.07,-4.94,22.77
1542226140267625093,402,0,/imu_data_acquisition2,106024.0,0.0574340820312,-0.0462646484375,0.794738769531,0.602478027344,-71.75,100.375,101.1875,10.36,-0.21,15.59
1542226140278548002,403,0,/imu_data_acquisition2,106034.0,0.0472412109375,-0.044677734375,0.80078125,0.595458984375,-49.3125,107.5,113.5625,1.67,-8.24,-2.91
1542226140289650917,404,0,/imu_data_acquisition2,106044.0,0.034423828125,-0.0421142578125,0.806091308594,0.589294433594,-60.4375,139.125,101.125,-2.96,-18.91,12.51
1542226140299093008,405,0,/imu_data_acquisition2,106054.0,0.018310546875,-0.038330078125,0.809875488281,0.585083007812,-72.375,179.3125,72.9375,-3.46,-18.3,11.96
1542226140319839954,406,0,/imu_data_acquisition2,106063.0,0.00286865234375,-0.0345458984375,0.8115234375,0.583312988281,-69.625,174.0,34.6875,-3.46,-18.3,11.96
1542226140321831941,407,0,/imu_data_acquisition2,106071.0,-0.010986328125,-0.030517578125,0.810974121094,0.584167480469,-57.1875,161.5,-6.5625,-2.55,-3.63,11.09
1542226140328171014,408,0,/imu_data_acquisition2,106084.0,-0.0234375,-0.0255126953125,0.809692382812,0.585815429688,-6.0625,-0.0625,-0.0625,-3.27,6.42,14.63
1542226140338855981,409,0,/imu_data_acquisition2,106094.0,-0.0346069335938,-0.01953125,0.809326171875,0.585998535156,-19.75,148.875,1.125,-4.97,2.83,16.23
1542226140349497079,410,0,/imu_data_acquisition2,106104.0,-0.0453491210938,-0.0140380859375,0.810119628906,0.584289550781,-22.75,140.375,26.3125,-4.97,2.83,16.23
1542226140356165885,411,0,/imu_data_acquisition2,106112.0,-0.0565795898438,-0.0109252929688,0.811401367188,0.581665039062,-49.25,128.4375,37.25,-6.45,0.42,16.45
1542226140378983020,412,0,/imu_data_acquisition2,106126.0,-0.0675659179688,-0.0107421875,0.812438964844,0.579040527344,-75.3125,105.0625,34.0,-3.51,-4.42,11.73
1542226140383104085,413,0,/imu_data_acquisition2,106132.0,-0.0768432617188,-0.0125732421875,0.813354492188,0.576538085938,-83.0625,75.6875,29.75,-3.51,-4.42,11.73
1542226140390841960,414,0,/imu_data_acquisition2,106145.0,-0.084716796875,-0.0153198242188,0.814025878906,0.574462890625,-81.75,56.3125,23.625,-2.5,-3.81,10.75
1542226140399524927,415,0,/imu_data_acquisition2,106155.0,-0.0916748046875,-0.0184936523438,0.814453125,0.572631835938,-79.9375,44.5625,19.0,-2.5,-3.81,10.75
1542226140409096002,416,0,/imu_data_acquisition2,106162.0,-0.09814453125,-0.0220947265625,0.814819335938,0.570922851562,-80.5,37.5625,15.9375,-1.91,-3.08,10.59
1542226140416500091,417,0,/imu_data_acquisition2,106172.0,-0.104736328125,-0.0258178710938,0.815002441406,0.5693359375,-81.5,37.5625,13.5625,-3.01,-3.57,12.02
1542226140427319049,418,0,/imu_data_acquisition2,106183.0,-0.110778808594,-0.0291748046875,0.81494140625,0.568115234375,-75.125,35.5,9.6875,-3.12,-3.74,10.99
1542226140438446044,419,0,/imu_data_acquisition2,106194.0,-0.00640869140625,-6.103515625e-05,-6.103515625e-05,0.567138671875,-62.8125,28.1875,6.3125,-2.27,-3.14,9.88
1542226140450187921,420,0,/imu_data_acquisition2,106204.0,-0.120300292969,-0.0347290039062,0.814575195312,0.566345214844,-57.0,25.9375,4.0,-1.59,-3.26,9.92
1542226140455574989,421,0,/imu_data_acquisition2,106210.0,-0.124755859375,-0.0369873046875,0.814270019531,0.565734863281,-52.6875,28.25,2.375,-2.15,-2.96,10.54
1542226140474884033,422,0,/imu_data_acquisition2,106222.0,-0.128845214844,-0.038818359375,0.813842773438,0.565307617188,-45.875,27.5625,0.5625,-2.1,-2.86,10.28
1542226140481260061,423,0,/imu_data_acquisition2,106234.0,-0.132446289062,-0.0403442382812,0.813354492188,0.565063476562,-39.5,25.1875,-0.9375,-2.59,-2.33,10.21
1542226140493305921,424,0,/imu_data_acquisition2,106249.0,-0.135498046875,-0.0414428710938,0.812927246094,0.564880371094,-31.125,22.1875,-1.625,-2.22,-2.66,9.56
1542226140508766889,425,0,/imu_data_acquisition2,106257.0,-0.138000488281,-0.0423583984375,0.8125,0.564819335938,-21.375,18.375,-3.25,-2.38,-2.54,9.73
1542226140522989034,426,0,/imu_data_acquisition2,106266.0,-0.140258789062,-0.04296875,0.81201171875,0.564880371094,-21.375,18.375,-3.25,-2.03,-2.81,8.95
1542226140524276018,427,0,/imu_data_acquisition2,106272.0,-0.142211914062,-0.0433959960938,0.811584472656,0.56494140625,-17.375,16.75,-3.4375,-2.03,-2.81,8.95
1542226140530693054,428,0,/imu_data_acquisition2,106281.0,-0.143859863281,-0.0435791015625,0.811218261719,0.565063476562,-12.875,15.0625,-0.0625,-2.58,-3.01,10.13
1542226140545897960,429,0,/imu_data_acquisition2,106295.0,-0.145263671875,-0.0435791015625,0.810913085938,0.565246582031,-9.0625,13.625,-3.0625,-2.28,-2.52,9.25
1542226140551106929,430,0,/imu_data_acquisition2,106302.0,-0.146301269531,-0.0435791015625,0.810607910156,0.565368652344,-6.6875,11.3125,-2.8125,-2.19,-2.71,9.29
1542226140565515041,431,0,/imu_data_acquisition2,106316.0,-0.147216796875,-0.04345703125,0.810302734375,0.565490722656,-4.9375,9.5,-2.375,-2.18,-2.44,9.25
1542226140570118904,432,0,/imu_data_acquisition2,106324.0,-0.14794921875,-0.0433349609375,0.81005859375,0.565673828125,-3.125,8.5,-2.8125,-2.18,-2.44,9.25
1542226140574912071,433,0,/imu_data_acquisition2,106331.0,-0.148498535156,-0.0430297851562,0.809814453125,0.56591796875,-0.875,8.0625,-2.875,-2.3,-2.58,9.26
1542226140591974973,434,0,/imu_data_acquisition2,106347.0,-0.149047851562,-0.0426635742188,0.8095703125,0.566162109375,1.625,7.125,-3.0625,-2.3,-2.66,9.08
1542226140610960006,436,0,/imu_data_acquisition2,106363.0,-0.149780273438,-0.0418090820312,0.809143066406,0.566650390625,2.6875,6.8125,-2.75,-2.38,-2.58,9.33
1542226140624262094,437,0,/imu_data_acquisition2,106374.0,-0.150024414062,-0.0413818359375,0.808959960938,0.56689453125,2.4375,5.6875,-2.875,-2.33,-2.67,9.27
1542226140630119085,438,0,/imu_data_acquisition2,106384.0,-0.150573730469,-0.041015625,0.808715820312,0.567138671875,2.6875,5.125,-2.875,-2.24,-2.52,9.29
1542226140640736103,439,0,/imu_data_acquisition2,106394.0,-0.151062011719,-0.0406494140625,0.808471679688,0.567321777344,2.6875,4.4375,-3.0,-2.3,-2.49,9.12
1542226140673670053,442,0,/imu_data_acquisition2,106425.0,-0.151977539062,-0.0392456054688,0.807800292969,0.568176269531,5.0,5.1875,-3.6875,-2.04,-2.58,9.37
1542226140688133955,443,0,/imu_data_acquisition2,106437.0,-0.152282714844,-0.0386352539062,0.807556152344,0.568481445312,4.8125,5.125,-3.5625,-2.41,-2.25,9.35
1542226140701210021,445,0,/imu_data_acquisition2,106456.0,-0.153076171875,-0.0377197265625,0.807067871094,0.569030761719,3.5,4.4375,-3.6875,-2.53,-2.58,9.24
1542226140709937095,446,0,/imu_data_acquisition2,106464.0,-0.153137207031,-0.037353515625,0.806884765625,0.5693359375,3.1875,3.875,-3.3125,-2.67,-2.67,9.22
1542226140729978084,447,0,/imu_data_acquisition2,106480.0,-0.153259277344,-0.0368041992188,0.806518554688,0.56982421875,2.4375,2.5625,-3.1875,-2.37,-0.01,-0.01
1542226140732486009,448,0,/imu_data_acquisition2,106488.0,-0.153259277344,-0.0368041992188,0.806518554688,0.56982421875,1.9375,2.625,-3.25,-2.48,-2.66,9.2
1542226140751689910,449,0,/imu_data_acquisition2,106495.0,-0.153869628906,-0.03662109375,0.806274414062,0.570068359375,1.9375,2.625,-3.25,-2.48,-2.66,9.2
1542226140752657890,450,0,/imu_data_acquisition2,106503.0,-0.154174804688,-0.036376953125,0.806030273438,0.570251464844,2.125,2.375,-2.875,-2.27,-2.43,9.3
1542226140760581970,451,0,/imu_data_acquisition2,106513.0,-0.154541015625,-0.0361328125,0.805847167969,0.570434570312,2.4375,2.3125,-2.875,-2.41,-2.48,9.11
1542226140770142078,452,0,/imu_data_acquisition2,106522.0,-0.154846191406,-0.0358276367188,0.8056640625,0.570617675781,2.9375,2.5,-2.875,-2.31,-2.51,9.22
1542226140777476072,453,0,/imu_data_acquisition2,106532.0,-0.155090332031,-0.0355224609375,0.805480957031,0.570861816406,3.3125,2.5,-2.5625,-2.21,-2.51,9.24
