%time,field.header.seq,field.header.stamp,field.header.frame_id,field.time_stamp,field.quat_x,field.quat_y,field.quat_z,field.quat_w,field.gyro_x,field.gyro_y,field.gyro_z,field.accel_x,field.accel_y,field.accel_z
1542225709169683933,144,0,/imu_data_acquisition2,28820.0,-0.00689697265625,-6.103515625e-05,-6.103515625e-05,0.61962890625,5.0,165.625,103.625,-4.43,-2.08,10.64
1542225709180188894,145,0,/imu_data_acquisition2,28831.0,-0.234985351562,0.139343261719,0.742919921875,0.611083984375,35.5,201.0,105.25,-4.99,-1.46,10.46
1542225709190193891,146,0,/imu_data_acquisition2,28841.0,-0.244445800781,0.153991699219,0.743835449219,0.602722167969,50.8125,219.5,96.6875,-5.23,-1.19,10.77
1542225709199642896,147,0,/imu_data_acquisition2,28851.0,-0.25439453125,0.170349121094,0.743347167969,0.5947265625,57.875,238.25,83.625,-6.65,-0.83,11.11
1542225709207285881,148,0,/imu_data_acquisition2,28858.0,-0.26513671875,0.187683105469,0.741455078125,0.587097167969,57.875,238.25,83.625,-6.65,-0.83,11.11
1542225709217474937,149,0,/imu_data_acquisition2,28868.0,-0.276977539062,0.205871582031,0.738037109375,0.579833984375,62.0625,256.875,71.3125,-7.08,-0.48,11.81
1542225709229384899,150,0,/imu_data_acquisition2,28880.0,-0.289794921875,0.224304199219,0.733215332031,0.572814941406,56.6875,282.5625,42.75,-8.04,-0.51,11.58
1542225709239304065,151,0,/imu_data_acquisition2,28890.0,-0.303649902344,0.242431640625,0.72705078125,0.565979003906,49.5,287.0,28.8125,-8.66,-1.21,12.7
1542225709249489068,152,0,/imu_data_acquisition2,28901.0,-0.318237304688,0.259887695312,0.719848632812,0.559448242188,46.3125,291.0,17.25,-10.39,-1.23,14.51
1542225709257675886,153,0,/imu_data_acquisition2,28909.0,-0.333251953125,0.27685546875,0.711608886719,0.553100585938,46.3125,291.0,17.25,-10.39,-1.23,14.51
1542225709267728090,154,0,/imu_data_acquisition2,28919.0,-0.348205566406,0.293701171875,0.701965332031,0.547546386719,53.9375,292.5,1.3125,-9.94,-1.52,12.14
1542225709279225111,155,0,/imu_data_acquisition2,28930.0,-0.362548828125,0.309265136719,0.691345214844,0.543090820312,54.8125,279.875,-17.75,-7.96,-1.94,11.25
1542225709289091110,156,0,/imu_data_acquisition2,28940.0,-6.103515625e-05,-6.103515625e-05,-6.103515625e-05,0.539489746094,61.9375,271.8125,-30.25,-7.37,-1.55,10.14
1542225709302495956,157,0,/imu_data_acquisition2,28951.0,-0.389587402344,0.339233398438,0.667358398438,0.536437988281,68.0,263.6875,-47.25,-5.57,1.91,17.25
1542225709309859991,158,0,/imu_data_acquisition2,28960.0,-0.402587890625,0.353332519531,0.654418945312,0.53369140625,68.0,263.6875,-47.25,0.88,3.06,23.1
1542225709320466995,159,0,/imu_data_acquisition2,28970.0,-0.4150390625,0.364562988281,0.642211914062,0.531433105469,48.75,234.75,-57.9375,0.88,3.06,23.1
1542225709333206892,160,0,/imu_data_acquisition2,28983.0,-0.423950195312,0.3701171875,0.633361816406,0.531188964844,-8.3125,64.1875,-28.625,-1.89,0.29,22.46
1542225709341617107,161,0,/imu_data_acquisition2,28993.0,-0.428649902344,0.371520996094,0.630004882812,0.530395507812,-26.1875,-1.3125,-9.9375,3.3,2.67,11.03
1542225709352318048,162,0,/imu_data_acquisition2,29002.0,-0.430114746094,0.369689941406,0.630432128906,0.530029296875,-40.6875,-27.3125,-14.0625,3.39,1.4,10.63
1542225709358844995,163,0,/imu_data_acquisition2,29010.0,-0.430908203125,0.365783691406,0.632080078125,0.530090332031,-40.6875,-27.3125,-14.0625,3.39,1.4,10.63
1542225709370771884,164,0,/imu_data_acquisition2,29020.0,-0.431457519531,0.360107421875,0.634704589844,0.530395507812,-56.125,-46.1875,-16.375,2.9,0.3,10.44
1542225709379837989,165,0,/imu_data_acquisition2,29031.0,-0.431396484375,0.353698730469,0.637756347656,0.531127929688,-57.5,-59.75,-19.0,0.36,0.51,12.41
1542225709401274919,167,0,/imu_data_acquisition2,29051.0,-0.426696777344,0.33837890625,0.645568847656,0.535400390625,-45.75,-108.875,-21.6875,-2.27,0.94,14.13
1542225709409989118,168,0,/imu_data_acquisition2,29060.0,-0.421813964844,0.328796386719,0.650695800781,0.539001464844,-44.875,-138.1875,-23.75,-3.49,0.73,14.37
1542225709424973964,169,0,/imu_data_acquisition2,29074.0,-0.407897949219,0.304138183594,0.66357421875,0.548400878906,-54.5,-198.5625,-32.1875,-4.14,0.44,13.53
1542225709431641101,170,0,/imu_data_acquisition2,29082.0,-0.407897949219,0.304138183594,0.66357421875,0.548400878906,-58.0625,-231.5625,-35.75,-4.02,0.28,11.59
1542225709441818952,171,0,/imu_data_acquisition2,29092.0,-0.3984375,0.288879394531,0.671264648438,0.554260253906,-58.5625,-257.125,-39.5,-3.43,-0.43,7.34
1542225709453905105,172,0,/imu_data_acquisition2,29105.0,-0.375671386719,0.254699707031,0.68701171875,0.567443847656,-55.0625,-268.0625,-45.3125,-3.41,-0.72,6.33
1542225709460380077,173,0,/imu_data_acquisition2,29109.0,-0.375671386719,0.254699707031,-6.103515625e-05,0.567443847656,-55.0625,-268.0625,-45.3125,-3.41,-0.72,6.33
1542225709468981981,174,0,/imu_data_acquisition2,29120.0,-0.363342285156,0.237731933594,0.693725585938,0.574645996094,-43.875,-265.4375,-51.9375,-3.75,-1.08,6.36
1542225709494370937,176,0,/imu_data_acquisition2,29144.0,-0.324951171875,0.191162109375,0.707336425781,0.597900390625,-12.4375,-250.0625,-68.0,-6.51,0.81,11.22
1542225709503520011,177,0,/imu_data_acquisition2,29153.0,-0.311218261719,0.175659179688,0.710998535156,0.605651855469,-11.4375,-255.9375,-67.75,-6.66,0.96,10.71
1542225709518202066,178,0,/imu_data_acquisition2,29169.0,-0.311218261719,0.175659179688,0.710998535156,0.605651855469,-12.375,-0.0625,-0.0625,-6.62,0.76,10.2
1542225709520998954,179,0,/imu_data_acquisition2,29172.0,-0.297180175781,0.159851074219,0.714416503906,0.612976074219,-10.3125,-257.625,-62.3125,-6.8,0.57,-0.01
1542225709534007072,180,0,/imu_data_acquisition2,29182.0,-0.282958984375,0.144287109375,0.717651367188,0.619812011719,-10.3125,-257.625,-62.3125,-7.13,1.02,10.45
1542225709547681093,181,0,/imu_data_acquisition2,29192.0,-0.268615722656,0.129516601562,0.720458984375,0.626159667969,-3.9375,-250.5625,-58.125,-7.45,1.38,10.88
1542225709550600051,182,0,/imu_data_acquisition2,29202.0,-0.254272460938,0.115661621094,0.722900390625,0.631958007812,3.25,-241.3125,-53.375,-7.45,1.57,10.95
1542225709560095071,183,0,/imu_data_acquisition2,29211.0,-0.240051269531,0.102600097656,0.72509765625,0.637268066406,7.5,-233.125,-49.0,-7.45,1.57,10.95
1542225709577058076,184,0,/imu_data_acquisition2,29220.0,-0.226318359375,0.0908203125,0.727294921875,0.641540527344,11.5625,-218.3125,-36.625,-7.3,1.36,10.44
1542225709579945087,185,0,/imu_data_acquisition2,29231.0,-0.212524414062,0.0789794921875,0.729248046875,0.645568847656,11.5625,-218.3125,-36.625,-6.91,0.22,10.05
1542225709591175079,186,0,/imu_data_acquisition2,29242.0,-0.199035644531,0.068603515625,0.731018066406,0.649047851562,20.25,-203.9375,-30.0625,-8.66,-1.12,13.78
1542225709603266954,187,0,/imu_data_acquisition2,29252.0,-0.185485839844,0.06103515625,0.732238769531,0.652465820312,46.0625,-180.8125,-27.625,-9.25,-0.88,14.58
1542225709608294963,188,0,/imu_data_acquisition2,29259.0,-0.171203613281,0.0537109375,0.733093261719,0.656005859375,53.75,-184.9375,-29.25,-9.25,-0.88,14.58
1542225709619695901,189,0,/imu_data_acquisition2,29270.0,-0.156494140625,0.0463256835938,0.733703613281,0.659545898438,57.3125,-188.6875,-31.625,-9.05,-0.95,13.5
1542225709632600069,190,0,/imu_data_acquisition2,29282.0,-0.141662597656,0.0389404296875,0.734130859375,0.662902832031,57.3125,-188.6875,-31.625,-8.72,-2.01,10.89
1542225709642800092,191,0,/imu_data_acquisition2,29292.0,-0.126892089844,0.03173828125,0.734130859375,0.666259765625,59.1875,-186.625,-34.3125,-8.82,-2.0,10.77
1542225709651465892,192,0,/imu_data_acquisition2,29302.0,-0.1123046875,0.0264282226562,0.733459472656,0.669860839844,74.3125,-168.8125,-39.0,-8.76,-1.72,10.71
1542225709660831928,193,0,/imu_data_acquisition2,29311.0,-0.0978393554688,0.022216796875,0.732421875,0.673400878906,82.875,-159.0,-39.8125,-8.76,-1.72,10.71
1542225709668167114,194,0,/imu_data_acquisition2,29319.0,-0.0836181640625,0.0187377929688,0.731201171875,0.6767578125,87.625,-150.25,-39.25,-8.9,-1.69,11.13
1542225709680179119,195,0,/imu_data_acquisition2,29331.0,-0.069580078125,0.0155639648438,0.729858398438,0.679870605469,88.625,-146.1875,-37.625,-9.66,-2.47,12.36
1542225709691778898,196,0,/imu_data_acquisition2,29343.0,-0.055419921875,0.0125732421875,0.728454589844,0.682739257812,90.3125,-146.1875,-36.0625,-10.32,-3.52,11.92
1542225709702630996,197,0,/imu_data_acquisition2,29352.0,-0.0409545898438,0.00970458984375,0.726989746094,0.685363769531,94.625,-147.0625,-34.25,-10.07,-3.08,9.12
1542225709710001945,198,0,/imu_data_acquisition2,29361.0,-0.0266723632812,0.00701904296875,0.725463867188,0.687744140625,93.875,-144.1875,-32.625,-10.07,-3.08,9.12
1542225709719947099,199,0,/imu_data_acquisition2,29370.0,-0.0130004882812,0.0045166015625,0.723815917969,0.689880371094,90.4375,-137.9375,-15.375,-10.25,-3.19,8.51
1542225709730761051,200,0,/imu_data_acquisition2,29380.0,6.103515625e-05,0.00238037109375,0.722106933594,0.691772460938,88.75,-0.0625,-0.0625,-10.55,-3.05,8.21
1542225709741933107,201,0,/imu_data_acquisition2,29392.0,0.0123901367188,0.0003662109375,0.720458984375,0.693420410156,83.875,-121.9375,-26.875,-11.15,-1.6,6.38
1542225709751529932,202,0,/imu_data_acquisition2,29402.0,0.023681640625,-0.0018310546875,0.718872070312,0.694702148438,73.625,-114.625,-23.5625,-11.19,-1.66,5.13
1542225709758146047,203,0,/imu_data_acquisition2,29409.0,0.0336303710938,-0.004150390625,0.717529296875,0.695678710938,62.1875,-103.6875,-19.125,-11.19,-1.66,5.13
1542225709769083976,204,0,/imu_data_acquisition2,29420.0,0.0421752929688,-0.00604248046875,0.716430664062,0.696350097656,54.0,-88.5625,-14.0625,-11.4,-1.8,4.12
1542225709780668973,205,0,/imu_data_acquisition2,29432.0,0.0493774414062,-0.00714111328125,0.715698242188,0.696655273438,49.1875,-70.8125,-8.6875,-12.64,-2.03,3.22
1542225709792756080,206,0,/imu_data_acquisition2,29443.0,0.0552368164062,-0.00750732421875,0.71533203125,0.696594238281,45.8125,-52.5,-2.6875,-14.23,-1.37,1.6
1542225709802198886,207,0,/imu_data_acquisition2,29452.0,0.059326171875,-0.00714111328125,0.715454101562,0.696105957031,36.625,-31.5,4.0625,-16.2,0.54,-1.01
1542225709809442996,208,0,/imu_data_acquisition2,29460.0,0.0610961914062,-0.00640869140625,0.716125488281,0.695251464844,21.4375,-8.5,12.4375,-16.2,0.54,-1.01
1542225709821355104,209,0,/imu_data_acquisition2,29471.0,0.0574951171875,-0.00518798828125,0.718078613281,0.693542480469,-17.875,41.6875,29.9375,-16.3,3.97,-6.71
1542225709833291053,210,0,/imu_data_acquisition2,29482.0,0.044677734375,-0.00433349609375,0.721374511719,0.691040039062,-96.25,117.9375,48.5,-17.86,0.83,-8.24
1542225709841306924,211,0,/imu_data_acquisition2,29492.0,0.0284423828125,-0.0047607421875,0.72412109375,0.689025878906,-134.75,136.3125,40.75,7.06,-2.69,23.66
1542225709853087902,212,0,/imu_data_acquisition2,29503.0,0.0154418945312,-0.00433349609375,0.726867675781,0.686584472656,-101.625,115.5625,43.625,7.11,-3.72,8.36
1542225709859256029,213,0,/imu_data_acquisition2,29510.0,0.0045166015625,-0.0013427734375,0.730224609375,0.683227539062,-62.0,119.125,56.1875,7.11,-3.72,8.36
1542225709870193958,214,0,/imu_data_acquisition2,29520.0,-0.0098876953125,0.002685546875,0.731872558594,0.681335449219,-81.625,157.5,29.625,-1.36,-12.57,7.34
1542225709879160881,215,0,/imu_data_acquisition2,29529.0,-0.0267333984375,0.00634765625,0.731323242188,0.681518554688,-104.0625,174.9375,-5.6875,-4.47,-14.33,15.62
1542225709892134904,216,0,/imu_data_acquisition2,29542.0,-0.0408325195312,0.010498046875,0.729736328125,0.682434082031,-77.5,156.0625,-20.8125,-4.9,-2.89,13.01
1542225709901392936,217,0,/imu_data_acquisition2,29552.0,-6.103515625e-05,-6.103515625e-05,-6.103515625e-05,0.683532714844,-55.75,131.75,-23.4375,-4.9,-2.89,13.01
1542225709910392045,218,0,/imu_data_acquisition2,29560.0,-0.0619506835938,0.0187377929688,0.726806640625,0.683776855469,-43.0,118.6875,-9.75,-3.74,4.88,12.48
1542225709918999910,219,0,/imu_data_acquisition2,29569.0,-0.0706787109375,0.0236206054688,0.727294921875,0.682250976562,-29.3125,114.6875,18.25,-4.61,3.05,13.77
1542225709932307004,220,0,/imu_data_acquisition2,29582.0,-0.0789184570312,0.0277709960938,0.728271484375,0.68017578125,-33.25,104.0625,27.25,-4.86,-1.07,15.98
1542225709942053079,221,0,/imu_data_acquisition2,29592.0,-0.0863037109375,0.0299072265625,0.728820800781,0.678588867188,-42.5,80.875,17.625,-4.0,-0.46,11.75
1542225709952615976,222,0,/imu_data_acquisition2,29602.0,-0.0921020507812,0.0305786132812,0.729309082031,0.67724609375,-42.125,55.375,13.8125,-4.0,-0.46,11.75
1542225709959621906,223,0,/imu_data_acquisition2,29610.0,-0.09716796875,0.0303955078125,0.729919433594,0.675903320312,-44.25,41.875,14.0,-3.16,-0.35,11.66
1542225709970844984,224,0,/imu_data_acquisition2,29620.0,-0.101928710938,0.0293579101562,0.730407714844,0.674682617188,-48.4375,32.5625,11.875,-2.67,-2.18,10.68
1542225709978790044,225,0,/imu_data_acquisition2,29630.0,-0.106384277344,0.0277099609375,0.730773925781,0.673767089844,-50.6875,25.5,7.4375,-2.31,-1.86,10.06
1542225709991679906,226,0,/imu_data_acquisition2,29643.0,-0.110717773438,0.02587890625,0.73095703125,0.672912597656,-51.75,22.875,5.0625,-1.97,-1.43,9.79
1542225710002358913,227,0,/imu_data_acquisition2,29651.0,-0.115112304688,0.0238647460938,0.731018066406,0.672119140625,-53.5,22.0625,3.375,-2.15,-1.34,10.17
1542225710008894920,228,0,/imu_data_acquisition2,29660.0,-0.119445800781,0.021728515625,0.731079101562,0.67138671875,-54.0,20.25,2.875,-2.22,-1.38,9.73
1542225710020000934,229,0,/imu_data_acquisition2,29670.0,-0.12353515625,0.0195922851562,0.731201171875,0.670593261719,-52.375,18.6875,3.0625,-2.3,-1.76,10.14
1542225710028846979,230,0,/imu_data_acquisition2,29679.0,-0.127502441406,0.0174560546875,0.731201171875,0.669921875,-50.5,17.625,2.4375,-2.23,-2.06,10.18
1542225710042536973,231,0,/imu_data_acquisition2,29693.0,-0.131164550781,0.0155639648438,0.731201171875,0.669250488281,-46.75,16.75,1.8125,-2.2,-2.27,10.21
1542225710052371978,232,0,/imu_data_acquisition2,29703.0,-0.134521484375,0.013916015625,0.731140136719,0.668701171875,-41.375,16.0625,1.1875,-2.34,-2.2,10.29
1542225710058552026,233,0,/imu_data_acquisition2,29709.0,-0.137451171875,0.0126342773438,0.731018066406,0.668212890625,-35.25,15.375,0.6875,-2.55,-2.04,10.2
1542225710069031000,234,0,/imu_data_acquisition2,29720.0,-0.139892578125,0.0116577148438,0.730895996094,0.667907714844,-12.25,-0.0625,-0.0625,-2.76,-2.18,10.12
1542225710079596042,235,0,/imu_data_acquisition2,29730.0,-0.141845703125,0.0109252929688,0.730712890625,0.667724609375,-21.75,11.6875,-1.375,-2.38,-2.07,10.3
1542225710092015981,236,0,/imu_data_acquisition2,29742.0,-0.143493652344,0.0104370117188,0.73046875,0.667602539062,-17.5625,10.6875,-1.8125,-2.4,-2.1,10.06
1542225710101309061,237,0,/imu_data_acquisition2,29752.0,-0.144836425781,0.0100708007812,0.730285644531,0.667541503906,-14.125,9.125,-1.625,-2.31,-1.79,9.97
1542225710110285043,238,0,/imu_data_acquisition2,29761.0,-0.146057128906,0.00982666015625,0.730102539062,0.66748046875,-11.5,8.75,-1.625,-2.23,-1.88,9.87
1542225710121042966,239,0,/imu_data_acquisition2,29771.0,-0.147155761719,0.00970458984375,0.729858398438,0.66748046875,-10.0,9.25,-2.3125,-2.21,-1.6,9.53
1542225710128696918,240,0,/imu_data_acquisition2,29780.0,-0.148315429688,0.0096435546875,0.729614257812,0.667541503906,-9.4375,10.0625,-2.6875,-2.12,-1.48,9.74
1542225710141777038,241,0,/imu_data_acquisition2,29792.0,-0.149475097656,0.00970458984375,0.729309082031,0.667602539062,-8.625,10.8125,-2.8125,-2.4,-1.87,9.55
1542225710151177883,242,0,/imu_data_acquisition2,29801.0,-0.150634765625,0.009765625,0.72900390625,0.667663574219,-8.375,11.1875,-2.9375,-2.57,-1.83,9.46
1542225710159802913,243,0,/imu_data_acquisition2,29810.0,-0.151794433594,0.00982666015625,0.728698730469,0.667724609375,-8.0625,11.0625,-3.0,-2.37,-1.99,9.66
1542225710171432018,244,0,/imu_data_acquisition2,29820.0,-0.152954101562,0.010009765625,0.728393554688,0.667846679688,-7.6875,11.8125,-3.375,-2.07,-1.77,9.34
1542225710181632995,245,0,/imu_data_acquisition2,29831.0,-0.154235839844,0.01025390625,0.72802734375,0.667907714844,-7.625,13.625,-3.0625,-2.47,-0.01,-0.01
1542225710190644025,246,0,/imu_data_acquisition2,29842.0,-0.155517578125,0.0106201171875,-6.103515625e-05,0.66796875,-7.0625,14.5625,-3.3125,-2.34,-1.67,9.27
1542225710202821016,247,0,/imu_data_acquisition2,29853.0,-0.156860351562,0.0110473632812,0.727294921875,0.668090820312,-7.125,15.3125,-0.0625,-2.54,-1.76,9.4
1542225710208959102,248,0,/imu_data_acquisition2,29860.0,-0.158203125,0.011474609375,0.726867675781,0.668212890625,-7.0,15.5,-3.5625,-2.33,-1.72,9.51
1542225710220593929,249,0,/imu_data_acquisition2,29872.0,-0.159545898438,0.0119018554688,0.726440429688,0.668334960938,-6.6875,16.1875,-3.6875,-2.6,-1.82,9.38
1542225710234582901,250,0,/imu_data_acquisition2,29885.0,-0.004638671875,-6.103515625e-05,-6.103515625e-05,0.66845703125,-6.0,15.9375,-3.75,-2.77,-1.87,9.4
1542225710238121986,251,0,/imu_data_acquisition2,29889.0,-0.005859375,-6.103515625e-05,-6.103515625e-05,0.668640136719,-6.0,14.9375,-4.3125,-2.77,-1.87,9.4
1542225710260684013,253,0,/imu_data_acquisition2,29910.0,-0.164245605469,0.0135498046875,0.724792480469,0.6689453125,-4.4375,12.375,-3.625,-2.75,-2.0,9.35
1542225710268054008,254,0,/imu_data_acquisition2,29919.0,-0.165161132812,0.013916015625,0.724426269531,0.669128417969,-4.0,11.5,-3.875,-2.44,-1.83,9.38
1542225710279618978,255,0,/imu_data_acquisition2,29930.0,-0.166015625,0.0142211914062,0.724060058594,0.669311523438,-3.75,10.5,-3.875,-2.34,-2.0,9.4
1542225710292001008,256,0,/imu_data_acquisition2,29941.0,-0.166870117188,0.0145874023438,0.723693847656,0.66943359375,-3.25,10.875,-0.0625,-2.64,-2.02,9.22
1542225710298326015,257,0,/imu_data_acquisition2,29949.0,-0.167663574219,0.0150146484375,0.723388671875,0.669616699219,-2.375,10.875,-3.1875,-2.75,-2.09,9.49
1542225710309703111,258,0,/imu_data_acquisition2,29960.0,-0.168395996094,0.0154418945312,0.723083496094,0.669738769531,-1.75,9.875,-3.125,-2.81,-2.07,9.35
1542225710321326971,259,0,/imu_data_acquisition2,29970.0,-0.169067382812,0.015869140625,0.722778320312,0.669921875,-1.1875,9.3125,-3.0,-2.87,-2.11,9.56
1542225710328254938,260,0,/imu_data_acquisition2,29979.0,-0.0133056640625,-6.103515625e-05,-6.103515625e-05,0.670043945312,-0.4375,8.1875,-0.0625,-2.7,-1.97,9.43
1542225710340837001,261,0,/imu_data_acquisition2,29991.0,-0.169982910156,0.0167236328125,0.722290039062,0.670166015625,0.75,7.375,-1.8125,-3.05,-2.08,9.31
1542225710350626945,262,0,/imu_data_acquisition2,30000.0,-0.17041015625,0.0171508789062,0.722106933594,0.670288085938,0.6875,7.0625,-1.75,-2.77,-1.97,9.24
1542225710358594894,263,0,/imu_data_acquisition2,30009.0,-0.170776367188,0.017578125,0.721923828125,0.670349121094,0.8125,6.75,-1.4375,-2.71,-2.08,9.42
1542225710370141029,264,0,/imu_data_acquisition2,30020.0,-0.171142578125,0.0180053710938,0.721740722656,0.670471191406,0.6875,6.8125,-1.5,-2.74,-1.95,9.37
1542225710379278898,265,0,/imu_data_acquisition2,30029.0,-0.171569824219,0.0184936523438,0.721557617188,0.670532226562,1.0,7.375,-1.3125,-2.94,-1.97,9.37
1542225710388539075,266,0,/imu_data_acquisition2,30039.0,-6.103515625e-05,-6.103515625e-05,-6.103515625e-05,0.670593261719,1.1875,6.875,-1.3125,-2.77,-1.89,9.15
1542225710400646924,267,0,/imu_data_acquisition2,30051.0,-0.172302246094,0.0194091796875,0.72119140625,0.670715332031,1.3125,7.3125,-1.375,-2.76,-1.97,9.37
1542225710410140991,268,0,/imu_data_acquisition2,30059.0,-0.172607421875,0.0198974609375,0.720947265625,0.670837402344,1.5625,7.0625,-1.5625,-2.61,-1.95,9.26
1542225710419785022,269,0,/imu_data_acquisition2,30071.0,-0.172973632812,0.0204467773438,0.720764160156,0.6708984375,2.375,7.4375,-1.3125,-2.69,-2.03,9.25
1542225710431337118,270,0,/imu_data_acquisition2,30082.0,-0.173278808594,0.0211181640625,0.720581054688,0.671020507812,3.25,8.5625,-0.8125,-2.74,-1.97,9.08
1542225710439992904,271,0,/imu_data_acquisition2,30090.0,-0.173645019531,0.02197265625,0.720458984375,0.671081542969,4.75,10.0625,0.25,-2.63,-2.08,9.16
1542225710451423883,272,0,/imu_data_acquisition2,30102.0,-0.173950195312,0.0230102539062,0.720336914062,0.671020507812,6.0625,11.625,1.5625,-2.37,-1.98,-0.01
1542225710462254047,273,0,/imu_data_acquisition2,30112.0,-0.17431640625,0.0242309570312,0.720336914062,0.670959472656,8.3125,13.5625,3.125,-2.8,-2.23,9.15
1542225710472120046,274,0,/imu_data_acquisition2,30122.0,-0.174682617188,0.0257568359375,0.720275878906,0.670837402344,9.875,15.5,4.25,-2.81,-1.99,9.18
1542225710480907917,275,0,/imu_data_acquisition2,30132.0,-6.103515625e-05,-6.103515625e-05,-6.103515625e-05,0.670593261719,11.5,16.8125,6.0625,-2.75,-2.06,9.24
1542225710494611024,276,0,/imu_data_acquisition2,30143.0,-0.175476074219,0.0293579101562,0.720520019531,0.670227050781,13.125,18.8125,7.8125,-2.71,-1.88,9.07
1542225710501501083,277,0,/imu_data_acquisition2,30149.0,-0.175842285156,0.0315551757812,0.720642089844,0.669860839844,14.5625,20.625,9.0,-3.07,-1.86,9.17
1542225710511853933,278,0,/imu_data_acquisition2,30161.0,-0.17626953125,0.033935546875,0.720886230469,0.66943359375,15.75,22.375,10.25,-2.6,-1.82,9.24
1542225710521164894,279,0,/imu_data_acquisition2,30172.0,-0.1767578125,0.0364990234375,0.721069335938,0.6689453125,17.625,24.3125,11.3125,-3.09,-1.9,9.22
1542225710529395103,280,0,/imu_data_acquisition2,30180.0,-0.00537109375,-6.103515625e-05,-6.103515625e-05,0.668395996094,18.875,26.5625,11.875,-3.12,-1.66,9.38
1542225710542767047,281,0,/imu_data_acquisition2,30193.0,-0.177795410156,0.0423583984375,0.721557617188,0.667846679688,20.1875,28.625,12.875,-3.03,-1.71,8.96
1542225710551740884,282,0,/imu_data_acquisition2,30202.0,-0.178527832031,0.045654296875,0.721740722656,0.667175292969,21.0625,31.75,-0.0625,-3.43,-1.61,9.35
1542225710559529066,283,0,/imu_data_acquisition2,30210.0,-0.179321289062,0.049072265625,0.721984863281,0.66650390625,21.3125,33.875,14.375,-2.87,-1.56,9.09
1542225710572669982,284,0,/imu_data_acquisition2,30222.0,-0.180358886719,0.0526123046875,0.722106933594,0.665771484375,20.5625,36.75,14.1875,-3.3,-1.58,9.03
1542225710583914995,285,0,/imu_data_acquisition2,30234.0,-0.181579589844,0.0563354492188,0.722290039062,0.664978027344,19.9375,39.5625,15.125,-3.43,-1.56,9.1
1542225710594732046,286,0,/imu_data_acquisition2,30244.0,-0.182800292969,0.060302734375,0.722595214844,0.663940429688,22.0625,42.125,19.4375,-3.96,-1.39,8.76
1542225710600939989,287,0,/imu_data_acquisition2,30251.0,-0.184020996094,0.0645141601562,0.723083496094,0.662658691406,22.875,43.375,22.375,-2.99,-1.58,8.61
1542225710610551118,288,0,/imu_data_acquisition2,30260.0,-0.185485839844,0.06884765625,0.7236328125,0.661254882812,22.25,46.6875,24.9375,-3.38,-0.75,9.75
1542225710620134115,289,0,/imu_data_acquisition2,30271.0,-0.187194824219,0.0731811523438,0.724182128906,0.65966796875,19.6875,48.375,26.125,-3.03,-0.88,9.94
1542225710628698110,290,0,/imu_data_acquisition2,30279.0,-0.189208984375,0.0775146484375,0.724853515625,0.657836914062,17.125,51.125,28.6875,-3.42,-0.78,9.59
1542225710638358116,291,0,/imu_data_acquisition2,30288.0,-0.191650390625,0.0821533203125,0.725830078125,0.655517578125,14.625,-0.0625,-0.0625,-3.34,-0.44,8.46
1542225710648967027,292,0,/imu_data_acquisition2,30299.0,-0.194885253906,0.08740234375,0.72705078125,0.652526855469,11.5,68.75,43.6875,-3.35,-0.71,9.13
1542225710658788919,293,0,/imu_data_acquisition2,30309.0,-0.198852539062,0.093017578125,0.728698730469,0.648681640625,7.5,78.1875,54.8125,-3.36,-0.52,9.19
1542225710668773889,294,0,/imu_data_acquisition2,30319.0,-0.203247070312,0.0990600585938,0.73095703125,0.643859863281,4.375,84.0,68.0,-3.72,-0.76,9.9
1542225710677738904,295,0,/imu_data_acquisition2,30328.0,-0.207946777344,0.105529785156,0.733703613281,0.63818359375,3.5,89.6875,80.125,-2.59,-0.6,9.34
1542225710694283962,296,0,/imu_data_acquisition2,30339.0,-0.214965820312,0.113525390625,0.736022949219,0.631774902344,-2.4375,123.4375,84.5625,-4.06,-1.44,9.88
1542225710699209928,297,0,/imu_data_acquisition2,30349.0,-0.222961425781,0.122924804688,0.73828125,0.624633789062,1.25,144.125,92.4375,-4.33,-2.59,9.71
1542225710709038972,298,0,/imu_data_acquisition2,30360.0,-0.231384277344,0.133728027344,0.740173339844,0.617004394531,8.625,159.8125,96.9375,-4.03,-2.51,9.73
1542225710719873905,299,0,/imu_data_acquisition2,30370.0,-0.240295410156,0.146423339844,0.741638183594,0.608947753906,21.6875,179.4375,101.5625,-4.29,-2.52,-0.01
1542225710730489015,300,0,/imu_data_acquisition2,30380.0,-0.249389648438,0.1611328125,0.742126464844,0.600952148438,40.6875,198.3125,100.125,-2.49,-0.01,-0.01
1542225710738081932,301,0,/imu_data_acquisition2,30389.0,-0.258666992188,0.177673339844,0.7412109375,0.593444824219,58.9375,-0.0625,-0.0625,-5.17,-1.23,11.07
1542225710749491930,302,0,/imu_data_acquisition2,30400.0,-0.268615722656,0.195373535156,0.73876953125,0.58642578125,68.875,234.1875,77.4375,-5.52,-0.77,11.17
1542225710759433031,303,0,/imu_data_acquisition2,30410.0,-0.279602050781,0.213500976562,0.734924316406,0.579772949219,69.5,249.375,63.5,-6.42,-0.64,10.7
1542225710769407033,304,0,/imu_data_acquisition2,30419.0,-0.291625976562,0.231628417969,0.729797363281,0.573303222656,67.0,262.4375,51.125,-7.48,-0.26,11.07
1542225710779763936,305,0,/imu_data_acquisition2,30430.0,-0.304626464844,0.249450683594,0.723571777344,0.566955566406,61.125,272.0,38.6875,-8.1,-0.35,11.45
1542225710789179086,306,0,/imu_data_acquisition2,30440.0,-0.318176269531,0.266906738281,0.716247558594,0.560791015625,57.625,277.9375,26.5,-8.09,-0.76,11.67
1542225710800112962,307,0,/imu_data_acquisition2,30450.0,-0.331909179688,0.284423828125,0.707641601562,0.555114746094,63.375,283.25,13.4375,-10.1,-1.39,14.59
1542225710808821916,308,0,/imu_data_acquisition2,30459.0,-0.345153808594,0.301452636719,0.697814941406,0.550537109375,70.25,277.0,-4.0,-8.98,-1.47,11.22
1542225710818564891,309,0,/imu_data_acquisition2,30469.0,-0.357604980469,0.317687988281,0.68701171875,0.546997070312,76.875,265.5,-18.9375,-9.28,-1.46,10.67
1542225710829452037,310,0,/imu_data_acquisition2,30480.0,-0.369689941406,0.333618164062,0.67529296875,0.544128417969,83.8125,261.6875,-30.5625,-8.24,-1.38,11.13
1542225710838454008,311,0,/imu_data_acquisition2,30489.0,-0.381591796875,0.348693847656,0.662902832031,0.541687011719,82.125,256.5625,-41.3125,-7.91,-0.71,-0.01
1542225710849103927,312,0,/imu_data_acquisition2,30500.0,-0.393493652344,0.361938476562,0.650451660156,0.53955078125,69.25,243.5,-52.5625,-6.91,1.08,14.61
1542225710859317064,313,0,/imu_data_acquisition2,30509.0,-0.404174804688,0.3701171875,0.639831542969,0.538818359375,36.8125,186.75,-69.8125,-3.38,1.43,21.92
1542225710869296073,314,0,/imu_data_acquisition2,30520.0,-0.411926269531,0.373107910156,0.632568359375,0.539428710938,7.4375,109.9375,-70.5,-4.58,1.22,19.64
1542225710879359006,315,0,/imu_data_acquisition2,30530.0,-0.416687011719,0.37255859375,0.630249023438,0.538879394531,-26.5625,45.875,-34.4375,0.93,-0.21,19.05
1542225710887789964,316,0,/imu_data_acquisition2,30539.0,-0.419555664062,0.369934082031,0.629943847656,0.538818359375,-36.625,6.1875,-27.1875,3.49,0.91,13.23
1542225710899666070,317,0,/imu_data_acquisition2,30550.0,-0.422119140625,0.365295410156,0.630493164062,0.539245605469,-51.3125,-14.75,-33.5,3.35,0.4,10.68
1542225710910320997,318,0,/imu_data_acquisition2,30560.0,-0.424377441406,0.359436035156,0.631713867188,0.5400390625,-59.3125,-30.4375,-37.1875,2.85,0.22,10.66
1542225710917944908,319,0,/imu_data_acquisition2,30569.0,-0.425842285156,0.352844238281,0.633239746094,0.54150390625,-58.125,-44.8125,-40.8125,2.08,0.46,11.57
1542225710929157018,320,0,/imu_data_acquisition2,30579.0,-0.425842285156,0.345520019531,0.63525390625,0.543823242188,-51.75,-66.625,-41.25,0.71,1.32,12.95
1542225710939444065,321,0,/imu_data_acquisition2,30589.0,-0.424011230469,0.337341308594,0.638122558594,0.546997070312,-45.0625,-94.0,-7.4375,-0.05,1.83,13.52
1542225710948333024,322,0,/imu_data_acquisition2,30599.0,-0.420349121094,0.327941894531,0.64208984375,0.550903320312,-43.3125,-124.1875,-35.9375,-0.89,2.15,14.15
1542225710959249973,323,0,/imu_data_acquisition2,30610.0,-0.414855957031,0.316955566406,0.647399902344,0.555236816406,-46.875,-156.875,-31.8125,-1.81,2.48,14.47
1542225710968905925,324,0,/imu_data_acquisition2,30619.0,-0.407653808594,0.303894042969,0.654174804688,0.559936523438,-55.0,-191.625,-28.4375,-3.18,2.01,13.64
1542225710978267908,325,0,/imu_data_acquisition2,30629.0,-0.398803710938,0.288940429688,0.662109375,0.564880371094,-62.0,-224.0625,-26.125,-3.33,1.54,-0.01
1542225710990345001,326,0,/imu_data_acquisition2,30640.0,-0.388549804688,0.272521972656,0.670715332031,0.570068359375,-65.0625,-248.625,-25.4375,-3.22,0.81,10.23
1542225710999037981,327,0,/imu_data_acquisition2,30649.0,-0.377258300781,0.255493164062,0.679077148438,0.575500488281,-60.625,-260.375,-28.5625,-3.91,-0.72,8.49
1542225711008728981,328,0,/imu_data_acquisition2,30659.0,-0.365173339844,0.238647460938,0.686767578125,0.581420898438,-49.8125,-264.4375,-34.0625,-4.18,-0.92,8.03
1542225711020375013,329,0,/imu_data_acquisition2,30670.0,-0.352294921875,0.222412109375,0.693359375,0.587951660156,-33.9375,-263.5,-41.0625,-4.26,-0.63,7.65
1542225711029097080,330,0,/imu_data_acquisition2,30679.0,-0.339111328125,0.206726074219,0.698974609375,0.594787597656,-23.5625,-258.75,-47.875,-4.58,0.21,7.96
1542225711039386034,331,0,/imu_data_acquisition2,30690.0,-0.326049804688,0.191467285156,0.70361328125,0.601623535156,-18.4375,-250.75,-52.9375,-5.04,0.36,8.89
1542225711048491954,332,0,/imu_data_acquisition2,30699.0,-0.313354492188,0.176452636719,0.707580566406,0.608276367188,-17.5,-243.0,-56.5,-5.65,0.36,10.34
1542225711058722972,333,0,/imu_data_acquisition2,30709.0,-0.300659179688,0.161682128906,0.711059570312,0.614685058594,-15.375,-239.4375,-57.1875,-6.85,0.45,12.32
1542225711069214105,334,0,/imu_data_acquisition2,30720.0,-0.287414550781,0.147094726562,0.71435546875,0.620910644531,-10.875,-241.1875,-54.75,-6.89,0.65,12.22
1542225711077797889,335,0,/imu_data_acquisition2,30729.0,-0.287414550781,0.147094726562,0.71435546875,0.620910644531,-5.375,-243.5,-50.4375,-6.73,0.71,11.71
1542225711089400053,336,0,/imu_data_acquisition2,30740.0,-0.25927734375,0.118774414062,0.720520019531,0.632080078125,0.0,-243.0625,-45.875,-6.63,0.61,11.12
1542225711099816083,337,0,/imu_data_acquisition2,30749.0,-0.244873046875,0.10546875,0.723327636719,0.637023925781,5.75,-238.125,-42.0625,-6.55,0.49,10.66
1542225711108269929,338,0,/imu_data_acquisition2,30759.0,-0.23046875,0.0929565429688,0.725708007812,0.641540527344,11.3125,-230.0,-39.375,-6.45,0.42,10.54
1542225711119563102,339,0,/imu_data_acquisition2,30770.0,-0.216369628906,0.0814208984375,0.727722167969,0.645751953125,17.4375,-219.3125,-36.75,-6.3,0.19,10.5
1542225711129254102,340,0,/imu_data_acquisition2,30779.0,-0.202392578125,0.0711059570312,0.729309082031,0.649658203125,25.875,-206.875,-34.0,-6.74,-0.99,11.98
1542225711138601064,341,0,/imu_data_acquisition2,30789.0,-0.188720703125,0.0620727539062,0.73046875,0.653381347656,35.8125,-193.6875,-33.375,-7.94,-1.37,13.52
1542225711150002002,342,0,/imu_data_acquisition2,30800.0,-0.175109863281,0.0536499023438,0.731140136719,0.657165527344,39.9375,-187.375,-36.25,-8.5,-1.66,14.22
1542225711161072969,343,0,/imu_data_acquisition2,30810.0,-0.161499023438,0.044921875,0.731384277344,0.661010742188,38.5625,-188.375,-41.0625,-7.79,-2.01,11.83
1542225711168749094,344,0,/imu_data_acquisition2,30819.0,-0.148193359375,0.0363159179688,0.731079101562,0.6650390625,37.1875,-183.9375,-46.625,-7.71,-2.48,11.01
1542225711180028915,345,0,/imu_data_acquisition2,30830.0,-0.148193359375,0.0363159179688,0.731079101562,0.6650390625,38.6875,-171.375,-53.5625,-8.03,-2.68,11.13
1542225711189038038,346,0,/imu_data_acquisition2,30839.0,-0.123352050781,0.021728515625,0.728210449219,0.673828125,47.1875,-157.25,-59.6875,-8.69,-2.98,12.14
1542225711198905944,347,0,/imu_data_acquisition2,30850.0,-0.110900878906,0.0166625976562,0.725830078125,0.678649902344,62.75,-145.4375,-64.8125,-10.72,-3.46,13.87
1542225711209857940,348,0,/imu_data_acquisition2,30860.0,-0.0980834960938,0.0126953125,0.723022460938,0.683715820312,76.1875,-139.3125,-69.25,-10.84,-3.83,12.87
1542225711218971967,349,0,/imu_data_acquisition2,30870.0,-0.0845336914062,0.0093994140625,0.719848632812,0.688842773438,88.125,-139.4375,-71.1875,-10.69,-4.09,11.25
1542225711229351043,350,0,/imu_data_acquisition2,30880.0,-0.0704345703125,0.00732421875,0.716674804688,0.69384765625,102.5,-134.625,-69.0,-10.66,-3.17,9.15
1542225711240005016,351,0,/imu_data_acquisition2,30890.0,-0.0562133789062,0.0067138671875,0.713500976562,0.698364257812,115.5625,-123.6875,-63.625,-11.09,-2.54,9.5
1542225711249612092,352,0,/imu_data_acquisition2,30900.0,-0.0420532226562,0.0069580078125,0.710632324219,0.702270507812,122.0,-115.8125,-55.0,-11.92,-1.75,10.6
1542225711260112047,353,0,/imu_data_acquisition2,30910.0,-0.0282592773438,0.00689697265625,0.708312988281,0.705322265625,115.9375,-115.3125,-44.3125,-12.04,-0.54,10.23
1542225711270495891,354,0,/imu_data_acquisition2,30920.0,-0.01513671875,0.005859375,0.70654296875,0.707458496094,102.1875,-118.6875,-32.0625,-11.68,-1.0,9.01
1542225711279126882,355,0,/imu_data_acquisition2,30929.0,-0.01513671875,0.005859375,0.70654296875,0.707458496094,85.75,-120.0,-21.0625,-11.43,-1.57,7.82
1542225711289653062,356,0,/imu_data_acquisition2,30940.0,-0.0028076171875,0.0037841796875,0.705322265625,0.708862304688,75.375,-115.375,-11.1875,-11.28,-1.68,6.46
1542225711300754070,357,0,/imu_data_acquisition2,30951.0,0.0189819335938,-0.0008544921875,0.704345703125,0.709594726562,68.625,-105.6875,-2.6875,-11.05,-1.23,4.16
1542225711309808969,358,0,/imu_data_acquisition2,30960.0,0.028076171875,-0.002685546875,0.704467773438,0.709167480469,61.1875,-91.3125,5.1875,-11.25,-1.15,3.35
1542225711320306062,359,0,/imu_data_acquisition2,30970.0,0.028076171875,-0.002685546875,0.704467773438,0.709167480469,52.4375,-73.0625,12.5625,-11.77,-1.14,2.93
1542225711333611011,360,0,/imu_data_acquisition2,30982.0,0.0413208007812,-0.00469970703125,0.7060546875,0.706909179688,43.125,-53.5625,19.5625,-13.6,-1.55,2.77
1542225711340475082,361,0,/imu_data_acquisition2,30990.0,0.0413208007812,-0.00469970703125,0.7060546875,0.706909179688,33.9375,-35.1875,25.75,-14.65,-1.78,2.67
1542225711349994897,362,0,/imu_data_acquisition2,31000.0,0.0480346679688,-0.004638671875,0.709289550781,0.703247070312,24.625,-19.375,31.8125,-15.29,-1.67,2.02
1542225711369719982,364,0,/imu_data_acquisition2,31020.0,0.0439453125,-0.00341796875,0.714965820312,0.69775390625,-31.8125,48.75,54.125,-16.5,-0.46,-7.03
1542225711379142045,365,0,/imu_data_acquisition2,31030.0,0.0311889648438,-0.00299072265625,0.718872070312,0.694396972656,-99.5,113.25,60.6875,-8.01,-5.2,0.45
1542225711404601097,367,0,/imu_data_acquisition2,31055.0,0.00408935546875,-0.0035400390625,0.725158691406,0.688598632812,-98.6875,104.75,52.125,5.48,-0.01,-0.01
1542225711408802986,368,0,/imu_data_acquisition2,31060.0,0.00408935546875,-0.0035400390625,0.725158691406,0.688598632812,-62.6875,107.3125,59.5,2.65,-8.93,0.82
1542225711430429935,370,0,/imu_data_acquisition2,31081.0,-0.0189819335938,0.002685546875,0.730102539062,0.683044433594,-82.3125,161.3125,-8.1875,-6.52,-9.12,17.05
1542225711440033912,371,0,/imu_data_acquisition2,31090.0,-0.0336303710938,0.00689697265625,0.729309082031,0.683288574219,-49.625,136.8125,-22.5,-5.01,-1.47,12.63
1542225711454312086,372,0,/imu_data_acquisition2,31103.0,-0.0532836914062,0.0156860351562,0.725891113281,0.685607910156,-31.9375,104.6875,-23.125,-2.23,3.9,10.68
1542225711460572004,373,0,/imu_data_acquisition2,31111.0,-0.0606689453125,0.0195922851562,0.725036621094,0.685729980469,-26.1875,95.9375,-6.75,-3.26,3.28,12.62
1542225711470051050,374,0,/imu_data_acquisition2,31119.0,-0.0606689453125,0.0195922851562,0.725036621094,0.685729980469,-26.1875,95.9375,-6.75,-3.85,-0.87,14.13
1542225711482954025,375,0,/imu_data_acquisition2,31130.0,-0.0679931640625,0.0234985351562,0.7255859375,0.684326171875,-39.3125,87.3125,22.0,-4.63,-3.03,14.31
1542225711490187883,376,0,/imu_data_acquisition2,31141.0,-0.0755615234375,0.0262451171875,0.726440429688,0.682556152344,-45.6875,71.9375,14.875,-0.72,-0.01,-0.01
1542225711501588106,377,0,/imu_data_acquisition2,31151.0,-0.0825805664062,0.0276489257812,0.726928710938,0.681213378906,-47.125,56.1875,13.0625,-2.76,-0.18,10.88
1542225711509433984,378,0,/imu_data_acquisition2,31160.0,-0.0887451171875,0.028076171875,0.727355957031,0.679931640625,-51.0625,47.4375,14.6875,-3.0,-1.75,11.09
1542225711521641016,379,0,/imu_data_acquisition2,31170.0,-0.0945434570312,0.0277709960938,0.727966308594,0.678527832031,-51.0625,47.4375,14.6875,-2.93,-2.58,10.66
1542225711528424024,380,0,/imu_data_acquisition2,31179.0,-0.10009765625,0.0267944335938,0.728454589844,0.677185058594,-55.0,39.375,12.4375,-1.96,-1.18,9.92
1542225711541085958,381,0,/imu_data_acquisition2,31191.0,-0.105346679688,0.0250244140625,0.728820800781,0.676147460938,-61.875,27.875,5.125,-2.21,-1.35,9.76
1542225711551381111,382,0,/imu_data_acquisition2,31200.0,-0.110595703125,0.0228271484375,-6.103515625e-05,0.675170898438,-65.6875,28.0625,4.0625,-2.48,-1.7,9.97
1542225711559334039,383,0,/imu_data_acquisition2,31210.0,-0.116027832031,0.0204467773438,0.729064941406,0.674255371094,-65.9375,26.375,3.3125,-3.05,-2.43,10.76
1542225711570142030,384,0,/imu_data_acquisition2,31220.0,-0.121398925781,0.0178833007812,0.729064941406,0.67333984375,-65.9375,26.375,3.3125,-2.8,-2.42,10.57
1542225711579992055,385,0,/imu_data_acquisition2,31230.0,-0.126220703125,0.0154418945312,0.729064941406,0.672485351562,-60.625,22.0,2.875,-2.52,-2.56,10.56
1542225711589452028,386,0,/imu_data_acquisition2,31240.0,-0.130493164062,0.0131225585938,0.72900390625,0.671813964844,-47.375,16.4375,0.1875,-2.37,-0.01,-0.01
1542225711599944114,387,0,/imu_data_acquisition2,31251.0,-0.134155273438,0.0111694335938,0.728881835938,0.671264648438,-37.375,14.0,-0.6875,-2.62,-2.12,10.43
1542225711610425949,388,0,/imu_data_acquisition2,31261.0,-0.137145996094,0.0096435546875,0.728698730469,0.670837402344,-29.625,13.125,-2.0625,-2.34,-2.2,10.34
1542225711620372056,389,0,/imu_data_acquisition2,31271.0,-0.1396484375,0.008544921875,0.728454589844,0.670654296875,-22.375,11.75,-2.8125,-2.26,-2.06,9.78
1542225711632936954,390,0,/imu_data_acquisition2,31282.0,-0.141662597656,0.00775146484375,0.728210449219,0.670532226562,-18.1875,11.6875,-2.875,-2.44,-2.42,10.44
1542225711640875101,391,0,/imu_data_acquisition2,31291.0,-0.143371582031,0.00726318359375,-6.103515625e-05,0.670471191406,-14.8125,11.25,-3.125,-2.26,-2.04,9.63
1542225711651237010,392,0,/imu_data_acquisition2,31301.0,-0.144958496094,0.0069580078125,0.727600097656,0.670471191406,-10.375,9.4375,-2.6875,-2.17,-2.04,9.54
1542225711663335084,393,0,/imu_data_acquisition2,31314.0,-0.146118164062,0.0068359375,0.727294921875,0.670532226562,-8.0625,9.3125,-1.875,-2.53,-1.75,9.89
1542225711670595884,394,0,/imu_data_acquisition2,31320.0,-0.147155761719,0.0068359375,0.727111816406,0.670532226562,-8.0625,9.3125,-1.875,-2.53,-1.94,9.69
1542225711681119918,395,0,/imu_data_acquisition2,31332.0,-0.14794921875,0.00689697265625,0.726928710938,0.670532226562,-5.875,7.75,-1.5625,-2.43,-1.9,9.81
1542225711693386077,396,0,/imu_data_acquisition2,31343.0,-0.148559570312,0.00701904296875,-6.103515625e-05,0.670593261719,-3.0,5.125,-1.125,-2.18,-1.65,9.33
1542225711702491044,397,0,/imu_data_acquisition2,31353.0,-0.149047851562,0.007080078125,0.726684570312,0.670593261719,-2.625,5.125,-1.25,-2.16,-1.76,9.25
1542225711711698055,398,0,/imu_data_acquisition2,31362.0,-0.149536132812,0.0072021484375,0.726501464844,0.670654296875,-3.0,6.375,-1.625,-2.15,-0.01,-0.01
1542225711721389055,399,0,/imu_data_acquisition2,31371.0,-0.150085449219,0.00738525390625,0.726379394531,0.670715332031,-3.0,6.375,-1.625,-2.42,-1.73,9.22
1542225711732115030,400,0,/imu_data_acquisition2,31382.0,-0.15087890625,0.00567626953125,0.734619140625,0.661499023438,-3.3125,8.4375,-2.25,-2.13,-0.01,-0.01
1542225711743632078,401,0,/imu_data_acquisition2,31393.0,-0.151733398438,0.00592041015625,-6.103515625e-05,0.661560058594,-4.125,9.625,-2.625,-2.6,-1.96,9.26
1542225711752015113,402,0,/imu_data_acquisition2,31402.0,-0.152587890625,0.006103515625,0.734069824219,0.661682128906,-5.1875,10.9375,-3.25,-2.69,-1.82,9.37
1542225711762718915,403,0,/imu_data_acquisition2,31413.0,-0.153564453125,0.00634765625,0.733703613281,0.661865234375,-5.0,9.75,-3.375,-2.58,-1.96,9.38
1542225711772337913,404,0,/imu_data_acquisition2,31423.0,-0.154479980469,0.006591796875,0.7333984375,0.661987304688,-5.0,9.75,-3.375,-2.52,-1.82,9.51
1542225711779016017,405,0,/imu_data_acquisition2,31430.0,-0.155395507812,0.005126953125,0.740112304688,0.654235839844,-4.75,9.875,-3.375,-2.52,-1.82,9.51
1542225711792742967,406,0,/imu_data_acquisition2,31443.0,-0.15625,0.00531005859375,0.739807128906,0.654418945312,-4.875,9.3125,-3.625,-2.38,-1.8,9.39
1542225711804390907,407,0,/imu_data_acquisition2,31455.0,-0.157104492188,0.00543212890625,0.739501953125,0.654541015625,-4.5,8.875,-3.5,-2.22,-1.81,9.17
1542225711811470031,408,0,/imu_data_acquisition2,31461.0,-0.157897949219,0.005615234375,0.739196777344,0.654724121094,-4.5,9.3125,-3.375,-2.54,-1.83,9.41
1542225711819822072,409,0,/imu_data_acquisition2,31470.0,-0.158752441406,0.005859375,0.738891601562,0.654846191406,-4.5,9.3125,-3.375,-2.45,-1.91,9.34
1542225711830879926,410,0,/imu_data_acquisition2,31480.0,-0.15966796875,0.00616455078125,0.738525390625,0.654968261719,-4.1875,10.8125,-3.25,-2.45,-1.91,9.34
1542225711838854074,411,0,/imu_data_acquisition2,31490.0,-0.160522460938,0.0064697265625,0.738220214844,0.655151367188,-3.875,10.75,-3.5625,-2.36,-1.91,9.58
1542225711857881069,412,0,/imu_data_acquisition2,31507.0,-0.162048339844,0.00714111328125,0.737609863281,0.655456542969,-2.0,9.875,-2.8125,-2.89,-1.99,9.52
1542225711862788915,413,0,/imu_data_acquisition2,31513.0,-0.162658691406,0.00750732421875,0.737365722656,0.655578613281,-1.25,8.1875,-2.4375,-2.85,-2.13,9.48
1542225711869682073,414,0,/imu_data_acquisition2,31519.0,-0.162658691406,0.00750732421875,0.737365722656,0.655578613281,-1.25,8.1875,-2.4375,-2.85,-2.13,9.48
1542225711881038904,415,0,/imu_data_acquisition2,31531.0,-0.163146972656,0.0078125,0.737121582031,0.655700683594,-0.3125,6.3125,-0.0625,-2.95,-2.14,9.33
1542225711891041040,416,0,/imu_data_acquisition2,31541.0,-0.163513183594,0.0081787109375,0.736938476562,0.655822753906,-0.3125,6.3125,-0.0625,-2.73,-2.03,9.07
1542225711901876926,417,0,/imu_data_acquisition2,31552.0,-0.1640625,0.008544921875,0.73681640625,0.655822753906,-0.0625,6.4375,-1.125,-2.52,-1.9,9.47
1542225711910865068,418,0,/imu_data_acquisition2,31561.0,-0.164489746094,0.00897216796875,0.736633300781,0.655883789062,-0.125,7.125,-1.125,-2.38,-1.85,9.15
1542225711920633077,419,0,/imu_data_acquisition2,31570.0,-0.164916992188,0.00933837890625,0.736511230469,0.655944824219,-0.125,7.125,-1.125,-2.38,-1.85,9.15
1542225711930068016,420,0,/imu_data_acquisition2,31579.0,-0.165405273438,0.009765625,0.736328125,0.656005859375,0.0625,7.875,-1.25,-2.74,-1.93,9.23
1542225711941375970,421,0,/imu_data_acquisition2,31592.0,-0.166442871094,0.0107421875,0.735900878906,0.65625,1.0625,8.375,-1.5,-2.5,-2.07,9.37
1542225711954307079,422,0,/imu_data_acquisition2,31605.0,-0.166442871094,0.0107421875,0.735900878906,0.65625,1.625,8.125,-1.125,-2.73,-2.08,9.21
1542225711965204954,423,0,/imu_data_acquisition2,31615.0,-0.166870117188,0.0112915039062,0.735717773438,0.656311035156,2.0,8.625,-0.8125,-2.88,-2.01,9.21
1542225711970993995,424,0,/imu_data_acquisition2,31622.0,-0.167358398438,0.0119018554688,0.735534667969,0.656372070312,2.0625,8.5625,-0.5625,-2.91,-2.02,9.45
1542225711983608007,425,0,/imu_data_acquisition2,31633.0,-0.167846679688,0.0125732421875,0.735412597656,0.656372070312,2.625,8.3125,-0.1875,-2.86,-1.98,9.19
1542225711990633964,426,0,/imu_data_acquisition2,31640.0,-0.168273925781,0.0132446289062,0.735290527344,0.656372070312,2.625,8.3125,-0.1875,-2.86,-1.98,9.19
1542225712001331090,427,0,/imu_data_acquisition2,31652.0,-0.168640136719,0.013916015625,0.735168457031,0.656433105469,4.1875,9.4375,1.125,-2.83,-2.07,9.03
1542225712027882099,428,0,/imu_data_acquisition2,31667.0,-0.169067382812,0.0147094726562,0.735107421875,0.656433105469,5.3125,11.875,1.8125,-2.49,-0.01,-0.01
1542225712029962062,430,0,/imu_data_acquisition2,31681.0,-0.169982910156,0.0169677734375,0.734924316406,0.65625,7.1875,14.0625,2.8125,-2.72,-1.99,-0.01
1542225712039232015,431,0,/imu_data_acquisition2,31689.0,-0.170471191406,0.0184936523438,0.734924316406,0.656066894531,8.9375,16.8125,4.3125,-2.66,-1.96,9.19
1542225712051105022,432,0,/imu_data_acquisition2,31701.0,-0.171020507812,0.0203247070312,0.734924316406,0.655883789062,11.125,19.0,5.375,-2.59,-2.03,9.31
1542225712061558961,433,0,/imu_data_acquisition2,31712.0,-0.171569824219,0.0224609375,0.734985351562,0.655578613281,14.125,21.4375,7.4375,-2.99,-1.93,9.16
1542225712070400953,434,0,/imu_data_acquisition2,31720.0,-0.172180175781,0.0249633789062,0.735168457031,0.655212402344,16.5,24.6875,9.4375,-2.99,-1.93,9.16
1542225712078111886,435,0,/imu_data_acquisition2,31729.0,-0.1728515625,0.0278930664062,0.7353515625,0.654663085938,19.3125,28.1875,11.9375,-2.85,-1.79,9.37
1542225712089767932,436,0,/imu_data_acquisition2,31740.0,-0.173522949219,0.0311279296875,0.735595703125,0.654113769531,22.25,31.4375,13.75,-2.71,-1.96,9.4
1542225712102312088,437,0,/imu_data_acquisition2,31752.0,-0.174255371094,0.0347900390625,0.73583984375,0.653381347656,24.5625,34.625,15.1875,-2.92,-1.87,8.67
1542225712110666990,438,0,/imu_data_acquisition2,31762.0,-0.175231933594,0.0387573242188,0.736083984375,0.652648925781,25.4375,39.125,16.0,-2.57,-1.98,8.31
1542225712119517087,439,0,/imu_data_acquisition2,31770.0,-0.176452636719,0.04296875,0.736206054688,0.651916503906,25.3125,42.6875,15.625,-2.57,-1.98,8.31
1542225712129045009,440,0,/imu_data_acquisition2,31779.0,-0.177978515625,0.0477294921875,0.736389160156,0.650939941406,27.375,50.375,18.9375,-3.0,-1.28,9.81
1542225712140300989,441,0,/imu_data_acquisition2,31791.0,-0.179565429688,0.052490234375,0.736572265625,0.649963378906,27.375,50.375,18.9375,-3.06,-0.83,8.89
1542225712151633024,442,0,/imu_data_acquisition2,31802.0,-0.18115234375,0.0574340820312,0.736877441406,0.648803710938,28.3125,52.375,22.375,-3.0,-0.76,8.95
1542225712161781072,443,0,/imu_data_acquisition2,31812.0,-0.183044433594,0.0625,0.737243652344,0.647399902344,26.4375,55.375,24.5,-2.82,-0.75,8.49
1542225712170052051,444,0,/imu_data_acquisition2,31821.0,-0.185363769531,0.0678100585938,0.737548828125,0.645812988281,24.8125,61.0625,25.9375,-2.82,-0.75,-0.01
1542225712179763078,445,0,/imu_data_acquisition2,31830.0,-0.188659667969,0.0741577148438,0.738708496094,0.642761230469,22.5,77.9375,46.6875,-2.42,-0.78,8.88
1542225712190923929,446,0,/imu_data_acquisition2,31841.0,-0.192810058594,0.081298828125,0.740478515625,0.638671875,20.0625,90.125,61.875,-3.75,-0.87,10.27
1542225712200898885,447,0,/imu_data_acquisition2,31852.0,-0.197326660156,0.0889892578125,0.742919921875,0.633422851562,18.5625,96.9375,77.375,-3.72,-0.86,9.4
1542225712212213993,448,0,/imu_data_acquisition2,31863.0,-0.202026367188,0.0968627929688,0.745910644531,0.627197265625,16.5,100.0625,90.375,-1.73,-0.77,9.75
1542225712219297885,449,0,/imu_data_acquisition2,31870.0,-0.208190917969,0.105834960938,0.748901367188,0.620178222656,13.5,122.125,98.5625,-1.73,-0.77,9.75
1542225712229898929,450,0,/imu_data_acquisition2,31880.0,-0.216674804688,0.117126464844,0.751220703125,0.612426757812,15.5,161.625,103.0625,-4.13,-2.05,9.77
1542225712237777948,451,0,/imu_data_acquisition2,31889.0,-0.007080078125,-6.103515625e-05,-6.103515625e-05,0.604370117188,22.125,179.3125,103.5625,-4.03,-2.0,10.11
1542225712251611948,452,0,/imu_data_acquisition2,31902.0,-0.235473632812,0.144104003906,0.75390625,0.59619140625,36.1875,199.3125,103.6875,-4.96,-1.21,10.89
1542225712261641025,453,0,/imu_data_acquisition2,31912.0,-0.24560546875,0.16015625,0.753540039062,0.58837890625,50.9375,218.3125,94.75,-5.39,-0.9,11.16
1542225712268121957,454,0,/imu_data_acquisition2,31919.0,-0.256530761719,0.17724609375,0.751586914062,0.581359863281,59.5,235.0,77.875,-5.39,-0.9,11.16
1542225712280220985,455,0,/imu_data_acquisition2,31930.0,-0.268432617188,0.194458007812,0.747985839844,0.575012207031,59.4375,248.75,59.125,-6.13,-0.81,-0.01
1542225712290869951,456,0,/imu_data_acquisition2,31942.0,-0.281311035156,0.211608886719,0.743103027344,0.569091796875,57.0,260.25,43.625,-6.59,-0.6,11.37
1542225712301973104,457,0,/imu_data_acquisition2,31952.0,-0.295349121094,0.228332519531,0.737060546875,0.563293457031,48.0625,270.8125,30.8125,-8.18,-0.16,11.37
1542225712311966896,458,0,/imu_data_acquisition2,31962.0,-0.31005859375,0.244567871094,0.730041503906,0.557739257812,43.125,276.125,18.625,-7.88,-1.15,13.4
1542225712320410013,459,0,/imu_data_acquisition2,31970.0,-0.3251953125,0.260620117188,0.721557617188,0.552917480469,45.875,282.125,1.0625,-7.88,-1.15,13.4
1542225712327764034,460,0,/imu_data_acquisition2,31979.0,-0.338989257812,0.27587890625,0.712280273438,0.549194335938,53.9375,265.25,-12.6875,-8.56,-1.15,12.08
1542225712341558933,461,0,/imu_data_acquisition2,31992.0,-0.351989746094,0.290466308594,0.702209472656,0.546447753906,60.6875,253.75,-25.8125,-8.71,-0.92,11.12
1542225712352895975,462,0,/imu_data_acquisition2,32003.0,-0.364318847656,0.304321289062,0.691711425781,0.544189453125,62.0625,243.125,-34.3125,-3.46,0.66,17.82
1542225712362188100,463,0,/imu_data_acquisition2,32012.0,-0.37548828125,0.315856933594,0.681823730469,0.542602539062,51.375,214.375,-41.25,-3.46,0.66,17.82
1542225712370141029,464,0,/imu_data_acquisition2,32021.0,-0.385070800781,0.323913574219,0.673400878906,0.541625976562,30.5625,170.625,-46.0625,-0.67,1.74,19.22
1542225712379873991,465,0,/imu_data_acquisition2,32029.0,-0.392517089844,0.328430175781,0.667297363281,0.541137695312,8.9375,117.875,-43.375,1.65,1.87,18.35
1542225712388178110,466,0,/imu_data_acquisition2,32039.0,-6.103515625e-05,-6.103515625e-05,-6.103515625e-05,0.540161132812,-23.625,67.25,-30.75,1.14,1.51,16.87
1542225712402260065,467,0,/imu_data_acquisition2,32053.0,-0.401489257812,0.327575683594,0.664001464844,0.539001464844,-37.3125,21.75,-12.1875,2.81,0.02,14.22
1542225712412630081,468,0,/imu_data_acquisition2,32063.0,-0.403015136719,0.324401855469,0.664733886719,0.538940429688,-37.625,-11.75,-15.4375,3.03,0.24,12.76
1542225712418065071,469,0,/imu_data_acquisition2,32069.0,-0.403259277344,0.319702148438,0.666320800781,0.539611816406,-41.625,-38.25,-18.625,3.03,0.24,12.76
1542225712429701089,470,0,/imu_data_acquisition2,32080.0,-0.402526855469,0.313842773438,0.66845703125,0.540954589844,-43.125,-58.1875,-22.9375,2.24,0.14,12.17
1542225712441531896,471,0,/imu_data_acquisition2,32091.0,-0.400817871094,0.306762695312,0.671020507812,0.543090820312,-44.5,-78.8125,-27.0625,1.48,0.09,12.24
1542225712450787067,472,0,/imu_data_acquisition2,32102.0,-0.397827148438,0.298645019531,0.674133300781,0.5458984375,-43.0,-101.125,-30.3125,0.91,0.06,12.2
1542225712462316989,473,0,/imu_data_acquisition2,32113.0,-0.393493652344,0.28955078125,0.677734375,0.549560546875,-39.9375,-123.25,-33.5625,-0.36,0.23,12.2
1542225712470254898,474,0,/imu_data_acquisition2,32120.0,-0.387817382812,0.279479980469,0.681701660156,0.553894042969,-37.25,-144.625,-36.3125,-0.91,0.48,12.3
1542225712478064060,475,0,/imu_data_acquisition2,32129.0,-0.380798339844,0.268432617188,0.686096191406,0.558776855469,-35.5625,-165.4375,-38.375,-1.71,0.61,12.36
1542225712489281892,476,0,/imu_data_acquisition2,32140.0,-0.372619628906,0.256164550781,0.690979003906,0.564025878906,-37.1875,-186.1875,-39.1875,-2.15,-0.01,-0.01
1542225712502512931,477,0,/imu_data_acquisition2,32152.0,-0.363464355469,0.242919921875,-6.103515625e-05,0.569458007812,-39.0,-202.1875,-40.4375,-2.46,0.4,9.87
1542225712510479927,478,0,/imu_data_acquisition2,32161.0,-0.353637695312,0.229309082031,0.701171875,0.575073242188,-36.375,-210.625,-43.0,-2.71,-0.14,9.33
1542225712519443035,479,0,/imu_data_acquisition2,32170.0,-0.343139648438,0.215881347656,0.705749511719,0.580993652344,-27.75,-213.9375,-45.6875,-3.23,-0.45,9.2
1542225712533838033,480,0,/imu_data_acquisition2,32180.0,-0.33203125,0.202819824219,0.709838867188,0.587158203125,-17.8125,-215.4375,-47.625,-3.82,0.14,9.83
1542225712538625955,481,0,/imu_data_acquisition2,32190.0,-0.320434570312,0.18994140625,0.713562011719,0.593322753906,-11.875,-216.25,-48.6875,-4.2,0.62,10.22
1542225712552493095,482,0,/imu_data_acquisition2,32203.0,-0.308532714844,0.177001953125,0.717163085938,0.599304199219,-11.3125,-218.0625,-47.75,-4.54,0.86,10.53
1542225712561961889,483,0,/imu_data_acquisition2,32212.0,-0.296447753906,0.164001464844,0.720581054688,0.60498046875,-10.8125,-219.75,-46.3125,-5.14,0.32,10.98
1542225712568399906,484,0,/imu_data_acquisition2,32219.0,-0.283935546875,0.151123046875,0.723754882812,0.610534667969,-7.1875,-220.6875,-45.3125,-5.43,0.21,11.1
1542225712579451084,485,0,/imu_data_acquisition2,32230.0,-0.271057128906,0.138488769531,0.726623535156,0.615966796875,-2.125,-221.0,-45.0,-5.63,0.13,11.36
1542225712589031934,486,0,/imu_data_acquisition2,32239.0,-0.257873535156,0.126098632812,0.729187011719,0.621215820312,2.375,-221.0625,-45.0625,-5.78,0.26,11.31
1542225712600349903,487,0,/imu_data_acquisition2,32251.0,-0.244506835938,0.113952636719,0.731384277344,0.626342773438,5.625,-218.875,-45.0625,-5.86,0.3,10.68
1542225712612689971,488,0,/imu_data_acquisition2,32263.0,-0.231201171875,0.102233886719,0.733215332031,0.631286621094,9.0,-214.375,-44.875,-5.88,0.27,10.47
1542225712618983030,489,0,/imu_data_acquisition2,32269.0,-0.217956542969,0.0911254882812,0.734680175781,0.635925292969,13.4375,-207.375,-44.0,-5.82,0.24,10.33
1542225712628983974,490,0,/imu_data_acquisition2,32280.0,-0.204833984375,0.0809326171875,0.735778808594,0.640380859375,20.0625,-198.5,-42.5625,-6.05,0.01,11.3
1542225712640858888,491,0,/imu_data_acquisition2,32292.0,-0.191589355469,0.07177734375,0.736511230469,0.644714355469,30.5625,-14.5,-0.0625,-6.63,-0.17,12.63
1542225712651622056,492,0,/imu_data_acquisition2,32302.0,-0.177856445312,0.0634765625,0.736999511719,0.648986816406,41.625,-187.8125,-40.5,-7.4,-0.24,13.99
1542225712662010908,493,0,/imu_data_acquisition2,32313.0,-0.163330078125,0.055419921875,0.737365722656,0.653076171875,49.625,-192.5625,-38.9375,-8.01,0.29,14.22
1542225712670980930,494,0,/imu_data_acquisition2,32321.0,-0.148193359375,0.04736328125,0.737670898438,0.656982421875,54.0,-197.75,-37.25,-7.79,0.29,13.29
1542225712679451942,495,0,/imu_data_acquisition2,32330.0,-0.132934570312,0.0394287109375,0.73779296875,0.66064453125,55.875,-197.3125,-36.625,-7.56,-0.2,12.38
1542225712689395904,496,0,/imu_data_acquisition2,32340.0,-0.117736816406,0.0321044921875,0.737548828125,0.664184570312,60.75,-191.0,-37.8125,-8.03,-2.17,11.81
1542225712701153039,497,0,/imu_data_acquisition2,32351.0,-0.1025390625,0.0257568359375,0.736633300781,0.66796875,69.375,-0.0625,-0.0625,-8.61,-2.77,11.77
1542225712712235927,498,0,/imu_data_acquisition2,32362.0,-0.0872192382812,0.0203247070312,0.735168457031,0.671936035156,79.5625,-176.3125,-48.3125,-9.18,-2.98,11.67
1542225712719851016,499,0,/imu_data_acquisition2,32370.0,-0.0716552734375,0.015869140625,0.733154296875,0.676086425781,89.25,-170.0,-52.5625,-9.55,-2.99,11.33
1542225712729635953,500,0,/imu_data_acquisition2,32380.0,-0.0562744140625,0.0121459960938,0.730773925781,0.680236816406,94.875,-161.9375,-55.5625,-10.01,-2.19,9.74
1542225712740400075,501,0,/imu_data_acquisition2,32391.0,-0.0419311523438,0.0091552734375,0.72802734375,0.684204101562,92.5625,-146.625,-56.6875,-10.11,-2.54,9.12
1542225712751297950,502,0,/imu_data_acquisition2,32402.0,-0.0286865234375,0.00653076171875,0.724914550781,0.688171386719,87.25,-134.1875,-58.875,-11.57,-3.89,11.06
1542225712758330106,503,0,/imu_data_acquisition2,32409.0,-0.0153198242188,0.0042724609375,0.721618652344,0.692077636719,91.0,-133.0,-60.125,-13.38,-4.08,12.37
1542225712770376920,504,0,/imu_data_acquisition2,32421.0,-0.00128173828125,0.00177001953125,0.718322753906,0.695678710938,94.125,-139.6875,-57.875,-13.19,-2.72,10.5
1542225712779561042,505,0,/imu_data_acquisition2,32430.0,0.0125732421875,-0.00128173828125,0.715087890625,0.698913574219,88.6875,-142.75,-53.5,-12.58,-1.72,7.9
1542225712789769887,506,0,/imu_data_acquisition2,32439.0,0.02490234375,-0.00433349609375,0.712158203125,0.701538085938,75.625,-130.625,-46.4375,-12.41,-1.12,4.3
1542225712801526069,507,0,/imu_data_acquisition2,32452.0,0.0355224609375,-0.0069580078125,0.709777832031,0.703491210938,65.4375,-111.75,-35.75,-12.7,-1.18,3.87
1542225712811513900,508,0,/imu_data_acquisition2,32462.0,0.044677734375,-0.0086669921875,0.708190917969,0.704528808594,61.125,-91.3125,-22.375,-13.09,-0.89,3.72
1542225712817805051,509,0,/imu_data_acquisition2,32469.0,0.0524291992188,-0.00933837890625,0.70751953125,0.704650878906,58.5,-71.0625,-6.5625,-13.16,-0.56,3.25
1542225712829623937,510,0,/imu_data_acquisition2,32480.0,0.0584716796875,-0.00921630859375,0.707946777344,0.703796386719,52.125,-49.25,9.8125,-13.69,-0.28,2.35
1542225712840715885,511,0,/imu_data_acquisition2,32491.0,0.0624389648438,-0.00836181640625,0.709350585938,0.702026367188,41.8125,-25.6875,25.4375,-14.47,-0.5,2.56
1542225712848716020,512,0,/imu_data_acquisition2,32498.0,0.0643310546875,-0.007080078125,0.711669921875,0.699523925781,28.9375,-3.5,38.75,-15.36,-0.72,2.95
1542225712862377882,513,0,/imu_data_acquisition2,32513.0,0.0623779296875,-0.005615234375,0.715087890625,0.696228027344,-1.1875,31.0625,55.375,-16.72,1.37,-1.25
1542225712872617006,514,0,/imu_data_acquisition2,32520.0,0.0543212890625,-0.0048828125,0.719482421875,0.6923828125,-57.125,77.3125,68.8125,-19.72,-1.22,-1.94
1542225712877911090,515,0,/imu_data_acquisition2,32528.0,0.0413208007812,-0.00469970703125,0.724365234375,0.688171386719,-102.125,115.0,76.625,-17.68,-3.62,-1.82
1542225712890180110,516,0,/imu_data_acquisition2,32540.0,0.0274658203125,-0.00518798828125,0.728820800781,0.684143066406,-115.3125,116.5625,71.9375,2.79,-5.1,22.52
1542225712901510000,517,0,/imu_data_acquisition2,32551.0,0.0164184570312,-0.00518798828125,0.733032226562,0.679931640625,-87.5,96.6875,71.0,7.06,-5.21,17.57
1542225712911358118,518,0,/imu_data_acquisition2,32561.0,0.005615234375,-0.0035400390625,0.736877441406,0.676025390625,-72.0,107.3125,64.8125,4.13,-9.89,3.59
1542225712920608997,519,0,/imu_data_acquisition2,32571.0,-0.00750732421875,-0.00054931640625,0.738464355469,0.674255371094,-78.125,138.5625,29.125,1.05,-13.15,3.85
1542225712931056976,520,0,/imu_data_acquisition2,32582.0,-0.0211181640625,0.00335693359375,0.737915039062,0.674560546875,-74.5,149.875,-6.625,-4.93,-13.38,15.59
1542225712940448045,521,0,/imu_data_acquisition2,32591.0,-0.0317993164062,0.0076904296875,0.736267089844,0.675842285156,-47.3125,128.1875,-24.0,-4.42,-7.04,13.51
1542225712952860116,522,0,/imu_data_acquisition2,32604.0,-0.0404052734375,0.0117797851562,0.734252929688,0.677551269531,-32.0625,108.875,-30.25,-3.23,-0.67,11.24
1542225712963274955,523,0,/imu_data_acquisition2,32612.0,-0.0479736328125,0.01611328125,0.732971191406,0.678344726562,-22.375,100.75,-16.375,-3.07,7.47,11.92
1542225712968755006,524,0,/imu_data_acquisition2,32620.0,-0.0550537109375,0.020751953125,0.733154296875,0.677490234375,-17.5625,98.75,10.5625,-3.56,5.92,13.5
1542225712980596065,525,0,/imu_data_acquisition2,32631.0,-0.0623779296875,0.0245971679688,0.734191894531,0.675598144531,-26.625,93.875,25.0,-4.69,1.66,15.03
1542225712991450071,526,0,/imu_data_acquisition2,32641.0,-0.0693359375,0.0264282226562,0.734985351562,0.674011230469,-40.9375,75.0625,19.6875,-4.08,-2.26,12.5
1542225712998981952,527,0,/imu_data_acquisition2,32650.0,-0.0757446289062,0.0264892578125,0.735412597656,0.6728515625,-51.4375,56.4375,11.625,-2.75,-0.7,10.66
1542225713012670993,528,0,/imu_data_acquisition2,32664.0,-0.0819702148438,0.0256958007812,0.735717773438,0.671813964844,-57.5625,47.875,8.875,-2.41,-0.32,10.52
