%time,field.header.seq,field.header.stamp,field.header.frame_id,field.time_stamp,field.quat_x,field.quat_y,field.quat_z,field.quat_w,field.gyro_x,field.gyro_y,field.gyro_z,field.accel_x,field.accel_y,field.accel_z
1455208942100378036,1,0,/imu_data_acquisition2,20520.0,-0.0742797851562,0.136291503906,-0.100402832031,0.982788085938,-10.875,-181.0,-10.875,4.52,-2.56,10.42
1455208942105071067,2,0,/imu_data_acquisition2,20529.0,-0.0773315429688,0.119934082031,-6.103515625e-05,0.984680175781,-15.0,-197.3125,-14.3125,4.03,-2.67,10.55
1455208942115708112,3,0,/imu_data_acquisition2,20540.0,-6.103515625e-05,-6.103515625e-05,-6.103515625e-05,0.986389160156,-17.6875,-211.1875,-17.8125,3.62,-2.8,10.39
1455208942125485897,4,0,/imu_data_acquisition2,20550.0,-0.08447265625,0.0840454101562,-0.10009765625,0.98779296875,-20.0625,-220.3125,-20.5625,3.17,-2.74,10.67
1455208942140705108,5,0,/imu_data_acquisition2,20562.0,-0.0885009765625,0.0650024414062,-0.00640869140625,0.988891601562,-23.9375,-228.8125,-6.6875,3.14,-2.69,10.89
1455208942147521972,6,0,/imu_data_acquisition2,20571.0,-0.0147094726562,-6.103515625e-05,-6.103515625e-05,0.989562988281,-26.4375,-235.0625,-23.6875,2.96,-2.44,11.6
1455208942157938957,7,0,/imu_data_acquisition2,20581.0,-0.0973510742188,0.0252685546875,-0.10009765625,0.989868164062,-29.0,-241.25,-22.4375,2.46,-2.5,13.17
1455208942166856050,8,0,/imu_data_acquisition2,20590.0,-0.101867675781,0.00469970703125,-0.0996704101562,0.989807128906,-28.375,-246.8125,-20.6875,2.22,-2.71,13.43
1455208942178085088,9,0,/imu_data_acquisition2,20601.0,-0.106079101562,-0.0162353515625,-0.09912109375,0.9892578125,-25.0625,-251.25,-19.0625,1.98,-3.02,13.74
1455208942187721014,10,0,/imu_data_acquisition2,20610.0,-0.10986328125,-0.0374145507812,-0.0983276367188,0.988342285156,-20.5,-253.625,-18.0,1.68,-3.62,14.08
1455208942196398973,11,0,/imu_data_acquisition2,20621.0,-0.113159179688,-0.05859375,-0.0974731445312,0.987060546875,-15.3125,-253.6875,-17.5625,1.46,-3.8,14.19
1455208942206223011,12,0,/imu_data_acquisition2,20630.0,-0.116027832031,-0.07958984375,-0.096435546875,0.9853515625,-11.3125,-251.125,-16.25,1.28,-4.0,14.55
1455208942215610980,13,0,/imu_data_acquisition2,20640.0,-0.119018554688,-0.100158691406,-0.09521484375,0.983215332031,-12.5625,-246.875,-13.125,1.26,-5.77,15.58
1455208942227650880,14,0,/imu_data_acquisition2,20651.0,-0.122436523438,-0.1201171875,-0.0939331054688,0.980712890625,-19.625,-240.75,-11.875,0.45,-7.78,15.81
1455208942236409902,15,0,/imu_data_acquisition2,20660.0,-0.126159667969,-0.139526367188,-0.093505859375,0.977661132812,-25.3125,-234.8125,-21.125,-0.63,-9.4,14.81
1455208942245595932,16,0,/imu_data_acquisition2,20670.0,-0.129821777344,-0.158142089844,-0.0947875976562,0.974243164062,-28.8125,-223.25,-40.75,-2.98,-10.83,11.77
1455208942263211011,17,0,/imu_data_acquisition2,20681.0,-0.133056640625,-0.175170898438,-0.0983276367188,0.970520019531,-30.8125,-201.3125,-64.6875,-4.34,-9.94,10.72
1455208942269694089,18,0,/imu_data_acquisition2,20692.0,-0.136047363281,-0.189819335938,-0.104064941406,0.966735839844,-35.3125,-170.875,-87.4375,-5.1,-8.56,11.06
1455208942276705026,19,0,/imu_data_acquisition2,20701.0,-0.139404296875,-0.202026367188,-0.111755371094,0.962951660156,-46.8125,-139.75,-104.75,-5.99,-6.91,12.7
1455208942292136907,20,0,/imu_data_acquisition2,20714.0,-0.1435546875,-0.212280273438,-0.120971679688,0.958984375,-61.6875,-116.9375,-117.4375,-7.81,-4.8,15.67
1455208942300543069,21,0,/imu_data_acquisition2,20723.0,-0.147827148438,-0.221313476562,-0.13134765625,0.954956054688,-69.0,-100.8125,-128.1875,-9.25,-3.43,17.41
1455208942307168006,22,0,/imu_data_acquisition2,20731.0,-0.151916503906,-0.229553222656,-0.142395019531,0.950744628906,-69.75,-91.625,-135.3125,-10.51,-2.26,18.15
1455208942319015026,23,0,/imu_data_acquisition2,20743.0,-0.155517578125,-0.237426757812,-0.153625488281,0.946472167969,-64.75,-86.0,-137.8125,-14.0,-0.25,20.06
1455208942330616950,24,0,/imu_data_acquisition2,20752.0,-0.158447265625,-0.245849609375,-0.164245605469,0.942077636719,-56.0,-92.3125,-134.0,-15.42,1.35,19.2
1455208942337040901,25,0,/imu_data_acquisition2,20761.0,-0.161193847656,-0.254577636719,-0.173278808594,0.937622070312,-48.25,-98.75,-117.6875,-16.88,2.64,15.95
1455208942349189996,26,0,/imu_data_acquisition2,20772.0,-0.164123535156,-0.2626953125,-0.179992675781,0.93359375,-43.1875,-15.625,-0.0625,-18.2,3.79,8.02
1455208942357923030,27,0,/imu_data_acquisition2,20782.0,-0.167114257812,-0.268859863281,-0.18408203125,0.930541992188,-38.75,-75.75,-54.5625,-18.39,2.89,6.48
1455208942367194890,28,0,/imu_data_acquisition2,20791.0,-0.169494628906,-0.272033691406,-0.186096191406,0.928771972656,-29.6875,-41.625,-24.25,-17.97,1.0,6.41
1455208942379594087,29,0,/imu_data_acquisition2,20802.0,-0.170593261719,-0.272033691406,-0.187194824219,0.928344726562,-16.1875,-1.8125,-9.5,-17.58,-1.47,6.64
1455208942393385887,30,0,/imu_data_acquisition2,20816.0,-0.16748046875,-0.26806640625,-0.189392089844,0.929626464844,20.75,58.9375,-23.625,-23.07,-3.84,11.16
1455208942399324893,31,0,/imu_data_acquisition2,20824.0,-6.103515625e-05,-6.103515625e-05,-6.103515625e-05,0.931457519531,19.625,100.0,-41.5625,-15.37,-6.06,-1.11
1455208942409416913,32,0,/imu_data_acquisition2,20832.0,-0.152893066406,-0.253723144531,-0.200927734375,0.933776855469,80.8125,126.9375,-93.3125,-0.89,-0.62,7.85
1455208942418256044,33,0,/imu_data_acquisition2,20842.0,-0.142333984375,-0.245849609375,-0.208251953125,0.935913085938,79.6875,131.875,-93.625,15.19,19.69,1.15
1455208942428697109,34,0,/imu_data_acquisition2,20852.0,-0.13916015625,-0.227905273438,-0.212219238281,0.940002441406,-13.625,225.625,-12.6875,0.67,6.03,4.32
1455208942439201116,35,0,/imu_data_acquisition2,20862.0,-0.134216308594,-0.206604003906,-0.213073730469,0.945434570312,8.375,264.9375,-0.0625,-3.61,4.38,23.9
1455208942449265956,36,0,/imu_data_acquisition2,20872.0,-0.12841796875,-0.190246582031,-0.212890625,0.949768066406,30.75,208.3125,24.8125,1.26,3.28,26.03
1455208942457748889,37,0,/imu_data_acquisition2,20882.0,-0.127746582031,-0.178039550781,-0.211547851562,0.952453613281,-15.75,142.625,38.6875,3.36,-4.33,17.25
1455208942469187974,38,0,/imu_data_acquisition2,20892.0,-0.128601074219,-0.168395996094,-0.21044921875,0.954345703125,-29.0,109.375,33.3125,4.76,-7.3,14.14
1455208942478061914,39,0,/imu_data_acquisition2,20902.0,-0.128723144531,-0.159606933594,-0.2119140625,0.955505371094,-24.625,103.375,-0.3125,-0.13,-1.6,16.11
1455208942488715887,40,0,/imu_data_acquisition2,20912.0,-0.127197265625,-0.154235839844,-0.2138671875,0.956176757812,1.4375,68.6875,-15.125,5.4,0.96,9.78
1455208942499469041,41,0,/imu_data_acquisition2,20923.0,-0.125549316406,-0.149291992188,-0.215270996094,0.956909179688,4.625,63.6875,-9.4375,5.24,2.32,13.46
1455208942507735967,42,0,/imu_data_acquisition2,20931.0,-0.127075195312,-0.143432617188,-0.215393066406,0.95751953125,-31.75,63.375,11.875,2.07,-3.26,10.74
1455208942517728090,43,0,/imu_data_acquisition2,20942.0,-0.129150390625,-0.138610839844,-0.215087890625,0.9580078125,-34.25,50.0625,15.0,2.68,-3.42,11.79
1455208942529459953,44,0,/imu_data_acquisition2,20952.0,-0.129516601562,-0.135864257812,-0.215148925781,0.958374023438,-10.625,30.875,5.0,3.89,-1.67,9.26
1455208942538006067,45,0,/imu_data_acquisition2,20962.0,-0.129699707031,-0.133728027344,-0.215087890625,0.958679199219,-7.3125,24.0625,5.3125,3.86,-1.13,9.4
1455208942548748970,46,0,/imu_data_acquisition2,20972.0,-0.130249023438,-0.131774902344,-0.214782714844,0.958923339844,-9.75,20.75,7.8125,3.39,-2.37,9.89
1455208942558758020,47,0,/imu_data_acquisition2,20982.0,-0.130126953125,-0.130493164062,-0.214538574219,0.959167480469,-1.3125,15.125,4.9375,3.73,-1.27,9.92
1455208942567173957,48,0,/imu_data_acquisition2,20991.0,-0.129943847656,-0.00433349609375,-6.103515625e-05,0.959411621094,-0.375,13.25,4.8125,3.6,-1.08,10.35
1455208942580522060,49,0,/imu_data_acquisition2,21004.0,-0.130065917969,-0.12841796875,-0.214172363281,0.959533691406,-3.3125,10.1875,3.8125,3.6,-1.11,9.88
1455208942589487075,50,0,/imu_data_acquisition2,21011.0,-0.130676269531,-0.12744140625,-0.213989257812,0.959655761719,-8.8125,9.0,4.3125,9.91,-1.4,5.6
1455208942599076986,51,0,/imu_data_acquisition2,21022.0,-0.131958007812,-0.125854492188,-0.213562011719,0.959777832031,-17.8125,14.875,9.9375,-6.55,-2.13,18.15
1455208942609025955,52,0,/imu_data_acquisition2,21033.0,-0.132751464844,-0.124877929688,-0.21337890625,0.959838867188,-11.375,8.25,4.3125,3.93,-1.65,7.75
1455208942618578910,53,0,/imu_data_acquisition2,21041.0,-0.133178710938,-0.124206542969,-0.213439941406,0.959838867188,-6.5625,7.0,1.25,3.0,-1.83,9.33
1455208942627356052,54,0,/imu_data_acquisition2,21052.0,-0.133239746094,-0.12353515625,-0.213500976562,0.959899902344,-2.1875,7.625,0.625,2.88,-2.39,9.74
1455208942639765977,55,0,/imu_data_acquisition2,21064.0,-0.133117675781,-0.122985839844,-0.213500976562,0.960021972656,-0.125,6.8125,1.1875,3.22,-2.15,9.06
1455208942649935960,56,0,/imu_data_acquisition2,21071.0,-0.1328125,-0.122314453125,-0.213317871094,0.960144042969,2.0,7.8125,2.4375,2.52,-2.4,9.76
1455208942657634019,57,0,/imu_data_acquisition2,21082.0,-0.132446289062,-0.121887207031,-0.213195800781,0.960266113281,3.6875,6.25,2.5625,2.79,-1.81,9.47
1455208942669239997,58,0,/imu_data_acquisition2,21092.0,-0.132019042969,-0.121459960938,-0.212951660156,0.96044921875,4.3125,5.875,3.0625,2.76,-1.68,9.61
1455208942675570964,59,0,/imu_data_acquisition2,21100.0,-0.132019042969,-0.121459960938,-0.212951660156,0.96044921875,4.5625,5.0,3.0,2.77,-1.79,9.53
1455208942687737941,60,0,/imu_data_acquisition2,21111.0,-0.131164550781,-0.120666503906,-0.212463378906,0.960754394531,4.75,5.4375,3.25,2.02,-1.67,9.41
1455208942699770927,61,0,/imu_data_acquisition2,21122.0,-0.130737304688,-0.120239257812,-0.212219238281,0.9609375,4.0625,5.625,3.375,2.2,-1.57,10.01
1455208942708467960,62,0,/imu_data_acquisition2,21131.0,-0.130249023438,-0.119995117188,-0.212036132812,0.961059570312,5.0625,3.625,1.9375,2.02,-1.23,9.64
1455208942717542886,63,0,/imu_data_acquisition2,21141.0,-0.129943847656,-0.11962890625,-0.211853027344,0.961181640625,3.25,4.9375,2.375,2.37,-1.73,10.05
1455208942729410886,64,0,/imu_data_acquisition2,21151.0,-0.129943847656,-0.11962890625,-0.211853027344,0.961181640625,4.3125,2.5625,0.9375,2.52,-1.54,9.13
1455208942736514091,65,0,/imu_data_acquisition2,21161.0,-0.129333496094,-0.119079589844,-0.211608886719,0.96142578125,1.8125,5.25,2.1875,1.21,-1.75,10.24
1455208942748588085,66,0,/imu_data_acquisition2,21172.0,-0.129028320312,-0.119018554688,-0.211608886719,0.961486816406,3.3125,1.1875,0.125,1.65,-1.93,9.78
1455208942759768962,67,0,/imu_data_acquisition2,21182.0,-0.128845214844,-0.11865234375,-0.211486816406,0.961547851562,1.75,4.6875,1.6875,2.14,-1.33,9.86
1455208942768208026,68,0,/imu_data_acquisition2,21192.0,-0.128845214844,-0.11865234375,-0.211486816406,0.961547851562,2.4375,1.4375,0.5625,3.0,-1.68,9.38
1455208942778417110,69,0,/imu_data_acquisition2,21202.0,-0.128479003906,-0.118408203125,-0.21142578125,0.961669921875,1.0,2.375,0.9375,2.25,-1.64,9.83
1455208942789238929,70,0,/imu_data_acquisition2,21211.0,-0.128479003906,-0.118408203125,-0.21142578125,0.961669921875,1.125,1.0625,0.4375,2.5,-1.2,9.05
1455208942796487092,71,0,/imu_data_acquisition2,21221.0,-0.128356933594,-0.1181640625,-0.211364746094,0.961730957031,-0.25,2.3125,0.75,1.88,-1.89,10.07
1455208942808429956,72,0,/imu_data_acquisition2,21232.0,-0.128356933594,-0.1181640625,-0.211364746094,0.961730957031,-0.25,1.125,0.0625,2.18,-1.54,9.88
1455208942818983078,73,0,/imu_data_acquisition2,21241.0,-0.128295898438,-0.118041992188,-0.21142578125,0.961730957031,-1.375,1.875,0.125,2.13,-1.72,9.52
1455208942826584100,74,0,/imu_data_acquisition2,21251.0,-0.127746582031,-0.117065429688,-0.21142578125,0.9619140625,-2.75,1.625,0.3125,2.1,-1.49,9.74
1455208942838923931,75,0,/imu_data_acquisition2,21263.0,-0.128173828125,-0.116760253906,-0.211547851562,0.961853027344,-2.8125,0.9375,0.1875,2.18,-1.76,9.53
1455208942850708007,76,0,/imu_data_acquisition2,21272.0,-0.128173828125,-0.116760253906,-0.211547851562,0.961853027344,-3.6875,1.8125,0.25,2.57,-1.59,9.3
1455208942856847047,77,0,/imu_data_acquisition2,21281.0,-0.128723144531,-0.116516113281,-0.211608886719,0.961791992188,-3.5625,0.25,-0.375,2.35,-1.86,9.79
1455208942868930101,78,0,/imu_data_acquisition2,21293.0,-0.128723144531,-0.116516113281,-0.211608886719,0.961791992188,-4.3125,1.625,-0.0625,1.92,-1.62,9.64
1455208942877993106,79,0,/imu_data_acquisition2,21300.0,-0.129028320312,-0.116271972656,-0.211669921875,0.961791992188,-4.3125,1.625,-0.0625,2.19,-1.71,9.22
1455208942887042045,80,0,/imu_data_acquisition2,21311.0,-0.128845214844,-0.11474609375,-0.211791992188,0.961975097656,-4.5,1.4375,-0.1875,2.28,-1.9,9.82
1455208942898436069,81,0,/imu_data_acquisition2,21322.0,-0.128845214844,-0.11474609375,-0.211791992188,0.961975097656,-3.625,1.0625,-0.8125,2.67,-1.22,8.99
1455208942907604932,82,0,/imu_data_acquisition2,21331.0,-0.129150390625,-0.0052490234375,-6.103515625e-05,0.9619140625,-4.875,3.125,0.1875,2.23,-1.53,9.5
1455208942919018030,83,0,/imu_data_acquisition2,21342.0,-0.129760742188,-0.114074707031,-0.212036132812,0.961853027344,-4.125,1.75,-0.5,1.64,-1.63,9.85
1455208942930226087,84,0,/imu_data_acquisition2,21351.0,-0.129760742188,-0.114074707031,-0.212036132812,0.961853027344,-5.25,3.0625,-0.4375,2.06,-1.74,9.69
1455208942937060117,85,0,/imu_data_acquisition2,21361.0,-0.00439453125,-6.103515625e-05,-6.103515625e-05,0.962036132812,-5.1875,2.4375,-0.0625,1.94,-1.79,9.55
1455208942948287010,86,0,/imu_data_acquisition2,21372.0,-0.129760742188,-0.112548828125,-0.212280273438,0.961975097656,-6.4375,3.3125,-0.3125,2.08,-1.58,9.59
1455208942957840919,87,0,/imu_data_acquisition2,21381.0,-0.130249023438,-0.112121582031,-0.21240234375,0.961975097656,-6.625,3.0,-0.5625,2.27,-1.98,9.59
1455208942967919111,88,0,/imu_data_acquisition2,21391.0,-0.130737304688,-0.111755371094,-0.212463378906,0.9619140625,-7.0625,3.0625,-0.8125,1.97,-1.5,9.46
1455208942979291915,89,0,/imu_data_acquisition2,21402.0,-0.131225585938,-0.111389160156,-0.212646484375,0.961853027344,-7.875,3.3125,-0.1875,2.38,-1.04,9.2
1455208942986458063,90,0,/imu_data_acquisition2,21411.0,-0.1318359375,-0.111022949219,-0.212768554688,0.961791992188,-6.6875,3.6875,-1.0625,1.79,-2.35,9.66
1455208942998269081,91,0,/imu_data_acquisition2,21422.0,-0.132263183594,-0.110595703125,-0.212951660156,0.961730957031,-7.25,4.6875,-0.5625,2.06,-1.31,9.68
1455208943011360883,92,0,/imu_data_acquisition2,21432.0,-0.1328125,-0.110046386719,-0.213073730469,0.961669921875,-6.8125,5.75,-0.1875,1.9,-1.58,9.93
1455208943016453981,93,0,/imu_data_acquisition2,21440.0,-0.132202148438,-0.108581542969,-0.213256835938,0.9619140625,-5.8125,7.25,-0.5625,2.07,-1.73,9.47
1455208943028002023,94,0,/imu_data_acquisition2,21451.0,-0.132568359375,-0.10791015625,-0.21337890625,0.9619140625,-5.75,8.6875,-0.5,2.09,-1.64,9.78
1455208943039290904,95,0,/imu_data_acquisition2,21462.0,-0.132873535156,-0.107055664062,-0.213562011719,0.9619140625,-6.0625,11.1875,-0.3125,1.97,-1.93,9.64
1455208943049000978,96,0,/imu_data_acquisition2,21471.0,-0.133178710938,-0.0123291015625,-6.103515625e-05,0.961975097656,-6.5625,13.25,-0.0625,1.63,-1.77,9.81
1455208943058072090,97,0,/imu_data_acquisition2,21482.0,-0.132690429688,-0.103820800781,-0.213928222656,0.962219238281,-7.125,15.375,0.0625,2.08,-1.67,9.38
1455208943069123029,98,0,/imu_data_acquisition2,21491.0,-0.132385253906,-0.101867675781,-0.214172363281,0.96240234375,-7.125,15.375,0.0625,1.84,-2.11,9.29
1455208943076637029,99,0,/imu_data_acquisition2,21501.0,-0.132263183594,-0.0997314453125,-0.214416503906,0.962585449219,-6.625,18.125,-0.4375,1.23,-1.35,9.41
1455208943088602066,100,0,/imu_data_acquisition2,21512.0,-0.132507324219,-0.0978393554688,-0.214599609375,0.962707519531,-5.3125,25.5625,1.875,3.15,-2.68,8.79
1455208943099643945,101,0,/imu_data_acquisition2,21522.0,-6.103515625e-05,-6.103515625e-05,-6.103515625e-05,0.962890625,-4.4375,-0.0625,-0.0625,3.77,-1.72,9.19
1455208943159811019,102,0,/imu_data_acquisition2,21531.0,-0.00738525390625,-6.103515625e-05,-6.103515625e-05,0.963134765625,-3.9375,36.75,7.25,3.64,-2.64,8.08
1455208943203732013,103,0,/imu_data_acquisition2,21542.0,-0.132080078125,-0.0899658203125,-0.214721679688,0.963500976562,-0.375,45.0,10.0,2.91,-2.93,8.98
1455208943207998991,104,0,/imu_data_acquisition2,21550.0,-6.103515625e-05,-6.103515625e-05,-6.103515625e-05,0.964050292969,-0.375,45.0,10.0,2.58,-3.33,10.42
1455208943211215019,105,0,/imu_data_acquisition2,21562.0,-0.130432128906,-0.081298828125,-0.2138671875,0.964721679688,3.4375,64.6875,17.375,3.3,-2.22,9.37
1455208943216196060,106,0,/imu_data_acquisition2,21572.0,-0.129089355469,-0.075927734375,-0.213134765625,0.965454101562,3.8125,75.25,20.8125,3.07,-2.39,9.01
1455208943222060918,107,0,/imu_data_acquisition2,21581.0,-0.127502441406,-0.0696411132812,-0.212219238281,0.966369628906,3.125,88.5,24.625,3.06,-1.24,9.97
1455208943226609945,108,0,/imu_data_acquisition2,21590.0,-6.103515625e-05,-6.103515625e-05,-6.103515625e-05,0.967346191406,3.125,88.5,24.625,3.06,-1.24,9.97
1455208943230416059,109,0,/imu_data_acquisition2,21600.0,-0.123657226562,-0.0537109375,-0.209899902344,0.968383789062,5.75,101.5,27.875,3.07,-1.78,8.99
1455208943233297109,110,0,/imu_data_acquisition2,21611.0,-0.121337890625,-0.0440063476562,-0.208679199219,0.969421386719,5.0,133.6875,29.9375,2.95,-2.53,8.77
1455208943235049009,111,0,/imu_data_acquisition2,21621.0,-0.11865234375,-0.0328369140625,-0.207580566406,0.970458984375,6.125,152.625,31.5,3.66,-1.06,8.54
1455208943241313934,112,0,/imu_data_acquisition2,21632.0,-0.115600585938,-0.0201416015625,-0.206481933594,0.971374511719,-0.5625,182.25,40.0625,2.25,-2.72,10.13
1455208943244132041,113,0,/imu_data_acquisition2,21641.0,-0.112426757812,-0.0047607421875,-0.204956054688,0.972290039062,-0.5625,182.25,40.0625,2.25,-2.72,10.13
1455208943248106002,114,0,/imu_data_acquisition2,21652.0,-0.110046386719,0.0128784179688,-0.0149536132812,0.973022460938,-9.25,205.75,55.625,1.96,-2.78,11.51
1455208943251111984,115,0,/imu_data_acquisition2,21662.0,-0.107238769531,0.0304565429688,-0.199768066406,0.973510742188,-13.5,214.5,59.5,14.88,-1.33,3.41
1455208943252470970,116,0,/imu_data_acquisition2,21672.0,-0.104553222656,0.0488891601562,-0.196716308594,0.9736328125,-13.6875,218.25,47.6875,1.94,-3.55,18.82
1455208943261853933,117,0,/imu_data_acquisition2,21682.0,-0.101867675781,0.0674438476562,-0.194641113281,0.973266601562,3.0,261.0625,80.0625,0.05,-5.01,19.49
1455208943266722917,118,0,/imu_data_acquisition2,21691.0,-0.0968017578125,0.0895385742188,-0.190246582031,0.972839355469,3.0,261.0625,80.0625,-0.52,-5.9,15.23
1455208943282355070,119,0,/imu_data_acquisition2,21703.0,-0.0904541015625,0.11279296875,-0.185852050781,0.971862792969,15.5625,278.1875,82.0,0.26,-2.14,17.03
1455208943288738012,120,0,/imu_data_acquisition2,21712.0,-6.103515625e-05,-6.103515625e-05,-6.103515625e-05,0.970336914062,21.375,284.375,83.6875,-0.27,-0.54,18.1
1455208943297996997,121,0,/imu_data_acquisition2,21722.0,-0.0743408203125,0.158752441406,-0.17724609375,0.968444824219,31.3125,244.6875,83.5,1.42,-3.74,16.49
1455208943309547901,122,0,/imu_data_acquisition2,21732.0,-0.0669555664062,0.178833007812,-0.17236328125,0.966369628906,38.0625,182.9375,68.875,1.29,6.61,22.39
1455208943317794084,123,0,/imu_data_acquisition2,21741.0,-0.0601196289062,0.193542480469,-0.168273925781,0.964660644531,38.0625,182.9375,68.875,1.29,6.61,22.39
1455208943327903985,124,0,/imu_data_acquisition2,21751.0,-0.0523071289062,0.204284667969,-0.165222167969,0.963439941406,59.875,138.9375,58.3125,3.56,0.46,17.98
1455208943337822914,125,0,/imu_data_acquisition2,21762.0,-0.0498046875,0.211853027344,-0.157897949219,0.963195800781,-3.5625,87.375,93.8125,7.84,-5.53,10.73
1455208943349735975,126,0,/imu_data_acquisition2,21772.0,-0.0487670898438,0.216552734375,-0.149169921875,0.963562011719,-6.25,18.5625,97.75,7.75,-4.08,7.87
1455208943359899044,127,0,/imu_data_acquisition2,21782.0,-0.0472412109375,0.218505859375,-0.141174316406,0.964416503906,-6.25,18.5625,97.75,7.28,-3.51,7.41
1455208943366175889,128,0,/imu_data_acquisition2,21790.0,-0.0443115234375,0.218627929688,-0.135070800781,0.965393066406,17.9375,0.0625,78.625,7.28,-3.51,7.41
1455208943379131078,129,0,/imu_data_acquisition2,21802.0,-0.041748046875,0.2177734375,-0.130004882812,0.966430664062,17.9375,-10.9375,66.0,7.09,-3.26,6.49
1455208943388981103,130,0,/imu_data_acquisition2,21812.0,-0.0404052734375,0.216064453125,-0.125427246094,0.967468261719,-2.875,-33.5625,44.9375,6.95,-3.36,6.55
1455208943397978067,131,0,/imu_data_acquisition2,21822.0,-0.0401611328125,0.213500976562,-0.12158203125,0.968505859375,-12.0,-46.4375,32.375,6.75,-2.92,7.04
1455208943410121917,132,0,/imu_data_acquisition2,21833.0,-0.041015625,0.209899902344,-0.118591308594,0.969665527344,-12.0,-46.4375,32.375,6.57,-2.59,7.39
1455208943420036077,133,0,/imu_data_acquisition2,21844.0,-0.0428466796875,0.205139160156,-0.116394042969,0.970825195312,-23.875,-76.5,8.8125,6.37,-2.3,7.89
1455208943428061962,134,0,/imu_data_acquisition2,21851.0,-0.04541015625,0.199096679688,-0.114929199219,0.97216796875,-23.875,-76.5,8.8125,6.37,-2.3,7.89
1455208943440170049,135,0,/imu_data_acquisition2,21862.0,-0.048583984375,0.191711425781,-0.114135742188,0.973571777344,-27.625,-93.5625,-0.5625,5.58,-1.78,8.71
1455208943449314117,136,0,/imu_data_acquisition2,21872.0,-6.103515625e-05,-6.103515625e-05,-6.103515625e-05,0.975158691406,-29.9375,-112.9375,-8.5,5.28,-1.61,9.19
1455208943459558010,137,0,/imu_data_acquisition2,21883.0,-0.0562133789062,0.171997070312,-0.114074707031,0.976867675781,-29.6875,-131.5,-15.5,4.97,-1.49,9.48
1455208943466552019,138,0,/imu_data_acquisition2,21890.0,-0.0601806640625,0.159790039062,-0.11474609375,0.978637695312,-26.1875,-149.6875,-21.375,4.97,-1.49,9.48
1455208943478035926,139,0,/imu_data_acquisition2,21901.0,-0.0639038085938,0.146057128906,-0.115661621094,0.980407714844,-21.6875,-166.9375,-24.875,4.47,-1.0,10.0
1455208943489166975,140,0,/imu_data_acquisition2,21913.0,-0.0672607421875,0.130920410156,-0.116638183594,0.982177734375,-10.4375,-196.75,-23.75,3.9,-0.54,10.95
1455208943501101016,141,0,/imu_data_acquisition2,21924.0,-0.0703125,0.114562988281,-0.117370605469,0.983947753906,-7.625,-211.1875,-18.0,3.35,-0.75,12.21
1455208943510051012,142,0,/imu_data_acquisition2,21934.0,-0.0732421875,0.0969848632812,-0.117553710938,0.985595703125,-5.6875,-224.625,-10.9375,3.08,-1.19,12.35
1455208943518098115,143,0,/imu_data_acquisition2,21941.0,-0.0759887695312,0.0782470703125,-0.117004394531,0.987121582031,-5.6875,-224.625,-10.9375,3.08,-1.19,12.35
1455208943526120901,144,0,/imu_data_acquisition2,21950.0,-0.0787353515625,0.0584106445312,-0.115661621094,0.988464355469,-4.25,-238.1875,-3.3125,3.03,-1.19,12.44
1455208943539486885,145,0,/imu_data_acquisition2,21963.0,-0.0814208984375,0.0376586914062,-0.113708496094,0.989440917969,-3.6875,-248.6875,3.625,2.42,-2.07,13.96
1455208943551280975,146,0,/imu_data_acquisition2,21973.0,-0.084228515625,0.0164184570312,-0.111083984375,0.990112304688,-4.5,-255.5625,9.8125,2.16,-2.55,14.31
1455208943561528921,147,0,/imu_data_acquisition2,21983.0,-0.0873413085938,-0.0052490234375,-0.10791015625,0.990295410156,-8.75,-261.5,15.25,2.11,-2.98,14.29
1455208943569747924,148,0,/imu_data_acquisition2,21993.0,-0.0908813476562,-0.02734375,-0.1044921875,0.989990234375,-13.125,-267.25,17.0625,1.67,-3.76,13.93
1455208943579809904,149,0,/imu_data_acquisition2,22002.0,-0.0944213867188,-0.0496215820312,-0.10107421875,0.989135742188,-13.5625,-269.6875,16.25,1.67,-3.76,13.93
1455208943591557025,150,0,/imu_data_acquisition2,22014.0,-0.0977783203125,-0.07177734375,-0.0977172851562,0.98779296875,-11.1875,-260.125,11.125,1.82,-5.26,14.63
1455208943600986003,151,0,/imu_data_acquisition2,22024.0,-0.100891113281,-0.09326171875,-0.0947265625,0.985961914062,-13.75,-250.125,6.25,1.02,-7.59,16.92
1455208943611568927,152,0,/imu_data_acquisition2,22034.0,-0.104064941406,-0.113891601562,-0.0921630859375,0.983703613281,-13.75,-250.125,6.25,0.13,-8.05,17.1
1455208943616508960,153,0,/imu_data_acquisition2,22041.0,-0.10791015625,-0.133850097656,-0.09033203125,0.98095703125,-24.1875,-242.375,-1.5625,0.13,-8.05,17.1
1455208943628729104,154,0,/imu_data_acquisition2,22052.0,-0.112670898438,-0.153564453125,-0.0901489257812,0.9775390625,-38.25,-239.3125,-18.75,-1.0,-8.82,16.34
1455208943640917062,155,0,/imu_data_acquisition2,22063.0,-0.118286132812,-0.172668457031,-0.0919799804688,0.973510742188,-52.8125,-232.375,-41.0,-5.8,-5.3,13.35
1455208943649010896,156,0,/imu_data_acquisition2,22073.0,-0.124084472656,-0.190734863281,-0.0960693359375,0.968994140625,-62.0,-218.125,-65.5,-7.29,-3.42,13.27
1455208943660871028,157,0,/imu_data_acquisition2,22085.0,-0.129760742188,-0.207153320312,-0.102294921875,0.964233398438,-69.125,-169.9375,-105.75,-9.08,-2.55,13.87
1455208943669478893,158,0,/imu_data_acquisition2,22092.0,-0.135009765625,-0.221496582031,-0.110229492188,0.95947265625,-69.125,-169.9375,-105.75,-9.08,-2.55,13.87
1455208943675914049,159,0,/imu_data_acquisition2,22100.0,-0.139221191406,-0.233703613281,-0.119323730469,0.954833984375,-63.3125,-141.625,-117.4375,-13.19,-0.54,14.73
1455208943689635992,160,0,/imu_data_acquisition2,22112.0,-0.141540527344,-0.243591308594,-0.129150390625,0.950744628906,-45.75,-109.9375,-126.5625,-14.54,0.63,16.33
1455208943699404954,161,0,/imu_data_acquisition2,22123.0,-0.142333984375,-0.251831054688,-0.138977050781,0.947082519531,-30.625,-88.0,-127.9375,-18.36,2.8,16.65
1455208943711643934,162,0,/imu_data_acquisition2,22134.0,-0.142883300781,-0.258972167969,-0.148132324219,0.943725585938,-27.6875,-75.5625,-118.5,-19.58,2.87,13.55
1455208943718152999,163,0,/imu_data_acquisition2,22142.0,-0.144226074219,-0.265747070312,-0.156005859375,0.940307617188,-33.125,-75.625,-101.25,-19.58,2.87,13.55
1455208943725887060,164,0,/imu_data_acquisition2,22150.0,-0.147155761719,-0.27001953125,-0.160705566406,0.937866210938,-43.8125,-52.5625,-55.25,-19.65,2.97,9.63
1455208943736008882,165,0,/imu_data_acquisition2,22160.0,-0.150085449219,-0.274291992188,-0.165466308594,0.935363769531,-43.8125,-52.5625,-55.25,-16.62,1.43,0.36
1455208943752038955,166,0,/imu_data_acquisition2,22173.0,-0.151794433594,-0.274353027344,-0.16943359375,0.934326171875,-33.5,0.0625,-40.375,-22.12,-0.68,4.79
1455208943760027885,167,0,/imu_data_acquisition2,22184.0,-0.151428222656,-0.268981933594,-0.173400878906,0.935241699219,-9.5,116.625,-40.125,-8.55,-6.01,1.94
1455208943767752885,168,0,/imu_data_acquisition2,22191.0,-0.149597167969,-0.260131835938,-0.178283691406,0.937133789062,-9.5,116.625,-40.125,-8.55,-6.01,1.94
1455208943778556108,169,0,/imu_data_acquisition2,22202.0,-0.141357421875,-0.252624511719,-0.183471679688,0.939453125,63.625,117.3125,-64.5,23.39,12.93,9.85
1455208943787846088,170,0,/imu_data_acquisition2,22211.0,-0.133056640625,-0.244995117188,-0.188598632812,0.941650390625,63.625,117.3125,-64.5,10.01,10.41,-1.6
1455208943799506902,171,0,/imu_data_acquisition2,22223.0,-0.130004882812,-0.224914550781,-0.189086914062,0.946960449219,-3.6875,247.625,29.1875,3.76,6.0,29.82
1455208943812284946,172,0,/imu_data_acquisition2,22236.0,-0.123840332031,-0.20849609375,-0.189819335938,0.951416015625,-10.3125,161.0625,24.0625,-3.58,3.35,26.64
1455208943816869020,173,0,/imu_data_acquisition2,22240.0,-0.122497558594,-0.195129394531,-0.189758300781,0.954406738281,-10.3125,161.0625,24.0625,-3.58,3.35,26.64
1455208943827811956,174,0,/imu_data_acquisition2,22252.0,-0.122375488281,-0.184692382812,-0.188781738281,0.956726074219,-16.4375,122.25,30.625,3.91,1.36,13.15
1455208943840159893,175,0,/imu_data_acquisition2,22264.0,-0.123168945312,-0.174194335938,-0.18798828125,0.958740234375,-27.6875,120.25,30.3125,-2.21,-8.38,17.39
1455208943852600097,176,0,/imu_data_acquisition2,22274.0,-0.123596191406,-0.164733886719,-0.18896484375,0.960144042969,-25.875,111.1875,6.875,7.71,-1.07,12.34
1455208943861080884,177,0,/imu_data_acquisition2,22284.0,-0.121765136719,-0.158386230469,-0.189636230469,0.961303710938,-24.125,65.1875,20.1875,3.3,-0.95,-0.01
1455208943868520021,178,0,/imu_data_acquisition2,22290.0,-0.122985839844,-0.152526855469,-0.18896484375,0.962219238281,-24.125,65.1875,20.1875,3.3,-3.51,11.32
1455208943877362966,179,0,/imu_data_acquisition2,22301.0,-0.124145507812,-0.148254394531,-0.188659667969,0.962829589844,-21.1875,46.1875,13.1875,1.37,-4.86,10.92
1455208943888900995,180,0,/imu_data_acquisition2,22313.0,-0.124328613281,-0.146240234375,-0.188537597656,0.963134765625,-5.875,23.3125,5.1875,2.39,-2.99,11.65
1455208943902148962,181,0,/imu_data_acquisition2,22326.0,-0.014892578125,-6.103515625e-05,-6.103515625e-05,0.963317871094,-1.875,12.0,2.5,3.28,-1.14,10.65
1455208943909795045,182,0,/imu_data_acquisition2,22333.0,-0.124572753906,-0.144287109375,-0.188354492188,0.963439941406,-4.875,9.875,3.0625,3.27,-2.02,9.7
1455208943918026924,183,0,/imu_data_acquisition2,22342.0,-0.124755859375,-0.1435546875,-0.188354492188,0.963500976562,-3.6875,8.1875,2.25,3.48,-1.67,9.74
1455208943927541971,184,0,/imu_data_acquisition2,22350.0,-0.125,-0.142944335938,-0.188354492188,0.963562011719,-3.625,6.25,1.3125,3.4,-1.79,9.82
1455208943940438032,185,0,/imu_data_acquisition2,22363.0,-0.125305175781,-0.142395019531,-0.188354492188,0.963623046875,-4.875,-0.0625,-0.0625,3.28,-1.71,9.57
1455208943949969053,186,0,/imu_data_acquisition2,22374.0,-0.125610351562,-0.141967773438,-0.1884765625,0.963623046875,-4.75,4.3125,0.25,3.23,-1.67,9.32
1455208943958770990,187,0,/imu_data_acquisition2,22381.0,-0.1259765625,-0.1416015625,-0.188598632812,0.963623046875,-5.125,3.4375,-0.3125,3.23,-1.67,9.32
1455208943967998027,188,0,/imu_data_acquisition2,22391.0,-0.126281738281,-0.141296386719,-0.188720703125,0.963562011719,-4.5,2.75,-0.0625,3.33,-1.99,9.54
1455208943978444099,189,0,/imu_data_acquisition2,22400.0,-0.12646484375,-0.14111328125,-0.188842773438,0.963562011719,-2.4375,1.8125,-1.125,2.85,-2.02,-0.01
1455208943990933895,190,0,/imu_data_acquisition2,22414.0,-0.126403808594,-0.140991210938,-0.18896484375,0.963562011719,-0.4375,1.4375,-0.9375,2.85,-1.77,9.17
1455208944003730058,191,0,/imu_data_acquisition2,22424.0,-6.103515625e-05,-6.103515625e-05,-6.103515625e-05,0.963562011719,0.3125,1.8125,-0.125,2.85,-1.77,9.17
1455208944011734008,192,0,/imu_data_acquisition2,22434.0,-0.126220703125,-0.140808105469,-0.18896484375,0.963623046875,2.1875,1.25,-0.375,2.81,-1.91,9.45
1455208944016535997,193,0,/imu_data_acquisition2,22440.0,-0.1259765625,-0.140686035156,-0.18896484375,0.963684082031,2.5,1.8125,0.125,2.67,-1.54,9.32
1455208944034873008,194,0,/imu_data_acquisition2,22453.0,-0.125793457031,-0.140563964844,-0.188903808594,0.963745117188,2.0625,2.0625,0.6875,2.5,-1.87,9.89
1455208944036945104,195,0,/imu_data_acquisition2,22461.0,-0.125549316406,-0.140441894531,-0.188781738281,0.963806152344,2.625,1.8125,0.875,2.54,-1.56,9.6
1455208944049633026,196,0,/imu_data_acquisition2,22474.0,-0.125366210938,-0.140319824219,-0.188720703125,0.9638671875,1.625,1.75,1.1875,2.43,-1.4,9.24
1455208944057077884,197,0,/imu_data_acquisition2,22480.0,-0.125244140625,-0.14013671875,-0.188598632812,0.9638671875,1.1875,2.1875,1.1875,2.36,-1.64,10.04
1455208944067178964,198,0,/imu_data_acquisition2,22491.0,-0.125305175781,-0.139892578125,-0.188537597656,0.963928222656,-0.625,2.5,1.6875,2.61,-1.11,10.0
1455208944078052043,199,0,/imu_data_acquisition2,22501.0,-0.125366210938,-0.139709472656,-0.1884765625,0.963989257812,-1.0,1.6875,0.75,3.01,-1.69,9.15
1455208944085978031,200,0,/imu_data_acquisition2,22509.0,-0.125610351562,-0.139404296875,-0.188415527344,0.963989257812,-3.0625,3.375,1.5,2.05,-1.16,9.21
1455208944113019943,201,0,/imu_data_acquisition2,22537.0,-0.126281738281,-0.138732910156,-0.1884765625,0.963989257812,-4.9375,0.5625,-0.3125,3.36,-0.72,8.38
1455208944116168975,202,0,/imu_data_acquisition2,22541.0,-0.126647949219,-0.138671875,-0.188537597656,0.963928222656,-4.9375,0.5625,-0.3125,3.36,-0.72,8.38
1455208944120690107,203,0,/imu_data_acquisition2,22544.0,-0.126647949219,-0.138671875,-0.188537597656,0.963928222656,-4.9375,0.5625,-0.3125,3.36,-0.72,8.38
1455208944131964921,204,0,/imu_data_acquisition2,22551.0,-0.127136230469,-0.138244628906,-0.188537597656,0.963928222656,-6.375,3.5625,1.375,1.31,-2.33,10.12
1455208944136372089,205,0,/imu_data_acquisition2,22560.0,-0.127624511719,-0.0130615234375,-6.103515625e-05,0.9638671875,-6.0,0.875,0.0625,2.58,-1.48,8.9
1455208944147690057,206,0,/imu_data_acquisition2,22572.0,-6.103515625e-05,-6.103515625e-05,-6.103515625e-05,0.9638671875,-6.3125,3.0,0.8125,1.75,-1.94,10.1
1455208944160249948,207,0,/imu_data_acquisition2,22581.0,-0.128601074219,-0.137512207031,-0.188781738281,0.963806152344,-6.3125,1.5625,0.125,2.65,-1.5,9.29
1455208944166632890,208,0,/imu_data_acquisition2,22590.0,-0.129089355469,-0.137145996094,-0.188903808594,0.963745117188,-6.6875,2.875,0.375,2.43,-1.73,9.48
1455208944175632953,209,0,/imu_data_acquisition2,22600.0,-0.129638671875,-0.136840820312,-0.18896484375,0.963745117188,-6.625,2.125,-0.4375,2.17,-1.7,9.65
1455208944190738916,210,0,/imu_data_acquisition2,22612.0,-0.130126953125,-0.136596679688,-0.189147949219,0.963684082031,-6.5625,1.8125,-0.75,2.36,-1.47,9.48
1455208944196672916,211,0,/imu_data_acquisition2,22621.0,-0.130798339844,-0.136352539062,-0.189270019531,0.963562011719,-8.375,1.625,-0.375,2.44,-1.88,9.37
1455208944205904006,212,0,/imu_data_acquisition2,22630.0,-0.131286621094,-0.136108398438,-0.189392089844,0.963500976562,-6.4375,2.0,-0.8125,2.0,-1.48,9.68
1455208944222959995,213,0,/imu_data_acquisition2,22641.0,-0.006103515625,-6.103515625e-05,-6.103515625e-05,0.963684082031,-6.4375,0.6875,-0.6875,2.51,-1.89,9.35
1455208944226783037,214,0,/imu_data_acquisition2,22650.0,-0.131591796875,-0.134765625,-0.189636230469,0.963623046875,-5.4375,0.6875,-0.5,1.59,-1.73,9.82
1455208944236479997,215,0,/imu_data_acquisition2,22661.0,-0.131896972656,-0.134582519531,-0.189697265625,0.963562011719,-4.4375,1.0625,0.0,2.43,-1.88,9.67
1455208944250725030,216,0,/imu_data_acquisition2,22673.0,-0.132202148438,-0.134399414062,-0.189758300781,0.963562011719,-3.5625,1.1875,0.0,2.19,-1.67,9.24
1455208944266678094,218,0,/imu_data_acquisition2,22690.0,-0.131713867188,-0.131713867188,-0.189697265625,0.963989257812,-2.9375,3.125,0.625,2.09,-2.05,9.99
1455208944278645038,219,0,/imu_data_acquisition2,22702.0,-0.131286621094,-0.130187988281,-0.189697265625,0.964294433594,-2.25,2.875,0.375,2.11,-1.81,9.59
1455208944291383981,220,0,/imu_data_acquisition2,22711.0,-0.130798339844,-0.12890625,-0.189758300781,0.964477539062,-2.125,3.375,0.4375,2.41,-1.58,9.48
1455208944301414966,221,0,/imu_data_acquisition2,22724.0,-0.13037109375,-0.1279296875,-0.189819335938,0.964660644531,-2.4375,3.75,0.3125,2.45,-1.61,9.18
1455208944309937000,222,0,/imu_data_acquisition2,22734.0,-0.130554199219,-0.12744140625,-0.189880371094,0.964721679688,-3.0,5.0,0.875,2.23,-1.71,9.58
1455208944321271896,223,0,/imu_data_acquisition2,22742.0,-0.130737304688,-0.127014160156,-0.18994140625,0.964721679688,-2.75,5.0,0.4375,2.39,-1.84,9.51
1455208944326704025,224,0,/imu_data_acquisition2,22751.0,-0.130798339844,-0.126403808594,-0.190063476562,0.964782714844,-2.3125,6.4375,0.375,1.98,-2.09,9.8
1455208944341003894,225,0,/imu_data_acquisition2,22763.0,-0.130310058594,-0.125061035156,-0.190063476562,0.965026855469,-2.75,5.6875,0.875,2.31,-1.49,9.36
1455208944354501962,226,0,/imu_data_acquisition2,22774.0,-0.130432128906,-0.124389648438,-0.190063476562,0.965087890625,-2.75,7.6875,1.375,1.68,-2.25,9.79
1455208944369169950,228,0,/imu_data_acquisition2,22793.0,-0.130554199219,-0.122863769531,-0.190185546875,0.965270996094,-2.75,9.3125,0.9375,2.28,-1.56,9.77
1455208944377124071,229,0,/imu_data_acquisition2,22800.0,-0.130554199219,-0.121948242188,-0.190246582031,0.96533203125,-2.25,10.75,0.6875,2.62,-1.73,9.15
1455208944386527061,230,0,/imu_data_acquisition2,22811.0,-0.130676269531,-0.120727539062,-0.190307617188,0.965454101562,-3.4375,13.8125,1.375,2.16,-1.72,9.76
1455208944399622917,231,0,/imu_data_acquisition2,22821.0,-0.130798339844,-0.119384765625,-0.190368652344,0.965576171875,-4.6875,15.5625,1.9375,1.75,-1.69,9.26
1455208944408667087,232,0,/imu_data_acquisition2,22830.0,-0.005859375,-6.103515625e-05,-6.103515625e-05,0.965759277344,-4.25,19.4375,2.1875,2.26,-1.97,10.02
1455208944417146921,233,0,/imu_data_acquisition2,22841.0,-0.130554199219,-0.115783691406,-0.190612792969,0.966003417969,-3.5625,21.125,1.8125,2.92,-1.48,9.02
1455208944428589105,234,0,/imu_data_acquisition2,22852.0,-0.130554199219,-0.113342285156,-0.190612792969,0.96630859375,-5.0,28.125,4.1875,2.87,-2.44,9.09
1455208944436039924,235,0,/imu_data_acquisition2,22860.0,-0.130004882812,-0.110717773438,-0.190673828125,0.966674804688,1.375,32.125,3.875,0.67,-0.61,8.08
1455208944448637962,236,0,/imu_data_acquisition2,22872.0,-0.129272460938,-0.107177734375,-0.1904296875,0.967224121094,1.1875,42.625,8.3125,4.21,-3.0,9.52
1455208944457169055,237,0,/imu_data_acquisition2,22880.0,-0.12841796875,-0.102905273438,-0.190185546875,0.967834472656,1.375,51.0,9.625,2.63,-3.95,9.48
1455208944466629981,238,0,/imu_data_acquisition2,22890.0,-0.127319335938,-0.0983276367188,-0.189758300781,0.968566894531,3.8125,55.5,11.8125,3.11,-2.19,8.95
1455208944480947971,239,0,/imu_data_acquisition2,22904.0,-0.125915527344,-0.0927734375,-0.189147949219,0.969421386719,5.625,66.75,15.6875,2.12,-3.24,9.6
1455208944488953113,240,0,/imu_data_acquisition2,22910.0,-0.124084472656,-0.0864868164062,-0.188354492188,0.970397949219,9.5625,75.75,18.625,3.12,-2.1,9.56
1455208944498800039,241,0,/imu_data_acquisition2,22923.0,-0.122192382812,-0.0792846679688,-0.187377929688,0.971435546875,7.875,86.6875,22.5,2.99,-2.0,9.28
1455208944508975982,242,0,/imu_data_acquisition2,22930.0,-0.120422363281,-0.0708618164062,-0.186157226562,0.972534179688,4.5,100.375,27.0,2.73,-2.66,8.84
1455208944517565011,243,0,/imu_data_acquisition2,22941.0,-0.118041992188,-0.0611572265625,-0.184936523438,0.973693847656,8.5,116.3125,28.4375,2.28,-1.61,9.32
1455208944528630018,244,0,/imu_data_acquisition2,22951.0,-0.115600585938,-0.050048828125,-0.183532714844,0.974914550781,6.5,132.3125,32.0625,2.82,-1.68,9.61
1455208944538472890,245,0,/imu_data_acquisition2,22960.0,-0.112487792969,-0.0374145507812,-0.182189941406,0.97607421875,10.8125,151.25,34.0,3.63,-1.35,9.47
1455208944547344923,246,0,/imu_data_acquisition2,22971.0,-0.109069824219,-0.02294921875,-0.180419921875,0.977233886719,10.625,172.25,40.5625,4.23,-1.19,8.61
1455208944558576107,247,0,/imu_data_acquisition2,22982.0,-0.106323242188,-0.00555419921875,-0.177490234375,0.978332519531,-3.3125,203.9375,57.75,2.88,-3.26,10.38
1455208944572478055,248,0,/imu_data_acquisition2,22995.0,-0.102905273438,0.0127563476562,-0.174072265625,0.979248046875,2.4375,214.875,64.0625,1.79,-2.66,11.35
1455208944578917980,249,0,/imu_data_acquisition2,23003.0,-0.0992431640625,0.0314331054688,-0.170227050781,0.979919433594,4.5,219.1875,69.4375,-5.57,-2.33,17.84
1455208944589710950,250,0,/imu_data_acquisition2,23011.0,-0.0953369140625,0.0498046875,-0.167602539062,0.97998046875,7.3125,218.375,53.5,10.59,-2.82,7.74
1455208944605756998,251,0,/imu_data_acquisition2,23020.0,-0.0885009765625,0.0712280273438,-0.1640625,0.979858398438,34.6875,258.25,69.0625,3.64,-5.02,19.62
1455208944607657909,252,0,/imu_data_acquisition2,23030.0,-0.0794067382812,0.0950927734375,-0.160278320312,0.979248046875,55.125,290.875,75.6875,1.46,-4.14,20.73
1455208944618626117,253,0,/imu_data_acquisition2,23042.0,-0.0701293945312,0.120056152344,-0.156372070312,0.977844238281,54.375,304.8125,76.125,1.15,-4.18,18.1
1455208944626951932,254,0,/imu_data_acquisition2,23050.0,-0.0599975585938,0.14501953125,-0.0121459960938,0.975708007812,64.1875,308.4375,73.125,-0.44,-2.61,17.96
1455208944637270927,255,0,/imu_data_acquisition2,23061.0,-6.103515625e-05,-6.103515625e-05,-6.103515625e-05,0.973083496094,78.5,285.0625,62.5,1.17,-2.27,-0.01
1455208944648542881,256,0,/imu_data_acquisition2,23071.0,-0.0379028320312,0.1865234375,-0.148315429688,0.970458984375,90.5625,239.8125,47.5,13.13,-4.86,7.9
1455208944663044929,257,0,/imu_data_acquisition2,23085.0,-0.0261840820312,0.201416015625,-6.103515625e-05,0.967895507812,106.4375,197.8125,30.25,7.99,3.84,14.69
1455208944666656970,258,0,/imu_data_acquisition2,23090.0,-0.0173950195312,0.212341308594,-0.145874023438,0.966125488281,75.9375,143.5625,46.8125,5.53,2.08,14.39
1455208944678647994,259,0,/imu_data_acquisition2,23101.0,-0.0131225585938,0.221557617188,-0.139709472656,0.965026855469,17.375,114.25,80.9375,10.27,-2.01,13.24
1455208944689043998,260,0,/imu_data_acquisition2,23111.0,-0.00970458984375,0.228454589844,-0.132751464844,0.964416503906,9.4375,85.3125,88.75,9.17,-0.01,-0.01
1455208944696481943,261,0,/imu_data_acquisition2,23120.0,-0.0064697265625,0.233459472656,-0.12646484375,0.964111328125,11.625,62.125,80.875,8.91,-3.22,10.32
1455208944708303928,262,0,/imu_data_acquisition2,23131.0,-0.0050048828125,0.236572265625,-0.120422363281,0.964111328125,-4.625,37.5625,73.3125,8.96,-3.79,11.35
1455208944718275070,263,0,/imu_data_acquisition2,23140.0,-0.005615234375,0.237243652344,-0.114929199219,0.964599609375,-7.125,-0.0625,-0.0625,8.83,-4.02,11.92
1455208944727381944,264,0,/imu_data_acquisition2,23151.0,-0.00830078125,0.235046386719,-0.110473632812,0.965637207031,-39.875,-32.0625,44.5625,8.18,-5.06,10.1
1455208944738750934,265,0,/imu_data_acquisition2,23161.0,-0.011962890625,0.230041503906,-0.107849121094,0.967102050781,-42.5,-65.8125,21.5,7.89,-4.54,8.27
1455208944745657920,266,0,/imu_data_acquisition2,23170.0,-6.103515625e-05,-6.103515625e-05,-6.103515625e-05,0.96875,-36.875,-87.3125,-0.1875,7.56,-3.16,6.9
1455208944757414102,267,0,/imu_data_acquisition2,23181.0,-0.0197143554688,0.215270996094,-0.107360839844,0.970458984375,-34.125,-100.8125,-13.75,6.97,-0.51,7.12
1455208944769582986,268,0,/imu_data_acquisition2,23190.0,-0.024169921875,0.206298828125,-0.108032226562,0.972229003906,-37.6875,-113.0625,-18.5,6.69,0.25,7.81
1455208944779613018,269,0,/imu_data_acquisition2,23201.0,-0.0293579101562,0.196166992188,-0.108337402344,0.97412109375,-45.6875,-128.1875,-16.5,6.45,0.37,8.48
1455208944787816047,270,0,/imu_data_acquisition2,23212.0,-0.0350341796875,0.184692382812,-0.108093261719,0.976196289062,-50.3125,-144.4375,-12.1875,5.68,0.26,10.04
1455208944799545049,271,0,/imu_data_acquisition2,23221.0,-0.040771484375,0.171752929688,-0.107543945312,0.978393554688,-49.875,-162.25,-8.0625,5.15,0.34,10.79
1455208944806983947,272,0,/imu_data_acquisition2,23231.0,-0.0462646484375,0.157104492188,-0.106567382812,0.980712890625,-45.625,-5.8125,-0.0625,4.53,0.24,11.38
1455208944817754030,273,0,/imu_data_acquisition2,23241.0,-0.05126953125,0.140625,-0.105285644531,0.983093261719,-38.8125,-202.5625,-0.1875,4.06,0.0,11.8
1455208944832396984,274,0,/imu_data_acquisition2,23250.0,-0.0557250976562,0.122497558594,-0.103637695312,0.985473632812,-30.4375,-221.5,3.5625,3.28,-0.56,11.9
1455208944837656974,275,0,/imu_data_acquisition2,23261.0,-0.0597534179688,0.102905273438,-0.101684570312,0.987670898438,-24.625,-237.625,6.5,2.82,-0.9,12.1
1455208944849282026,276,0,/imu_data_acquisition2,23270.0,-6.103515625e-05,-6.103515625e-05,-6.103515625e-05,0.989562988281,-21.9375,-251.875,7.0625,2.41,-1.16,11.91
1455208944858968019,277,0,/imu_data_acquisition2,23281.0,-0.0678100585938,0.0603637695312,-0.0975341796875,0.991088867188,-23.25,-262.9375,5.9375,2.08,-1.46,11.9
1455208944868052005,278,0,/imu_data_acquisition2,23292.0,-0.0723266601562,0.0381469726562,-0.095458984375,0.992065429688,-28.125,-268.375,4.125,1.74,-1.91,12.35
1455208944877643108,279,0,/imu_data_acquisition2,23300.0,-0.0772705078125,0.0157470703125,-0.093505859375,0.992492675781,-33.4375,-270.5,1.75,1.56,-2.46,13.17
1455208944886595964,280,0,/imu_data_acquisition2,23310.0,-0.0825805664062,-0.00677490234375,-0.0919189453125,0.992309570312,-38.0,-271.8125,-2.9375,1.13,-2.72,14.76
1455208944902638912,281,0,/imu_data_acquisition2,23322.0,-0.0880126953125,-0.0294189453125,-0.0906982421875,0.991516113281,-39.375,-273.625,-8.375,0.83,-2.97,15.23
1455208944910720109,282,0,/imu_data_acquisition2,23331.0,-0.0933837890625,-0.0521850585938,-0.0897827148438,0.990173339844,-39.625,-274.25,-12.5,0.54,-3.13,15.59
1455208944916671037,283,0,/imu_data_acquisition2,23340.0,-0.0985717773438,-0.0748291015625,-0.089111328125,0.98828125,-38.875,-273.1875,-16.0,0.17,-4.45,15.89
1455208944929279088,284,0,/imu_data_acquisition2,23353.0,-0.103820800781,-0.096923828125,-0.0887451171875,0.985900878906,-40.3125,-266.875,-18.9375,-0.39,-5.88,15.97
1455208944940402984,285,0,/imu_data_acquisition2,23361.0,-0.109069824219,-0.118347167969,-0.0889892578125,0.982971191406,-42.5,-257.875,-26.5,-1.03,-6.94,15.98
1455208944946861982,286,0,/imu_data_acquisition2,23371.0,-0.00506591796875,-6.103515625e-05,-6.103515625e-05,0.9794921875,-47.6875,-246.6875,-40.5625,-1.73,-7.86,15.5
1455208944958245992,287,0,/imu_data_acquisition2,23381.0,-0.120056152344,-0.158203125,-0.0940551757812,0.9755859375,-55.125,-233.3125,-61.5625,-3.07,-8.49,14.45
1455208944967683076,288,0,/imu_data_acquisition2,23391.0,-0.125427246094,-0.176391601562,-0.0997314453125,0.97119140625,-59.1875,-216.125,-86.4375,-3.53,-7.69,14.15
1455208944975559949,289,0,/imu_data_acquisition2,23400.0,-6.103515625e-05,-6.103515625e-05,-6.103515625e-05,0.966552734375,-61.1875,-195.0625,-108.0625,-4.27,-6.2,14.59
1455208944987107038,290,0,/imu_data_acquisition2,23411.0,-0.135314941406,-0.208068847656,-0.116516113281,0.961669921875,-64.4375,-175.3125,-122.5625,-5.88,-3.81,16.45
1455208945000025033,291,0,/imu_data_acquisition2,23421.0,-0.0150756835938,-6.103515625e-05,-6.103515625e-05,0.956665039062,-67.875,-159.4375,-130.1875,-7.1,-2.95,17.15
1455208945005865097,292,0,/imu_data_acquisition2,23430.0,-0.144470214844,-0.234680175781,-0.136657714844,0.951538085938,-65.625,-149.4375,-133.0625,-8.32,-2.17,17.47
1455208945017987966,293,0,/imu_data_acquisition2,23441.0,-0.148132324219,-0.247009277344,-0.146545410156,0.946350097656,-57.8125,-142.4375,-130.5625,-11.2,-0.4,17.16
1455208945030833005,294,0,/imu_data_acquisition2,23451.0,-0.151062011719,-0.258850097656,-0.155517578125,0.941284179688,-47.0,-136.5,-121.5,-9.73,0.08,15.16
1455208945036305904,295,0,/imu_data_acquisition2,23461.0,-0.153076171875,-0.269653320312,-0.162902832031,0.936645507812,-33.5,-125.0,-104.125,-19.6,1.86,17.9
1455208945048995018,296,0,/imu_data_acquisition2,23472.0,-0.155517578125,-0.279357910156,-0.168151855469,0.932495117188,-33.0,-116.0,-75.75,-13.82,1.74,10.17
1455208945059978008,297,0,/imu_data_acquisition2,23483.0,-0.158447265625,-0.287109375,-0.171142578125,0.929077148438,-32.875,-97.3125,-44.3125,-0.66,-0.01,-0.01
1455208945067054033,298,0,/imu_data_acquisition2,23491.0,-0.16162109375,-0.292602539062,-0.171936035156,0.926635742188,-30.875,-73.25,-13.6875,-15.48,0.31,7.86
1455208945078943014,299,0,/imu_data_acquisition2,23501.0,-0.16162109375,-0.292602539062,-0.171936035156,0.926635742188,-25.3125,-46.625,7.75,-15.06,-0.68,7.93
1455208945092771053,300,0,/imu_data_acquisition2,23514.0,-0.16650390625,-0.296691894531,-0.170104980469,0.9248046875,-17.0625,-18.375,17.75,-13.84,-3.16,7.89
1455208945097726106,301,0,/imu_data_acquisition2,23522.0,-0.167114257812,-0.295776367188,-0.169189453125,0.925170898438,-4.75,8.375,14.875,-12.6,-4.76,6.36
1455208945218123912,302,0,/imu_data_acquisition2,23532.0,-0.167114257812,-0.295776367188,-0.169189453125,0.925170898438,9.0625,55.6875,-2.125,-11.59,-4.52,0.98
1455208945266072988,303,0,/imu_data_acquisition2,23543.0,-0.160766601562,-0.282531738281,-0.173156738281,0.9296875,29.375,126.0625,-28.1875,-8.26,-8.88,-1.32
1455208945281182050,304,0,/imu_data_acquisition2,23552.0,-0.160766601562,-0.282531738281,-0.173156738281,0.9296875,60.625,154.875,-71.9375,3.55,-1.85,10.53
1455208945308707952,305,0,/imu_data_acquisition2,23561.0,-0.151977539062,-0.272155761719,-0.179443359375,0.933044433594,95.0625,152.625,-108.375,17.66,10.63,9.84
1455208945310329914,306,0,/imu_data_acquisition2,23571.0,-0.1396484375,-0.262939453125,-0.187744140625,0.93603515625,21.4375,201.375,-77.0,-0.3,3.12,8.15
1455208945316539049,307,0,/imu_data_acquisition2,23580.0,-0.133056640625,-0.248229980469,-0.195678710938,0.939331054688,-27.4375,252.0,-23.0625,-2.17,4.71,19.68
1455208945319252967,308,0,/imu_data_acquisition2,23591.0,-0.130554199219,-0.227966308594,-0.200866699219,0.943725585938,34.0,242.4375,-23.375,-0.11,11.51,27.07
1455208945322818040,309,0,/imu_data_acquisition2,23600.0,-0.123229980469,-0.20947265625,-0.204711914062,0.948181152344,34.0,242.4375,-23.375,1.51,11.05,23.69
1455208945325706005,310,0,/imu_data_acquisition2,23610.0,-0.117553710938,-0.194519042969,-0.206420898438,0.951721191406,28.5,192.3125,-0.0625,5.38,1.45,-0.01
1455208945328071117,311,0,/imu_data_acquisition2,23620.0,-6.103515625e-05,-6.103515625e-05,-6.103515625e-05,0.954528808594,-41.5625,133.625,44.9375,4.94,-16.35,18.78
1455208945333276987,312,0,/imu_data_acquisition2,23634.0,-0.117370605469,-0.170166015625,-0.203918457031,0.956909179688,-49.8125,122.1875,12.5,-3.44,-9.98,21.51
1455208945339787960,313,0,/imu_data_acquisition2,23641.0,-0.119445800781,-0.159301757812,-0.204833984375,0.958312988281,-12.4375,73.75,1.8125,5.6,4.02,12.25
1455208945341675996,314,0,/imu_data_acquisition2,23658.0,-0.119812011719,-0.14794921875,-0.205749511719,0.959899902344,-18.625,58.25,8.75,3.47,-3.44,9.52
1455208945344412088,315,0,/imu_data_acquisition2,23661.0,-0.122497558594,-0.142639160156,-0.205078125,0.960510253906,-41.0625,54.25,20.625,-0.67,-1.95,8.96
1455208945345618963,316,0,/imu_data_acquisition2,23671.0,-0.0131225585938,-6.103515625e-05,-6.103515625e-05,0.960510253906,-34.375,44.0625,19.0,3.3,-0.63,10.44
1455208945348972082,317,0,/imu_data_acquisition2,23681.0,-0.124755859375,-0.138244628906,-0.204406738281,0.960998535156,-5.9375,16.25,1.4375,3.5,-2.06,9.32
1455208945351857900,318,0,/imu_data_acquisition2,23691.0,-0.124938964844,-0.136840820312,-0.204528808594,0.961181640625,-8.0625,12.9375,2.625,3.37,-2.51,9.74
1455208945361063003,319,0,/imu_data_acquisition2,23700.0,-0.125427246094,-0.135620117188,-0.20458984375,0.961242675781,-8.0625,12.9375,2.625,3.68,-2.24,9.43
1455208945363620042,320,0,/imu_data_acquisition2,23711.0,-0.125793457031,-0.134582519531,-0.204467773438,0.961364746094,-2.75,8.6875,2.75,3.56,-1.37,9.8
1455208945369368076,321,0,/imu_data_acquisition2,23731.0,-0.126098632812,-0.133056640625,-0.204223632812,0.961608886719,-5.6875,6.4375,2.25,3.64,-1.35,9.42
1455208945377635002,322,0,/imu_data_acquisition2,23735.0,-0.126525878906,-0.132446289062,-0.204162597656,0.961669921875,-5.6875,6.4375,2.25,3.64,-1.35,9.42
1455208945397320985,323,0,/imu_data_acquisition2,23744.0,-0.127014160156,-0.1318359375,-0.204223632812,0.961669921875,-7.6875,5.6875,1.5,3.51,-1.6,9.28
1455208945400700092,324,0,/imu_data_acquisition2,23754.0,-0.127685546875,-0.131225585938,-0.204284667969,0.961608886719,-9.125,5.0625,1.0625,2.83,-1.76,9.76
1455208945404165983,325,0,/imu_data_acquisition2,23766.0,-0.12841796875,-0.130676269531,-0.204345703125,0.961608886719,-9.375,4.75,0.9375,3.2,-1.59,9.49
1455208945407872915,326,0,/imu_data_acquisition2,23771.0,-0.12841796875,-0.130676269531,-0.204345703125,0.961608886719,-9.1875,3.5625,0.4375,2.6,-1.96,9.74
1455208945412571907,327,0,/imu_data_acquisition2,23781.0,-0.129089355469,-0.130187988281,-0.204467773438,0.961547851562,-9.0625,4.3125,0.6875,3.03,-1.8,9.57
1455208945431200027,328,0,/imu_data_acquisition2,23793.0,-0.129760742188,-0.129699707031,-0.20458984375,0.961486816406,-8.125,3.4375,0.5,3.01,-1.71,8.88
1455208945433042049,329,0,/imu_data_acquisition2,23801.0,-0.13037109375,-0.129272460938,-0.204711914062,0.96142578125,-8.0625,3.8125,0.8125,2.77,-2.37,9.48
1455208945437444925,331,0,/imu_data_acquisition2,23825.0,-0.131530761719,-0.12841796875,-0.204772949219,0.961364746094,-5.375,3.0,1.0625,2.58,-2.1,9.58
1455208945445091009,334,0,/imu_data_acquisition2,23868.0,-0.132751464844,-0.127258300781,-0.204711914062,0.96142578125,-3.5625,2.625,1.5625,2.43,-1.73,9.85
1455208945496901035,336,0,/imu_data_acquisition2,23898.0,-0.133361816406,-0.126708984375,-0.204650878906,0.961364746094,-3.9375,3.0,0.8125,2.44,-2.26,10.24
1455208945531816959,338,0,/imu_data_acquisition2,23948.0,-0.134521484375,-0.126159667969,-0.204895019531,0.961242675781,-3.9375,1.125,-0.125,1.87,-2.07,9.94
1455208945539128065,339,0,/imu_data_acquisition2,23952.0,-0.135070800781,-0.1259765625,-0.205017089844,0.961181640625,-3.8125,0.5,-0.375,2.13,-1.83,9.67
1455208945547111988,340,0,/imu_data_acquisition2,23964.0,-0.135375976562,-0.125915527344,-0.205078125,0.961120605469,-3.375,0.0,-0.75,2.19,-1.52,9.56
1455208945561275959,342,0,/imu_data_acquisition2,23985.0,-0.134887695312,-0.123474121094,-0.205322265625,0.961486816406,-4.4375,-0.4375,-0.5,2.15,-2.03,9.75
1455208945571618080,343,0,/imu_data_acquisition2,23995.0,-0.134338378906,-0.122192382812,-0.205383300781,0.961669921875,-3.375,-0.3125,-0.625,1.85,-1.54,9.38
1455208945582813978,344,0,/imu_data_acquisition2,24002.0,-0.134338378906,-0.122192382812,-0.205383300781,0.961669921875,-3.375,-0.3125,-0.625,2.46,-1.51,9.37
1455208945590666055,345,0,/imu_data_acquisition2,24014.0,-0.133850097656,-0.121276855469,-0.205444335938,0.961853027344,-2.8125,-1.25,-0.6875,1.89,-2.12,9.57
1455208945602987051,346,0,/imu_data_acquisition2,24023.0,-0.133483886719,-0.120239257812,-0.205505371094,0.962036132812,-3.375,-0.25,0.0625,1.91,-2.29,9.64
1455208945612936973,347,0,/imu_data_acquisition2,24035.0,-0.133605957031,-0.118957519531,-0.205444335938,0.962158203125,-2.0,-0.9375,-0.1875,2.02,-2.33,9.79
1455208945628473997,348,0,/imu_data_acquisition2,24044.0,-0.133605957031,-0.118957519531,-0.205444335938,0.962158203125,-2.6875,-0.75,0.1875,3.04,-1.39,8.8
1455208945657762050,350,0,/imu_data_acquisition2,24065.0,-0.134155273438,-0.119079589844,-0.20556640625,0.962036132812,-2.375,-0.375,0.5,2.39,-1.6,9.37
1455208945666562080,351,0,/imu_data_acquisition2,24075.0,-0.134155273438,-0.119079589844,-0.20556640625,0.962036132812,-2.375,-0.1875,0.4375,1.98,-1.53,9.48
1455208945668615102,352,0,/imu_data_acquisition2,24083.0,-0.134338378906,-0.119079589844,-0.20556640625,0.962036132812,-2.375,0.5,0.4375,2.11,-2.0,9.78
1455208945672780036,353,0,/imu_data_acquisition2,24094.0,-0.134582519531,-0.119018554688,-0.205627441406,0.962036132812,-3.0625,0.6875,0.4375,2.17,-1.98,-0.01
1455208945683727025,354,0,/imu_data_acquisition2,24102.0,-0.134765625,-0.118896484375,-0.205627441406,0.961975097656,-3.0625,0.6875,0.4375,2.41,-2.28,9.68
1455208945692334890,355,0,/imu_data_acquisition2,24114.0,-0.135009765625,-0.118774414062,-0.205688476562,0.961975097656,-1.9375,1.625,0.4375,2.23,-1.85,9.26
1455208945713133096,356,0,/imu_data_acquisition2,24124.0,-0.135131835938,-0.118591308594,-0.205688476562,0.961975097656,-1.3125,3.25,0.875,2.42,-2.4,9.5
1455208945755739927,357,0,/imu_data_acquisition2,24134.0,-0.135192871094,-0.118286132812,-0.205688476562,0.961975097656,1.0,3.8125,0.5625,2.1,-2.46,9.48
1455208945756927967,358,0,/imu_data_acquisition2,24144.0,-0.135009765625,-0.117980957031,-0.205749511719,0.962036132812,1.3125,6.0625,1.75,2.45,-1.73,9.36
1455208945758459091,359,0,/imu_data_acquisition2,24153.0,-0.134826660156,-0.117492675781,-0.205627441406,0.962158203125,4.0625,6.6875,1.5,2.25,-1.67,9.18
1455208945767363071,362,0,/imu_data_acquisition2,24186.0,-0.0078125,-6.103515625e-05,-6.103515625e-05,0.962890625,2.9375,10.8125,2.0,1.92,-1.54,9.63
1455208945783390998,364,0,/imu_data_acquisition2,24206.0,-0.132141113281,-0.112060546875,-0.205200195312,0.963256835938,1.0625,14.375,2.0,2.86,-1.52,9.14
1455208945789871931,365,0,/imu_data_acquisition2,24212.0,-0.132141113281,-0.112060546875,-0.205200195312,0.963256835938,1.0625,14.375,2.0,2.86,-1.52,9.14
1455208945804075956,366,0,/imu_data_acquisition2,24228.0,-0.131958007812,-0.109069824219,-0.205200195312,0.963623046875,-2.9375,19.625,2.75,2.87,-2.17,9.79
1455208945812517881,367,0,/imu_data_acquisition2,24235.0,-0.131958007812,-0.109069824219,-0.205200195312,0.963623046875,-2.1875,22.3125,2.9375,2.63,-2.54,9.05
1455208945823796987,368,0,/imu_data_acquisition2,24245.0,-0.131774902344,-0.013427734375,-6.103515625e-05,0.9638671875,-1.8125,29.5,4.875,2.38,0.02,7.31
1455208945840034008,370,0,/imu_data_acquisition2,24264.0,-0.130554199219,-0.101745605469,-0.205078125,0.964660644531,1.1875,46.25,10.5,3.06,-3.14,8.18
1455208945852797985,371,0,/imu_data_acquisition2,24276.0,-0.128784179688,-0.0933837890625,-0.204467773438,0.965881347656,1.0625,54.25,10.1875,3.26,-0.01,-0.01
1455208945867546081,372,0,/imu_data_acquisition2,24284.0,-0.128784179688,-0.0933837890625,-0.204467773438,0.965881347656,3.3125,66.6875,13.25,2.62,-2.81,9.74
1455208945871679067,373,0,/imu_data_acquisition2,24294.0,-0.12744140625,-0.0878295898438,-0.2041015625,0.966613769531,4.8125,79.5,18.4375,3.38,-2.81,9.12
1455208945892206907,374,0,/imu_data_acquisition2,24303.0,-0.125793457031,-0.0812377929688,-0.203430175781,0.967590332031,4.8125,79.5,18.4375,3.82,-2.06,8.93
1455208945912895917,375,0,/imu_data_acquisition2,24312.0,-0.123718261719,-0.0735473632812,-0.202514648438,0.968627929688,7.875,92.5,21.9375,3.82,-2.06,8.93
1455208945916191101,376,0,/imu_data_acquisition2,24324.0,-0.121765136719,-0.0646362304688,-0.201293945312,0.969787597656,6.5625,125.125,32.1875,3.21,-1.22,8.51
1455208945918365001,377,0,/imu_data_acquisition2,24334.0,-0.119262695312,-0.0541381835938,-0.199890136719,0.971008300781,9.3125,145.8125,35.3125,4.07,-2.01,9.2
1455208945920871019,378,0,/imu_data_acquisition2,24344.0,-0.1162109375,-0.0419921875,-0.198364257812,0.972290039062,10.625,172.75,38.4375,4.59,0.26,8.63
1455208945933953046,379,0,/imu_data_acquisition2,24356.0,-0.108947753906,-0.0106201171875,-0.194946289062,0.974670410156,4.25,202.125,45.875,1.9,-2.13,10.65
1455208945938890933,380,0,/imu_data_acquisition2,24362.0,-0.108947753906,-0.0106201171875,-0.194946289062,0.974670410156,4.25,202.125,45.875,1.9,-2.13,10.65
1455208945962369918,381,0,/imu_data_acquisition2,24373.0,-0.107116699219,0.009033203125,-6.103515625e-05,0.9755859375,-22.75,226.625,67.25,-2.77,-3.23,20.59
1455208945965959072,382,0,/imu_data_acquisition2,24384.0,-0.104919433594,0.0279541015625,-0.187866210938,0.976196289062,-26.5,231.0625,66.0,10.12,-2.49,11.01
1455208945971090078,383,0,/imu_data_acquisition2,24394.0,-0.103271484375,0.0479736328125,-0.0125122070312,0.976257324219,-16.3125,261.1875,79.8125,1.18,-5.09,22.36
1455208945988359928,384,0,/imu_data_acquisition2,24404.0,-0.100219726562,0.0704956054688,-0.179931640625,0.976013183594,-16.3125,261.1875,79.8125,0.73,-6.32,17.53
1455208946001887083,385,0,/imu_data_acquisition2,24417.0,-0.0879516601562,0.121276855469,-0.169189453125,0.97412109375,20.125,308.25,96.4375,0.29,-5.03,16.24
1455208946003652095,386,0,/imu_data_acquisition2,24424.0,-0.0879516601562,0.121276855469,-0.012939453125,0.97412109375,42.3125,304.375,93.9375,-0.47,-2.44,19.07
1455208946013161897,387,0,/imu_data_acquisition2,24436.0,-0.0791015625,0.146362304688,-0.164123535156,0.972290039062,48.6875,270.125,93.25,8.39,-6.9,13.23
1455208946020818948,388,0,/imu_data_acquisition2,24444.0,-0.0701904296875,0.168395996094,-0.158813476562,0.970275878906,48.6875,270.125,93.25,-0.64,-0.73,17.02
1455208946036159038,389,0,/imu_data_acquisition2,24454.0,-0.0614013671875,0.186096191406,-0.154174804688,0.968444824219,56.8125,219.25,82.125,6.52,-1.77,14.34
1455208946044162034,390,0,/imu_data_acquisition2,24465.0,-0.0509643554688,0.200988769531,-0.151733398438,0.966430664062,62.375,125.75,58.625,11.24,-3.86,14.03
1455208946062922954,391,0,/imu_data_acquisition2,24474.0,-0.043212890625,0.210693359375,-0.148559570312,0.965209960938,13.875,92.0,-0.0625,8.51,-5.32,11.07
1455208946080022096,392,0,/imu_data_acquisition2,24494.0,-0.0396118164062,0.21826171875,-0.143005371094,0.964538574219,8.375,56.1875,72.8125,8.41,-4.02,9.62
