%time,field.header.seq,field.header.stamp,field.header.frame_id,field.time_stamp,field.quat_x,field.quat_y,field.quat_z,field.quat_w,field.gyro_x,field.gyro_y,field.gyro_z,field.accel_x,field.accel_y,field.accel_z
1455212235925352096,939,0,/imu_data_acquisition2,39982.0,-0.024658203125,-0.0352172851562,0.837341308594,0.544982910156,2.5,4.3125,1.375,-0.04,-0.69,10.07
1455212235934565067,940,0,/imu_data_acquisition2,39992.0,-0.0248413085938,-0.0347900390625,0.83740234375,0.544921875,2.25,3.3125,1.1875,-0.28,-0.79,10.06
1455212235944792032,941,0,/imu_data_acquisition2,40003.0,-0.0250244140625,-0.0344848632812,0.837463378906,0.544799804688,1.0625,2.25,0.8125,-0.03,-0.6,10.22
1455212235953161954,942,0,/imu_data_acquisition2,40011.0,-0.0250854492188,-0.0342407226562,0.837524414062,0.544799804688,1.0625,2.25,0.8125,-0.03,-0.6,10.22
1455212235964489936,943,0,/imu_data_acquisition2,40021.0,-0.0252075195312,-0.0341186523438,0.837524414062,0.544738769531,0.5,1.375,0.625,-0.18,-0.63,10.17
1455212235974488973,944,0,/imu_data_acquisition2,40033.0,-0.0252685546875,-0.0339965820312,0.837524414062,0.544738769531,-0.0625,1.125,0.125,-0.02,-0.73,10.01
1455212235985295057,945,0,/imu_data_acquisition2,40043.0,-0.0252685546875,-0.0340576171875,0.837524414062,0.544738769531,-1.3125,0.0625,-0.25,0.06,-0.01,-0.01
1455212235995475053,946,0,/imu_data_acquisition2,40054.0,-0.0253295898438,-0.0341186523438,0.837524414062,0.544738769531,-1.625,0.0,-0.5,-0.05,-0.74,10.11
1455212236003119945,947,0,/imu_data_acquisition2,40061.0,-0.025390625,-0.0341796875,0.837524414062,0.544738769531,-1.625,0.0,-0.5,-0.05,-0.74,10.11
1455212236013329029,948,0,/imu_data_acquisition2,40071.0,-0.0254516601562,-0.0343017578125,0.837524414062,0.544738769531,-1.75,0.0,-0.25,-0.18,-0.8,10.2
1455212236023839950,949,0,/imu_data_acquisition2,40082.0,-0.0255126953125,-0.034423828125,0.837524414062,0.544738769531,-1.875,-0.1875,-0.375,0.02,-0.85,9.9
1455212236034810066,950,0,/imu_data_acquisition2,40093.0,-0.0255737304688,-0.0345458984375,0.837524414062,0.544738769531,-1.625,0.1875,-0.0625,-0.1,-0.79,10.1
1455212236044935941,951,0,/imu_data_acquisition2,40103.0,-0.0256958007812,-0.03466796875,0.837524414062,0.544738769531,-1.4375,0.4375,0.0,-0.03,-0.88,10.03
1455212236054532051,952,0,/imu_data_acquisition2,40112.0,-0.0257568359375,-0.0347900390625,0.837524414062,0.544738769531,-1.4375,0.4375,0.0,-0.03,-0.88,10.03
1455212236065403938,953,0,/imu_data_acquisition2,40123.0,-0.02587890625,-0.0348510742188,0.837524414062,0.544738769531,-1.3125,0.875,-0.0625,-0.11,-0.75,10.16
1455212236076540946,954,0,/imu_data_acquisition2,40134.0,-0.0260009765625,-0.0348510742188,0.837463378906,0.544738769531,-1.375,0.9375,0.125,-0.11,-0.74,10.07
1455212236087152957,955,0,/imu_data_acquisition2,40143.0,-0.026123046875,-0.0348510742188,0.837463378906,0.544738769531,-1.75,0.875,0.0625,0.0,-0.74,10.19
1455212236095952987,956,0,/imu_data_acquisition2,40154.0,-0.0262451171875,-0.034912109375,0.837463378906,0.544738769531,-2.0625,0.875,-0.0625,-0.05,-0.79,10.14
1455212236106128931,957,0,/imu_data_acquisition2,40162.0,-0.0263671875,-0.0350341796875,0.837463378906,0.544738769531,-2.0625,0.875,-0.0625,-0.05,-0.79,10.14
1455212236115513086,958,0,/imu_data_acquisition2,40172.0,-0.0265502929688,-0.03515625,0.837463378906,0.544738769531,-2.375,0.625,-0.1875,-0.2,-0.82,-0.01
1455212236125446081,959,0,/imu_data_acquisition2,40183.0,-0.026611328125,-0.0353393554688,0.837463378906,0.544738769531,-2.5,0.375,-0.125,-0.13,-0.9,9.9
1455212236136456966,960,0,/imu_data_acquisition2,40194.0,-0.0267333984375,-0.00421142578125,-6.103515625e-05,0.544677734375,-2.6875,0.25,-0.3125,0.17,-0.83,9.87
1455212236145879983,961,0,/imu_data_acquisition2,40203.0,-0.02685546875,-0.0357055664062,0.837463378906,0.544677734375,-2.6875,0.5,-0.4375,-0.14,-0.8,10.13
1455212236156580924,962,0,/imu_data_acquisition2,40213.0,-0.0269775390625,-0.035888671875,0.837463378906,0.544677734375,-2.6875,0.5,-0.4375,-0.19,-0.81,10.16
1455212236167537927,963,0,/imu_data_acquisition2,40223.0,-0.027099609375,-0.0360717773438,0.83740234375,0.544677734375,-3.0,0.5,-0.375,-0.19,-0.81,10.16
1455212236178025960,964,0,/imu_data_acquisition2,40233.0,-0.0272216796875,-0.0362548828125,0.83740234375,0.544677734375,-3.0,-0.125,-0.5,-0.02,-0.78,10.03
1455212236187243938,965,0,/imu_data_acquisition2,40245.0,-0.0274047851562,-0.0364379882812,0.837341308594,0.544738769531,-3.6875,-0.375,-1.0,-0.09,-0.7,10.29
1455212236197197914,966,0,/imu_data_acquisition2,40254.0,-0.0275268554688,-0.0366821289062,0.837341308594,0.544799804688,-3.875,-0.3125,-1.375,-0.2,-0.67,9.98
1455212236205845117,967,0,/imu_data_acquisition2,40263.0,-0.0277099609375,-0.036865234375,0.837219238281,0.544860839844,-3.875,-0.3125,-1.375,-0.2,-0.67,9.98
1455212236216130018,968,0,/imu_data_acquisition2,40273.0,-0.02783203125,-0.0370483398438,0.837158203125,0.544982910156,-4.0625,-0.1875,-1.5625,-0.23,-0.68,10.33
1455212236223891973,969,0,/imu_data_acquisition2,40282.0,-0.0280151367188,-0.0372314453125,0.837036132812,0.545104980469,-4.25,-0.5,-1.9375,-0.12,-0.74,10.18
1455212236236407995,970,0,/imu_data_acquisition2,40294.0,-0.0282592773438,-0.03759765625,0.836975097656,0.545227050781,-2.625,0.9375,-1.6875,-0.2,-0.48,10.68
1455212236248733043,971,0,/imu_data_acquisition2,40304.0,-0.0284423828125,-0.0377197265625,0.836853027344,0.545349121094,-2.5625,1.75,-1.4375,-0.2,-0.1,11.16
1455212236255455017,972,0,/imu_data_acquisition2,40313.0,-0.0286865234375,-0.037841796875,0.836791992188,0.545471191406,-2.5625,1.75,-1.4375,-0.2,-0.1,11.16
1455212236270659923,973,0,/imu_data_acquisition2,40323.0,-0.0289306640625,-0.0382080078125,0.836730957031,0.545532226562,-5.75,-0.0625,-1.125,-0.18,-1.99,10.35
1455212236278187990,974,0,/imu_data_acquisition2,40334.0,-0.0291137695312,-0.0384521484375,0.836669921875,0.545593261719,-1.875,1.625,0.0,-0.49,-0.68,9.94
1455212236286349058,975,0,/imu_data_acquisition2,40344.0,-0.0293579101562,-0.0385131835938,0.836669921875,0.545593261719,-2.6875,0.9375,-0.0625,0.0,-0.86,9.94
1455212236300220966,976,0,/imu_data_acquisition2,40354.0,-0.029541015625,-0.0386352539062,0.836608886719,0.545593261719,-3.6875,1.1875,-0.5,0.02,-0.81,9.73
1455212236308763027,977,0,/imu_data_acquisition2,40365.0,-0.02978515625,-0.0388793945312,0.836608886719,0.545593261719,-4.0,2.4375,-0.6875,-0.02,-0.86,-0.01
1455212236314311981,978,0,/imu_data_acquisition2,40372.0,-0.0301513671875,-0.0390625,0.836547851562,0.545654296875,-4.0,2.4375,-0.6875,-0.02,-0.86,9.94
1455212236327368021,979,0,/imu_data_acquisition2,40384.0,-0.0304565429688,-0.0392456054688,0.836486816406,0.545715332031,-3.5625,1.5,-1.4375,0.09,-1.1,10.0
1455212236339145898,980,0,/imu_data_acquisition2,40394.0,-0.0307006835938,-0.0394287109375,0.83642578125,0.545837402344,-3.5625,1.5,-1.4375,0.09,-1.14,9.8
1455212236346472978,981,0,/imu_data_acquisition2,40404.0,-0.031005859375,-0.03955078125,0.836364746094,0.545837402344,-3.5,2.1875,-0.4375,-0.19,-1.11,10.13
1455212236356966972,982,0,/imu_data_acquisition2,40413.0,-0.0313110351562,-0.0397338867188,0.836364746094,0.545837402344,-3.5,2.1875,-0.4375,-0.19,-1.11,10.13
1455212236365096092,983,0,/imu_data_acquisition2,40422.0,-0.0316772460938,-0.0398559570312,0.836303710938,0.5458984375,-3.6875,2.5,-0.625,-0.29,-0.99,9.97
1455212236375699043,984,0,/imu_data_acquisition2,40433.0,-0.0320434570312,-0.0399780273438,0.836242675781,0.545959472656,-3.4375,3.0,-1.25,0.03,-0.98,10.08
1455212236388457059,985,0,/imu_data_acquisition2,40445.0,-0.0324096679688,-0.0401000976562,0.836120605469,0.546142578125,-3.5625,2.6875,-2.0,0.1,-1.04,9.95
1455212236397473096,986,0,/imu_data_acquisition2,40454.0,-0.03271484375,-0.0402221679688,0.835998535156,0.546264648438,-3.5625,2.6875,-2.0,0.01,-0.98,10.13
1455212236405002117,987,0,/imu_data_acquisition2,40462.0,-6.103515625e-05,-6.103515625e-05,-6.103515625e-05,0.54638671875,-3.625,2.6875,-1.4375,0.01,-0.98,10.13
1455212236415481090,988,0,/imu_data_acquisition2,40472.0,-0.0333862304688,-0.0404663085938,0.835815429688,0.546508789062,-3.0625,3.0625,-1.5,0.16,-0.83,9.62
1455212236427481889,989,0,/imu_data_acquisition2,40484.0,-0.0338745117188,-0.0404052734375,0.835754394531,0.546630859375,-2.5625,4.625,-0.0625,-0.1,-0.95,10.2
1455212236437004089,990,0,/imu_data_acquisition2,40494.0,-0.0343017578125,-0.0404052734375,0.835632324219,0.546752929688,-2.5625,4.875,-1.6875,0.27,-1.15,9.69
1455212236450628995,991,0,/imu_data_acquisition2,40505.0,-0.0348510742188,-0.0403442382812,0.835510253906,0.546875,-3.0,5.375,-1.8125,0.23,-0.82,10.14
1455212236457357883,992,0,/imu_data_acquisition2,40514.0,-0.0352172851562,-0.0403442382812,0.835388183594,0.547058105469,-4.0625,7.5,-2.4375,-0.11,-0.9,10.06
1455212236465410947,993,0,/imu_data_acquisition2,40523.0,-0.0358276367188,-0.040283203125,0.835266113281,0.547241210938,-4.0625,7.5,-2.4375,-0.11,-0.9,10.06
1455212236476124048,994,0,/imu_data_acquisition2,40531.0,-0.0365600585938,-0.0402221679688,0.835083007812,0.547424316406,-4.625,8.4375,-2.8125,0.0,-0.9,10.37
1455212236486968040,995,0,/imu_data_acquisition2,40544.0,-0.00592041015625,-6.103515625e-05,-6.103515625e-05,0.547729492188,-5.8125,8.5,-3.1875,0.32,-0.88,9.97
1455212236496925115,996,0,/imu_data_acquisition2,40554.0,-0.0377807617188,-0.0404052734375,0.834655761719,0.548034667969,-7.3125,9.5,-3.8125,0.13,-0.93,10.06
1455212236505264043,997,0,/imu_data_acquisition2,40561.0,-0.03857421875,-0.04052734375,0.834350585938,0.54833984375,-8.4375,10.5625,-4.6875,0.13,-0.93,10.06
1455212236515012025,998,0,/imu_data_acquisition2,40572.0,-0.0396728515625,-0.040771484375,0.834045410156,0.548767089844,-9.6875,12.375,-5.6875,0.08,-1.28,10.08
1455212236525942087,999,0,/imu_data_acquisition2,40582.0,-0.0408935546875,-0.041015625,0.833557128906,0.549377441406,-10.5625,13.5,-8.0625,0.08,-0.01,-0.01
1455212236539623975,1000,0,/imu_data_acquisition2,40595.0,-0.0419921875,-0.041259765625,0.8330078125,0.550109863281,-11.625,14.4375,-9.375,0.24,-2.31,9.65
1455212236547151088,1001,0,/imu_data_acquisition2,40605.0,-0.0436401367188,-0.0414428710938,0.832397460938,0.550842285156,-12.4375,16.25,-10.8125,0.69,0.17,10.12
1455212236556499004,1002,0,/imu_data_acquisition2,40612.0,-0.0455322265625,-0.0414428710938,0.831604003906,0.551940917969,-11.875,19.1875,-15.3125,0.69,0.17,10.12
1455212236565717935,1003,0,/imu_data_acquisition2,40623.0,-0.0479125976562,-0.0416870117188,0.830688476562,0.553100585938,-18.125,23.0625,-16.4375,0.43,-0.28,9.83
1455212236577390909,1004,0,/imu_data_acquisition2,40635.0,-0.0509643554688,-0.0419921875,0.829650878906,0.554382324219,-22.375,28.8125,-17.75,0.16,-1.41,9.67
1455212236587316036,1005,0,/imu_data_acquisition2,40645.0,-0.0543823242188,-0.0419921875,0.828369140625,0.555908203125,-6.125,-0.0625,-0.0625,0.74,0.23,9.52
1455212236598694086,1006,0,/imu_data_acquisition2,40655.0,-0.0587158203125,-0.0419921875,0.827087402344,0.557434082031,-28.1875,44.5625,-21.1875,1.4,-0.56,8.98
1455212236605590105,1007,0,/imu_data_acquisition2,40663.0,-0.0643310546875,-0.0418090820312,0.825866699219,0.55859375,-35.25,57.0,-16.5625,1.4,-0.56,8.98
1455212236616523027,1008,0,/imu_data_acquisition2,40672.0,-0.0712890625,-0.0411376953125,0.82470703125,0.559509277344,-39.4375,74.25,-12.5,1.09,-2.49,8.56
1455212236624768018,1009,0,/imu_data_acquisition2,40683.0,-0.079345703125,-0.0393676757812,0.823364257812,0.560546875,-35.625,92.25,-13.5,0.98,0.25,9.27
1455212236639847040,1010,0,/imu_data_acquisition2,40695.0,-0.0888671875,-0.0371704101562,0.822204589844,0.560974121094,-42.0,108.375,-5.75,-0.1,-2.99,10.16
1455212236651469945,1011,0,/imu_data_acquisition2,40705.0,-0.100158691406,-0.0347290039062,0.820983886719,0.56103515625,-51.75,127.5,-1.125,-0.86,1.18,11.33
1455212236654930114,1012,0,/imu_data_acquisition2,40712.0,-0.112487792969,-0.03173828125,0.8193359375,0.561279296875,-53.25,141.5,-4.375,-0.86,1.18,11.33
1455212236671521902,1013,0,/imu_data_acquisition2,40724.0,-0.1259765625,-0.0293579101562,0.817749023438,0.560913085938,-67.8125,149.0,1.3125,-0.02,2.25,10.92
1455212236677429914,1014,0,/imu_data_acquisition2,40734.0,-0.141967773438,-0.028564453125,0.816345214844,0.559143066406,-101.0,161.25,14.625,-0.39,-0.52,10.2
1455212236688709020,1015,0,/imu_data_acquisition2,40745.0,-0.15966796875,-0.0278930664062,0.814514160156,0.557006835938,-114.6875,177.9375,15.6875,-2.1,-0.01,-0.01
1455212236708508968,1017,0,/imu_data_acquisition2,40762.0,-0.197265625,-0.0262451171875,0.809997558594,0.551635742188,-126.6875,195.0625,20.4375,-2.28,-2.95,9.82
1455212236714982032,1018,0,/imu_data_acquisition2,40773.0,-0.217468261719,-0.0255126953125,0.807434082031,0.5478515625,-134.875,203.1875,26.9375,-2.75,-2.42,11.95
1455212236732703924,1019,0,/imu_data_acquisition2,40785.0,-6.103515625e-05,-6.103515625e-05,-6.103515625e-05,0.542785644531,-140.0625,200.6875,40.5625,-3.49,-2.16,12.17
1455212236741251945,1020,0,/imu_data_acquisition2,40796.0,-0.257629394531,-0.0244750976562,0.803039550781,0.536865234375,-135.5,186.875,61.375,-4.38,-3.95,11.53
1455212236747665882,1021,0,/imu_data_acquisition2,40805.0,-0.276489257812,-0.0238037109375,0.80126953125,0.530029296875,-135.5,186.875,61.375,-4.16,-5.41,11.57
1455212236756380081,1022,0,/imu_data_acquisition2,40812.0,-0.293762207031,-0.0227661132812,0.799987792969,0.522644042969,-122.8125,172.5,69.875,-4.16,-5.41,11.57
1455212236768882989,1023,0,/imu_data_acquisition2,40824.0,-0.308837890625,-0.0211181640625,0.799011230469,0.515502929688,-102.3125,154.25,71.375,-2.5,-7.41,12.53
1455212236777767896,1024,0,/imu_data_acquisition2,40836.0,-0.321472167969,-0.0187377929688,0.797546386719,0.510070800781,-44.0625,118.9375,13.0,6.1,-11.55,17.95
1455212236798378944,1026,0,/imu_data_acquisition2,40855.0,-0.33642578125,-0.0145874023438,0.790161132812,0.512084960938,-0.4375,76.1875,-57.5,8.0,-0.99,9.61
1455212236805558919,1027,0,/imu_data_acquisition2,40863.0,-0.336608886719,-0.0148315429688,0.785217285156,0.51953125,25.5,20.875,-100.25,8.0,-0.99,9.61
1455212236816463947,1028,0,/imu_data_acquisition2,40874.0,-0.335388183594,-0.0158081054688,0.780639648438,0.527160644531,27.5,2.1875,-103.5625,6.96,2.23,7.94
1455212236827755928,1029,0,/imu_data_acquisition2,40885.0,-0.333251953125,-0.0164184570312,0.777038574219,0.533752441406,33.1875,-7.5625,-85.9375,6.17,2.11,13.21
1455212236836775064,1030,0,/imu_data_acquisition2,40895.0,-6.103515625e-05,-6.103515625e-05,-6.103515625e-05,0.53955078125,50.3125,-25.875,-67.125,5.35,2.13,15.91
1455212236847654104,1031,0,/imu_data_acquisition2,40905.0,-0.322082519531,-0.015625,0.774230957031,0.544616699219,70.0625,-58.875,-49.625,4.78,2.48,15.86
1455212236854840040,1032,0,/imu_data_acquisition2,40912.0,-0.0152587890625,-6.103515625e-05,-6.103515625e-05,0.548583984375,84.625,-91.3125,-27.625,3.59,1.33,-0.01
1455212236864562988,1033,0,/imu_data_acquisition2,40922.0,-0.300537109375,-0.0143432617188,0.778442382812,0.550903320312,91.3125,-112.6875,-1.0,2.74,-0.87,11.43
1455212236876221895,1034,0,/imu_data_acquisition2,40933.0,-0.288024902344,-0.0137329101562,0.78271484375,0.551513671875,90.25,-126.125,21.75,1.79,-0.01,-0.01
1455212236887234926,1035,0,/imu_data_acquisition2,40944.0,-0.275024414062,-0.0137329101562,0.787658691406,0.551147460938,84.375,-137.625,33.3125,0.22,-1.11,-0.01
1455212236897027015,1036,0,/imu_data_acquisition2,40954.0,-0.0117797851562,-6.103515625e-05,-6.103515625e-05,0.550415039062,74.3125,-147.375,33.6875,-0.4,-9.99,9.04
1455212236905754089,1037,0,/imu_data_acquisition2,40961.0,-0.248840332031,-0.0172729492188,0.797302246094,0.549621582031,60.0,-151.3125,27.6875,-0.93,-10.54,7.79
1455212236915621995,1038,0,/imu_data_acquisition2,40973.0,-0.236877441406,-0.02099609375,0.801391601562,0.548828125,40.75,-149.5625,20.6875,-1.5,-10.68,6.99
1455212237003411054,1040,0,/imu_data_acquisition2,40994.0,-0.216979980469,-0.0321044921875,0.807678222656,0.54736328125,1.625,-7.25,-0.0625,-2.72,-9.54,7.07
1455212237019737005,1041,0,/imu_data_acquisition2,41006.0,-0.208862304688,-0.0386962890625,0.809875488281,0.546752929688,-11.125,-126.125,-0.25,-3.57,-6.32,9.62
1455212237021090984,1042,0,/imu_data_acquisition2,41013.0,-0.20166015625,-0.045654296875,0.811645507812,0.546325683594,-20.1875,-119.0625,-4.5,-3.57,-6.32,9.62
1455212237022180080,1043,0,/imu_data_acquisition2,41022.0,-0.195129394531,-0.0528564453125,0.813171386719,0.545776367188,-26.8125,-113.0,-5.9375,-3.76,-5.29,10.04
1455212237024187088,1044,0,/imu_data_acquisition2,41032.0,-0.189025878906,-0.0599975585938,0.814575195312,0.545104980469,-14.1875,-0.0625,-0.0625,-1.2,-0.01,-0.01
1455212237025249958,1045,0,/imu_data_acquisition2,41042.0,-0.183166503906,-0.0670166015625,0.815979003906,0.544189453125,-31.125,-105.5,-1.5,-3.58,-2.64,10.78
1455212237028420925,1046,0,/imu_data_acquisition2,41052.0,-0.177490234375,-0.0738525390625,0.817626953125,0.542724609375,-30.9375,-103.6875,5.0625,-3.4,-2.04,11.0
1455212237030793905,1047,0,/imu_data_acquisition2,41061.0,-0.0155029296875,-6.103515625e-05,-6.103515625e-05,0.540649414062,-30.5,-103.5625,13.625,-3.11,-1.73,10.88
1455212237034353971,1048,0,/imu_data_acquisition2,41071.0,-0.166076660156,-0.0869750976562,0.821899414062,0.537902832031,-29.6875,-104.25,22.75,-2.8,-1.77,10.52
1455212237036258935,1049,0,/imu_data_acquisition2,41082.0,-0.160339355469,-0.09326171875,0.824462890625,0.534606933594,-28.4375,-104.1875,30.3125,-2.08,-2.48,9.8
1455212237037878036,1050,0,/imu_data_acquisition2,41093.0,-0.154602050781,-0.0993041992188,0.827209472656,0.531005859375,-26.6875,-103.375,34.8125,-1.69,-3.1,9.43
1455212237044079065,1051,0,/imu_data_acquisition2,41102.0,-0.148986816406,-0.105224609375,0.829895019531,0.527282714844,-26.1875,-101.8125,35.4375,-1.32,-3.68,9.17
1455212237056704044,1052,0,/imu_data_acquisition2,41112.0,-0.143371582031,-0.111145019531,0.832214355469,0.52392578125,-26.0,-100.0625,30.9375,-0.49,-4.64,8.52
1455212237065049886,1053,0,/imu_data_acquisition2,41122.0,-0.137878417969,-0.116943359375,0.834167480469,0.521057128906,-25.375,-97.1875,22.375,-0.14,-4.88,8.28
1455212237074647903,1054,0,/imu_data_acquisition2,41132.0,-0.132446289062,-0.122619628906,0.83544921875,0.519104003906,-23.8125,-93.1875,10.8125,0.16,-4.8,8.2
1455212237090621948,1055,0,/imu_data_acquisition2,41147.0,-0.127075195312,-0.128051757812,0.836059570312,0.51806640625,-21.75,-89.5625,-2.3125,0.71,-1.14,-0.01
1455212237095479011,1056,0,/imu_data_acquisition2,41153.0,-0.121643066406,-0.133361816406,0.836120605469,0.518005371094,-19.0625,-86.375,-15.125,0.71,-1.14,-0.01
1455212237106096982,1057,0,/imu_data_acquisition2,41163.0,-0.116088867188,-0.138366699219,0.835632324219,0.518737792969,-15.5,-83.5,-26.125,0.75,-3.18,8.64
1455212237120675086,1058,0,/imu_data_acquisition2,41175.0,-0.110473632812,-0.143127441406,0.834777832031,0.520080566406,-11.875,-81.625,-34.5625,0.62,-2.28,9.94
1455212237125816106,1059,0,/imu_data_acquisition2,41183.0,-0.104553222656,-0.147705078125,0.833618164062,0.521911621094,-8.0625,-81.75,-40.875,0.47,-1.95,10.41
1455212237137670040,1060,0,/imu_data_acquisition2,41194.0,-0.0982055664062,-0.152038574219,0.832275390625,0.523986816406,-3.375,-84.0625,-44.875,0.37,-1.67,10.66
1455212237144831895,1061,0,/imu_data_acquisition2,41202.0,-0.0913696289062,-0.156127929688,0.830932617188,0.526184082031,1.9375,-87.0,-47.3125,0.25,-1.52,10.94
1455212237155555963,1062,0,/imu_data_acquisition2,41213.0,-0.0841064453125,-0.159912109375,0.829528808594,0.528442382812,7.625,-89.6875,-48.3125,-0.03,-1.71,11.56
1455212237166776895,1063,0,/imu_data_acquisition2,41223.0,-0.0763549804688,-0.163391113281,0.828186035156,0.530639648438,14.25,-92.625,-48.625,-0.39,-1.79,11.85
1455212237174293994,1064,0,/imu_data_acquisition2,41232.0,-0.0679931640625,-0.166442871094,0.826843261719,0.532897949219,22.3125,-95.5625,-49.0,-0.5,-2.08,11.99
1455212237186705112,1065,0,/imu_data_acquisition2,41243.0,-0.0590209960938,-0.168884277344,0.825561523438,0.53515625,31.5625,-97.5,-50.125,-0.93,-2.78,11.82
1455212237197632074,1066,0,/imu_data_acquisition2,41251.0,-0.0496215820312,-0.170654296875,0.824340820312,0.537475585938,41.625,-97.4375,-50.1875,-1.23,-3.1,11.86
1455212237205729007,1067,0,/imu_data_acquisition2,41263.0,-0.039794921875,-0.171691894531,0.823181152344,0.539672851562,51.4375,-97.0,-49.375,-1.66,-3.16,12.08
1455212237216790914,1068,0,/imu_data_acquisition2,41274.0,-0.0297241210938,-0.171936035156,0.822082519531,0.541931152344,60.5625,-95.125,-49.4375,-2.57,-3.11,12.46
1455212237223541021,1069,0,/imu_data_acquisition2,41281.0,-0.0194702148438,-0.171508789062,0.821105957031,0.544006347656,68.5,-92.3125,-47.5625,-3.26,-2.91,12.72
1455212237238595962,1070,0,/imu_data_acquisition2,41293.0,-0.00921630859375,-0.170532226562,0.820251464844,0.5458984375,74.125,-89.1875,-44.5,-3.9,-2.9,12.84
1455212237249313116,1071,0,/imu_data_acquisition2,41307.0,0.00091552734375,-0.169128417969,0.819519042969,0.547546386719,78.125,-85.8125,-40.4375,-4.92,-2.7,13.25
1455212237255800962,1072,0,/imu_data_acquisition2,41312.0,-6.103515625e-05,-6.103515625e-05,-6.103515625e-05,0.548706054688,79.375,-82.875,-34.3125,-2.0,-0.01,-0.01
1455212237266212940,1073,0,/imu_data_acquisition2,41323.0,0.0203247070312,-0.165954589844,0.818786621094,0.549194335938,76.1875,-81.75,-25.4375,-8.42,-1.75,13.56
1455212237276304960,1074,0,/imu_data_acquisition2,41334.0,0.0293579101562,-0.1650390625,0.818908691406,0.548950195312,67.1875,-81.875,-14.875,-9.89,-1.31,13.06
1455212237286608934,1075,0,/imu_data_acquisition2,41341.0,0.03759765625,-0.165344238281,0.819274902344,0.547790527344,51.8125,-84.0625,-2.3125,-13.48,-0.72,10.92
1455212237296782016,1076,0,/imu_data_acquisition2,41354.0,0.0450439453125,-0.1669921875,0.820068359375,0.545471191406,35.0625,-87.0625,13.5,-16.21,0.2,9.78
1455212237307856082,1077,0,/imu_data_acquisition2,41363.0,0.0518798828125,-0.169921875,0.82177734375,0.541442871094,21.25,-92.1875,38.4375,-19.48,2.57,8.35
1455212237313662052,1078,0,/imu_data_acquisition2,41371.0,-6.103515625e-05,-6.103515625e-05,-6.103515625e-05,0.534790039062,-4.5,-99.5,75.0625,-20.71,6.26,-0.99
1455212237326174020,1079,0,/imu_data_acquisition2,41382.0,0.0595703125,-0.184204101562,0.828430175781,0.525573730469,-61.5,-94.25,115.3125,-18.64,3.22,-6.66
1455212237337166070,1080,0,/imu_data_acquisition2,41392.0,0.0559692382812,-0.196044921875,0.83251953125,0.515075683594,-122.125,-58.4375,145.0625,-15.57,-2.87,-9.98
1455212237343956947,1081,0,/imu_data_acquisition2,41402.0,0.0474853515625,-0.205688476562,0.8369140625,0.504943847656,-130.0625,4.0625,-0.0625,-8.47,-16.77,-8.52
1455212237355663061,1082,0,/imu_data_acquisition2,41412.0,0.0376586914062,-0.205505371094,0.841430664062,0.498352050781,-42.0625,84.8125,116.5,-5.83,-14.05,-1.77
1455212237366447925,1083,0,/imu_data_acquisition2,41422.0,-6.103515625e-05,-6.103515625e-05,-6.103515625e-05,0.496032714844,71.125,-0.0625,-0.0625,2.18,-6.79,6.19
1455212237381164073,1084,0,/imu_data_acquisition2,41435.0,0.0234375,-0.179992675781,0.848937988281,0.496337890625,118.3125,147.125,24.625,13.19,-9.48,16.08
1455212237389724016,1085,0,/imu_data_acquisition2,41447.0,0.017822265625,-0.167541503906,0.850463867188,0.498352050781,95.1875,134.6875,-2.9375,23.83,-16.3,30.45
1455212237399247884,1086,0,/imu_data_acquisition2,41454.0,0.0155639648438,-0.158569335938,0.849853515625,0.502319335938,74.6875,82.9375,-41.1875,13.95,-9.35,15.44
1455212237404817104,1087,0,/imu_data_acquisition2,41463.0,0.0131225585938,-0.148132324219,0.847717285156,0.509155273438,85.375,99.0625,-78.25,1.25,3.0,-4.87
1455212237415332078,1088,0,/imu_data_acquisition2,41472.0,0.00726318359375,-0.135314941406,0.845642089844,0.516235351562,88.625,148.0,-75.375,0.19,6.0,-9.5
1455212237425637960,1089,0,/imu_data_acquisition2,41482.0,-0.00347900390625,-0.118103027344,0.843811035156,0.5234375,102.5625,224.5,-67.8125,-1.53,0.72,19.77
1455212237434318065,1090,0,/imu_data_acquisition2,41492.0,-0.0145874023438,-0.09765625,0.842102050781,0.530212402344,133.625,247.0,-62.0625,-5.83,-2.08,39.99
1455212237445502042,1091,0,/imu_data_acquisition2,41502.0,-0.0197143554688,-0.0801391601562,0.841369628906,0.534118652344,142.3125,165.6875,-34.1875,-7.57,6.57,22.69
1455212237465123891,1093,0,/imu_data_acquisition2,41522.0,-0.0137329101562,-0.0568237304688,0.843322753906,0.534240722656,135.5625,18.625,7.1875,0.15,-2.1,14.44
1455212237476701974,1094,0,/imu_data_acquisition2,41532.0,-0.00958251953125,-0.0488891601562,0.843872070312,0.534240722656,105.1875,8.6875,1.25,1.92,5.16,10.72
1455212237489310026,1095,0,/imu_data_acquisition2,41542.0,-0.008544921875,-0.0439453125,0.84423828125,0.534057617188,56.5,20.5625,4.3125,0.4,2.82,10.74
1455212237494267940,1096,0,/imu_data_acquisition2,41551.0,-0.00927734375,-0.04052734375,0.8447265625,0.533569335938,29.75,28.5,8.5625,-1.47,-1.71,14.73
1455212237505886077,1097,0,/imu_data_acquisition2,41563.0,-0.0101928710938,-0.0386962890625,0.845031738281,0.533203125,12.75,20.8125,6.5,-1.05,-0.36,13.04
1455212237516036987,1098,0,/imu_data_acquisition2,41571.0,-0.0103759765625,-0.0064697265625,-6.103515625e-05,0.533081054688,8.625,7.5,2.3125,0.11,0.29,10.81
1455212237524261951,1099,0,/imu_data_acquisition2,41582.0,-0.0104370117188,-0.037109375,0.845153808594,0.533142089844,5.3125,4.5,-0.6875,0.02,-0.3,10.41
1455212237536279916,1100,0,/imu_data_acquisition2,41593.0,-0.0106811523438,-0.0371704101562,0.845092773438,0.533203125,-2.125,2.4375,-1.0,0.17,-0.9,10.3
1455212237544387102,1101,0,/imu_data_acquisition2,41601.0,-0.0111083984375,-0.00616455078125,-6.103515625e-05,0.533386230469,-5.0,2.375,-2.625,0.38,-0.57,9.63
1455212237554950952,1102,0,/imu_data_acquisition2,41613.0,-0.0114135742188,-0.0377197265625,0.844787597656,0.53369140625,-5.25,-0.0625,-0.0625,0.28,-0.32,10.07
1455212237566543102,1103,0,/imu_data_acquisition2,41623.0,-0.0118408203125,-0.0380859375,0.844543457031,0.533996582031,-5.9375,2.25,-4.5625,0.24,-0.31,10.21
1455212237573903083,1104,0,/imu_data_acquisition2,41631.0,-0.0122680664062,-0.03857421875,0.844299316406,0.534301757812,-7.8125,1.5,-4.75,0.31,-1.0,9.89
1455212237585910081,1105,0,/imu_data_acquisition2,41643.0,-0.0127563476562,-0.0391845703125,0.844055175781,0.53466796875,-8.8125,1.0625,-0.0625,0.32,-1.29,9.44
1455212237595285892,1106,0,/imu_data_acquisition2,41653.0,-0.0131225585938,-0.0396118164062,0.843872070312,0.534973144531,-7.1875,1.375,-4.0625,0.28,-1.37,9.78
1455212237605149984,1107,0,/imu_data_acquisition2,41661.0,-0.013427734375,-0.039794921875,0.843688964844,0.535217285156,-3.8125,1.8125,-3.1875,0.33,-1.27,9.92
1455212237615325927,1108,0,/imu_data_acquisition2,41673.0,-0.0136108398438,-0.039794921875,0.843627929688,0.535339355469,-0.875,1.5625,-1.6875,0.25,-1.41,9.65
1455212237625668048,1109,0,/imu_data_acquisition2,41683.0,-0.013671875,-0.0394897460938,0.843627929688,0.535339355469,2.75,2.5625,-0.3125,0.31,-1.27,9.92
1455212237634265899,1110,0,/imu_data_acquisition2,41692.0,-0.0136108398438,-0.0389404296875,0.843627929688,0.535339355469,5.75,3.25,0.5,0.35,-0.91,9.65
1455212237645370006,1111,0,/imu_data_acquisition2,41703.0,-0.0136108398438,-0.0381469726562,0.84375,0.535278320312,7.8125,4.875,1.625,0.42,-0.58,10.04
1455212237655905008,1112,0,/imu_data_acquisition2,41713.0,-0.013671875,-6.103515625e-05,-6.103515625e-05,0.53515625,8.25,5.875,1.9375,0.48,-0.75,10.05
1455212237664136886,1113,0,/imu_data_acquisition2,41722.0,-0.013916015625,-6.103515625e-05,-6.103515625e-05,0.535034179688,7.4375,7.5625,2.1875,0.18,-0.59,10.1
1455212237675247907,1114,0,/imu_data_acquisition2,41733.0,-0.0142822265625,-0.0355224609375,0.844055175781,0.534851074219,6.6875,9.3125,2.375,0.08,-0.37,10.45
1455212237687216043,1115,0,/imu_data_acquisition2,41743.0,-0.0147094726562,-0.03466796875,0.844177246094,0.534729003906,5.125,9.8125,2.1875,-0.01,-0.41,10.32
1455212237694713115,1116,0,/imu_data_acquisition2,41752.0,-0.0153198242188,-0.0340576171875,0.844299316406,0.534606933594,2.75,9.75,2.625,0.16,-0.63,10.3
1455212237705724000,1117,0,/imu_data_acquisition2,41763.0,-0.015869140625,-0.0335083007812,0.844360351562,0.534484863281,1.5,9.125,2.375,0.1,-0.55,10.41
1455212237716680049,1118,0,/imu_data_acquisition2,41772.0,-0.0164794921875,-0.0330810546875,0.844482421875,0.534362792969,0.6875,8.6875,1.875,0.12,-0.51,10.35
1455212237724478960,1119,0,/imu_data_acquisition2,41782.0,-0.01708984375,-0.03271484375,0.844482421875,0.534240722656,0.1875,8.125,1.4375,0.0,-0.63,10.25
1455212237736288070,1120,0,/imu_data_acquisition2,41793.0,-0.017578125,-0.0323486328125,0.844543457031,0.534240722656,0.0,7.375,1.0,0.13,-0.62,10.15
1455212237747257947,1121,0,/imu_data_acquisition2,41801.0,-0.01806640625,-0.0320434570312,0.844604492188,0.5341796875,-0.125,6.75,0.875,0.06,-0.88,10.07
1455212237755523920,1122,0,/imu_data_acquisition2,41812.0,-0.0184326171875,-0.03173828125,0.844604492188,0.534118652344,-0.3125,5.9375,0.6875,0.06,-0.24,10.24
1455212237767220020,1123,0,/imu_data_acquisition2,41822.0,-0.018798828125,-0.031494140625,0.844604492188,0.534118652344,-0.375,4.875,0.6875,-0.15,-1.16,10.14
1455212237774425029,1124,0,/imu_data_acquisition2,41832.0,-0.0191040039062,-0.0314331054688,0.844604492188,0.534118652344,-1.75,4.0625,0.25,0.32,-0.43,9.89
1455212237785487890,1125,0,/imu_data_acquisition2,41842.0,-0.019287109375,-0.031494140625,0.844604492188,0.534118652344,-1.8125,1.5,-0.375,-0.21,-0.12,10.37
1455212237797007083,1126,0,/imu_data_acquisition2,41852.0,-0.0194702148438,-0.0316772460938,0.844543457031,0.5341796875,-2.875,0.5625,-1.1875,-0.21,-0.23,10.43
1455212237803999900,1127,0,/imu_data_acquisition2,41862.0,-0.01953125,-0.0321655273438,0.844421386719,0.534362792969,-5.5625,-2.125,-2.1875,-0.38,-0.47,10.35
1455212237814718008,1128,0,/imu_data_acquisition2,41872.0,-0.0196533203125,-0.0330200195312,0.84423828125,0.534545898438,-8.5625,-4.0625,-3.25,0.13,-0.53,10.4
1455212237828542947,1129,0,/imu_data_acquisition2,41884.0,-0.0196533203125,-0.0340576171875,0.844055175781,0.534790039062,-10.875,-6.625,-4.0,0.34,-0.46,9.71
1455212237834505081,1130,0,/imu_data_acquisition2,41892.0,-0.0196533203125,-0.0353393554688,0.843811035156,0.535095214844,-12.625,-7.25,-4.4375,0.32,-0.7,10.32
1455212237844950914,1131,0,/imu_data_acquisition2,41902.0,-0.019775390625,-0.03662109375,0.843627929688,0.535339355469,-13.625,-7.3125,-4.3125,0.54,-1.11,9.94
1455212237859972953,1132,0,/imu_data_acquisition2,41914.0,-0.0199584960938,-0.0377807617188,0.843383789062,0.535583496094,-12.875,-5.3125,-3.8125,0.53,-1.28,9.66
1455212237865034103,1133,0,/imu_data_acquisition2,41923.0,-0.0202026367188,-0.0386962890625,0.843200683594,0.535766601562,-10.6875,-3.125,-3.25,0.72,-1.34,10.12
1455212237875184059,1134,0,/imu_data_acquisition2,41932.0,-0.0204467773438,-0.0393676757812,0.843078613281,0.535949707031,-7.8125,-1.4375,-2.5,0.3,-0.91,10.9
1455212237887758970,1135,0,/imu_data_acquisition2,41943.0,-0.0206909179688,-0.03955078125,0.843017578125,0.536071777344,-3.9375,1.125,-1.625,0.61,-1.25,9.48
1455212237894049882,1136,0,/imu_data_acquisition2,41952.0,-0.0209350585938,-0.0397338867188,0.842956542969,0.5361328125,-2.6875,1.375,-0.875,0.24,-1.04,10.53
1455212237905941963,1137,0,/imu_data_acquisition2,41963.0,-0.0054931640625,-6.103515625e-05,-6.103515625e-05,0.5361328125,-1.125,2.5,-0.4375,0.28,-0.86,10.18
1455212237915747880,1138,0,/imu_data_acquisition2,41972.0,-0.0213623046875,-0.03955078125,0.842956542969,0.5361328125,-0.5,2.75,0.0625,0.12,-1.0,10.03
1455212237923949003,1139,0,/imu_data_acquisition2,41982.0,-0.0216064453125,-0.0393676757812,0.842956542969,0.5361328125,0.3125,3.4375,0.4375,0.56,-1.07,10.22
1455212237935566902,1140,0,/imu_data_acquisition2,41993.0,-0.0217895507812,-0.0391235351562,0.842956542969,0.5361328125,1.375,3.5,0.8125,0.15,-1.07,9.78
1455212237948220968,1141,0,/imu_data_acquisition2,42002.0,-0.02197265625,-0.0386962890625,0.843017578125,0.536010742188,2.75,4.75,1.3125,-0.1,-1.08,9.83
1455212237955472946,1142,0,/imu_data_acquisition2,42013.0,-0.022216796875,-0.0382080078125,0.843139648438,0.535888671875,3.625,5.3125,2.0,0.33,-0.93,10.15
1455212237999680042,1143,0,/imu_data_acquisition2,42023.0,-0.0223999023438,-0.0376586914062,0.843200683594,0.535766601562,4.1875,5.1875,2.375,0.21,-0.01,-0.01
1455212238002435922,1144,0,/imu_data_acquisition2,42035.0,-0.0226440429688,-0.0370483398438,0.843383789062,0.535583496094,4.5,6.3125,2.8125,-0.01,-0.81,10.05
1455212238004429101,1145,0,/imu_data_acquisition2,42042.0,-0.0228881835938,-0.0364379882812,0.843505859375,0.535400390625,4.25,6.1875,3.0,-0.07,-0.65,9.98
1455212238005732059,1146,0,/imu_data_acquisition2,42052.0,-0.023193359375,-0.035888671875,0.843627929688,0.535217285156,3.875,5.875,2.8125,-0.12,-0.86,10.16
1455212238007824897,1147,0,/imu_data_acquisition2,42062.0,-0.0233764648438,-0.035400390625,0.84375,0.535095214844,3.5625,5.0625,2.5,-0.19,-0.61,10.25
1455212238015922069,1148,0,/imu_data_acquisition2,42074.0,-0.0235595703125,-0.0350341796875,0.843811035156,0.534912109375,2.75,4.125,2.125,-0.11,-0.58,10.14
1455212238023219108,1149,0,/imu_data_acquisition2,42081.0,-0.0235595703125,-0.0350341796875,0.843811035156,0.534912109375,1.9375,3.0,1.625,-0.12,-0.6,10.34
1455212238038510084,1150,0,/imu_data_acquisition2,42092.0,-0.0237426757812,-0.0344848632812,0.843994140625,0.534729003906,0.9375,1.9375,1.125,-0.08,-0.53,9.99
1455212238045234918,1151,0,/imu_data_acquisition2,42102.0,-0.0238037109375,-0.0343017578125,0.843994140625,0.534729003906,-0.0625,1.3125,0.75,-0.04,-0.62,10.1
1455212238055840015,1152,0,/imu_data_acquisition2,42113.0,-0.0238647460938,-0.0343017578125,0.843994140625,0.534729003906,-1.0,0.4375,0.3125,-0.24,-0.71,10.25
1455212238063760995,1153,0,/imu_data_acquisition2,42121.0,-0.0238647460938,-0.0343017578125,0.843994140625,0.534729003906,-1.5,-0.25,0.0,-0.11,-0.69,10.08
1455212238076340913,1154,0,/imu_data_acquisition2,42133.0,-0.0239868164062,-0.0344848632812,0.843994140625,0.53466796875,-2.1875,-0.8125,-0.3125,-0.06,-0.78,10.01
1455212238088273048,1155,0,/imu_data_acquisition2,42143.0,-0.0239868164062,-0.0344848632812,0.843994140625,0.53466796875,-2.5,-1.0,-0.5625,0.09,-0.71,9.97
1455212238094921112,1156,0,/imu_data_acquisition2,42152.0,-0.0239868164062,-0.034912109375,0.843933105469,0.534729003906,-2.6875,-1.125,-0.625,0.11,-0.73,9.97
1455212238106103897,1157,0,/imu_data_acquisition2,42164.0,-0.0239868164062,-0.034912109375,0.843933105469,0.534729003906,-3.0625,-0.75,-0.8125,0.02,-0.82,9.93
1455212238114891052,1158,0,/imu_data_acquisition2,42171.0,-0.0240478515625,-0.0352172851562,0.843933105469,0.534790039062,-2.9375,-0.875,-0.6875,-0.11,-0.75,10.24
1455212238124924898,1159,0,/imu_data_acquisition2,42183.0,-0.0241088867188,-0.035400390625,0.843872070312,0.534790039062,-2.9375,-0.4375,-0.9375,0.08,-0.01,-0.01
1455212238136164903,1160,0,/imu_data_acquisition2,42193.0,-0.0242309570312,-0.03564453125,0.843811035156,0.534851074219,-2.9375,-0.0625,-0.5625,-0.16,-0.76,10.12
1455212238144473075,1161,0,/imu_data_acquisition2,42202.0,-0.0243530273438,-0.0358276367188,0.843811035156,0.534851074219,-2.5,0.4375,-0.5625,0.13,-0.87,10.25
1455212238156173944,1162,0,/imu_data_acquisition2,42213.0,-0.0244750976562,-0.0360107421875,0.843811035156,0.534851074219,-2.3125,0.3125,-0.1875,-0.13,-0.78,9.97
1455212238166815996,1163,0,/imu_data_acquisition2,42223.0,-0.0245971679688,-0.0048828125,-6.103515625e-05,0.534851074219,-2.0,1.0625,-0.3125,-0.25,-0.85,10.43
1455212238174180030,1164,0,/imu_data_acquisition2,42232.0,-0.0247192382812,-0.0361938476562,0.843811035156,0.534851074219,-2.0625,0.9375,-0.1875,-0.16,-0.79,10.25
1455212238185981035,1165,0,/imu_data_acquisition2,42243.0,-0.02490234375,-0.0363159179688,0.843811035156,0.534851074219,-2.375,1.125,-0.3125,0.14,-0.78,9.88
1455212238198209047,1166,0,/imu_data_acquisition2,42253.0,-0.0250854492188,-0.036376953125,0.843811035156,0.534851074219,-2.8125,0.6875,-0.3125,-0.1,-0.78,10.16
1455212238204917907,1167,0,/imu_data_acquisition2,42263.0,-0.0252685546875,-0.0365600585938,0.84375,0.534851074219,-2.75,1.0,-0.375,-0.05,-0.8,10.12
1455212238216722965,1168,0,/imu_data_acquisition2,42273.0,-0.0254516601562,-0.0366821289062,0.84375,0.534851074219,-2.75,1.0,-0.375,-0.05,-0.85,10.08
1455212238226928949,1169,0,/imu_data_acquisition2,42283.0,-0.025634765625,-0.0368041992188,0.84375,0.534851074219,-2.75,0.6875,-0.3125,-0.07,-0.76,10.13
1455212238234431982,1170,0,/imu_data_acquisition2,42292.0,-0.0258178710938,-0.0369873046875,0.84375,0.534851074219,-2.9375,0.6875,-0.375,-0.2,-0.81,10.05
1455212238245672941,1171,0,/imu_data_acquisition2,42303.0,-0.0260009765625,-0.037109375,0.84375,0.534851074219,-3.0625,0.8125,-0.625,-0.16,-0.82,10.19
1455212238256238937,1172,0,/imu_data_acquisition2,42313.0,-0.0261840820312,-0.0372924804688,0.843688964844,0.534912109375,-2.9375,0.9375,-0.6875,0.12,-0.79,9.97
1455212238264082908,1173,0,/imu_data_acquisition2,42322.0,-0.0263671875,-0.0374145507812,0.843627929688,0.534912109375,-2.9375,0.9375,-0.6875,-0.2,-0.87,9.99
1455212238275686979,1174,0,/imu_data_acquisition2,42333.0,-0.0264892578125,-0.0376586914062,0.843566894531,0.534973144531,-3.5625,0.3125,-1.0625,-0.11,-0.77,10.19
1455212238284684896,1175,0,/imu_data_acquisition2,42342.0,-0.0266723632812,-0.0379028320312,0.843566894531,0.535095214844,-3.5625,0.3125,-1.0625,0.0,-0.75,9.91
1455212238294842958,1176,0,/imu_data_acquisition2,42353.0,-0.02685546875,-0.00689697265625,-6.103515625e-05,0.53515625,-4.4375,-0.0625,-1.5,-0.1,-0.67,-0.01
1455212238306905984,1177,0,/imu_data_acquisition2,42364.0,-0.0269775390625,-0.0383911132812,0.843383789062,0.535217285156,-4.6875,-0.125,-1.875,-0.2,-0.83,10.28
1455212238314548015,1178,0,/imu_data_acquisition2,42372.0,-0.0272216796875,-0.0386352539062,0.843322753906,0.535339355469,-4.6875,-0.125,-1.875,-0.04,-1.07,10.12
1455212238325567007,1179,0,/imu_data_acquisition2,42383.0,-0.0276489257812,-0.0393676757812,0.843139648438,0.535583496094,-5.125,-0.375,-1.625,-0.36,-0.57,9.06
1455212238337882995,1180,0,/imu_data_acquisition2,42394.0,-0.0276489257812,-0.0393676757812,0.843139648438,0.535583496094,-3.375,0.625,-1.125,0.13,-0.17,9.56
1455212238347295045,1181,0,/imu_data_acquisition2,42404.0,-0.02783203125,-0.0396118164062,0.843078613281,0.53564453125,-4.3125,0.625,-1.0625,0.94,-1.04,10.19
1455212238356311082,1182,0,/imu_data_acquisition2,42414.0,-0.0283813476562,-0.0403442382812,0.842895507812,0.535827636719,-6.4375,0.3125,-1.9375,-0.16,-2.08,10.8
1455212238366044044,1183,0,/imu_data_acquisition2,42422.0,-0.0283813476562,-0.0403442382812,0.842895507812,0.535827636719,-6.4375,0.3125,-1.9375,-0.01,-0.67,9.87
1455212238378127098,1184,0,/imu_data_acquisition2,42432.0,-0.0286254882812,-0.0406494140625,0.8427734375,0.535949707031,-4.1875,0.625,-1.5625,-0.21,-0.91,10.14
1455212238386394977,1185,0,/imu_data_acquisition2,42444.0,-0.0288696289062,-0.0408325195312,0.8427734375,0.536010742188,-5.0,0.4375,-1.0625,0.13,-0.88,10.04
1455212238397736072,1186,0,/imu_data_acquisition2,42454.0,-0.0291137695312,-0.0411987304688,0.842651367188,0.536071777344,-5.625,1.3125,-1.5625,0.19,-1.06,9.2
1455212238405708074,1187,0,/imu_data_acquisition2,42463.0,-0.0294189453125,-0.0415649414062,0.842590332031,0.5361328125,-5.5,-0.0625,-0.0625,-0.25,-0.96,10.54
1455212238416004896,1188,0,/imu_data_acquisition2,42473.0,-0.0298461914062,-0.0418701171875,0.842468261719,0.536254882812,-5.5,2.0625,-1.6875,0.19,-1.13,10.19
1455212238428342103,1189,0,/imu_data_acquisition2,42481.0,-0.0302124023438,-0.042236328125,0.842346191406,0.536376953125,-5.625,1.5,-2.0,0.19,-1.13,10.19
1455212238436608076,1190,0,/imu_data_acquisition2,42494.0,-0.0305786132812,-0.04248046875,0.842224121094,0.536560058594,-4.9375,2.375,-1.5,0.05,-1.21,-0.01
1455212238448282003,1191,0,/imu_data_acquisition2,42506.0,-0.0309448242188,-0.0427856445312,0.842163085938,0.53662109375,-4.75,3.125,-0.0625,-0.15,-1.36,9.89
1455212238455224037,1192,0,/imu_data_acquisition2,42513.0,-0.0313720703125,-0.04296875,0.842041015625,0.536743164062,-4.75,3.375,-2.0625,0.03,-1.27,9.76
1455212238466903924,1193,0,/imu_data_acquisition2,42522.0,-0.0318603515625,-0.0431518554688,0.841918945312,0.536926269531,-4.75,3.375,-2.0625,0.04,-1.22,10.11
1455212238478152036,1194,0,/imu_data_acquisition2,42534.0,-0.0322875976562,-0.0433349609375,0.841796875,0.537048339844,-4.375,3.625,-2.4375,0.26,-0.01,-0.01
1455212238485722064,1195,0,/imu_data_acquisition2,42543.0,-0.03271484375,-0.04345703125,0.841674804688,0.537292480469,-3.875,3.5,-2.4375,0.12,-1.01,9.82
1455212238497344970,1196,0,/imu_data_acquisition2,42555.0,-0.0331420898438,-0.0123291015625,-6.103515625e-05,0.537475585938,-3.4375,4.0625,-2.0,0.18,-1.1,9.82
1455212238508965969,1197,0,/imu_data_acquisition2,42563.0,-6.103515625e-05,-6.103515625e-05,-6.103515625e-05,0.53759765625,-3.4375,4.0625,-2.0,-0.26,-0.93,10.14
1455212238514816999,1198,0,/imu_data_acquisition2,42573.0,-0.0339965820312,-0.0436401367188,0.84130859375,0.537780761719,-2.9375,5.25,-1.875,-0.05,-1.03,10.04
1455212238531385898,1199,0,/imu_data_acquisition2,42584.0,-0.0344848632812,-0.0436401367188,0.841186523438,0.537902832031,-3.375,5.5,-2.1875,0.11,-0.01,-0.01
1455212238538314104,1200,0,/imu_data_acquisition2,42594.0,-0.0349731445312,-0.0436401367188,0.841064453125,0.5380859375,-3.375,5.5,-2.1875,-0.04,-1.17,10.15
1455212238545262098,1201,0,/imu_data_acquisition2,42603.0,-6.103515625e-05,-6.103515625e-05,-6.103515625e-05,0.538330078125,-4.0625,6.1875,-3.0,0.08,-0.01,-0.01
1455212238559062004,1202,0,/imu_data_acquisition2,42615.0,-0.0362548828125,-0.012451171875,-6.103515625e-05,0.53857421875,-5.6875,7.4375,-3.8125,0.0,-0.84,10.08
1455212238565916061,1203,0,/imu_data_acquisition2,42623.0,-0.00579833984375,-6.103515625e-05,-6.103515625e-05,0.538818359375,-5.6875,7.4375,-3.8125,0.0,-0.84,10.08
1455212238574827909,1204,0,/imu_data_acquisition2,42632.0,-0.0377197265625,-0.0439453125,0.840209960938,0.539184570312,-7.125,7.5625,-4.6875,0.19,-0.99,9.98
1455212238586877107,1205,0,/imu_data_acquisition2,42643.0,-0.0386352539062,-0.044189453125,0.83984375,0.539611816406,-8.375,8.9375,-5.5,0.36,-1.17,9.75
1455212238600214004,1206,0,/imu_data_acquisition2,42654.0,-0.03955078125,-0.0445556640625,0.839477539062,0.540161132812,-10.25,11.375,-8.625,0.21,-1.79,9.66
1455212238605686902,1207,0,/imu_data_acquisition2,42664.0,-0.040771484375,-0.0447998046875,0.838989257812,0.540771484375,-9.9375,13.6875,-10.0,0.26,-1.11,10.09
1455212238618828058,1208,0,/imu_data_acquisition2,42673.0,-0.0421752929688,-0.0448608398438,0.838439941406,0.54150390625,-9.9375,13.6875,-10.0,0.52,-1.25,9.71
1455212238623560905,1209,0,/imu_data_acquisition2,42681.0,-0.0437622070312,-0.0448608398438,0.837829589844,0.542358398438,-9.6875,16.3125,-11.625,0.52,-1.25,9.71
1455212238637900114,1210,0,/imu_data_acquisition2,42695.0,-6.103515625e-05,-6.103515625e-05,-6.103515625e-05,0.544189453125,-12.75,25.375,-11.5,0.72,-1.0,9.66
1455212238648547887,1211,0,/imu_data_acquisition2,42705.0,-0.0479736328125,-0.0444946289062,0.83642578125,0.544189453125,-13.5,31.875,-13.4375,0.1,-0.75,9.95
1455212238657215118,1212,0,/imu_data_acquisition2,42714.0,-0.00396728515625,-6.103515625e-05,-6.103515625e-05,0.545227050781,-15.4375,35.8125,-13.0625,0.85,-1.2,10.03
1455212238664860963,1213,0,/imu_data_acquisition2,42723.0,-0.0540161132812,-0.0435180664062,0.834777832031,0.546203613281,-15.4375,35.8125,-13.0625,0.85,-1.2,10.03
1455212238675312995,1214,0,/imu_data_acquisition2,42733.0,-0.0578002929688,-0.0426635742188,0.833923339844,0.547241210938,-15.6875,43.6875,-13.25,0.59,-1.04,9.58
1455212238687866926,1215,0,/imu_data_acquisition2,42743.0,-0.0623779296875,-0.04150390625,0.832946777344,0.548217773438,-18.25,53.8125,-12.5625,1.2,-1.1,8.92
1455212238695554971,1216,0,/imu_data_acquisition2,42754.0,-0.0682373046875,-0.04052734375,0.832214355469,0.548767089844,-28.1875,65.375,-6.625,0.73,-0.63,9.35
1455212238706926107,1217,0,/imu_data_acquisition2,42764.0,-0.0752563476562,-0.03857421875,0.831420898438,0.549194335938,-27.125,97.1875,-0.1875,1.14,0.74,9.26
1455212238716922044,1218,0,/imu_data_acquisition2,42772.0,-0.0833740234375,-0.0047607421875,-6.103515625e-05,0.54931640625,-27.125,97.1875,-0.1875,1.14,0.74,9.26
1455212238724261999,1219,0,/imu_data_acquisition2,42782.0,-0.09326171875,-0.0332641601562,0.830078125,0.548767089844,-38.25,115.3125,8.5625,1.1,-1.12,9.31
1455212238737185001,1220,0,/imu_data_acquisition2,42794.0,-0.104553222656,-0.0143432617188,-6.103515625e-05,0.548278808594,-41.8125,133.0,6.6875,0.0,2.26,-0.01
1455212238747034072,1221,0,/imu_data_acquisition2,42804.0,-0.116394042969,-0.0263671875,0.827941894531,0.547973632812,-42.3125,141.25,4.0,0.05,1.48,11.24
1455212238756711006,1222,0,/imu_data_acquisition2,42815.0,-0.130737304688,-0.0238647460938,0.826843261719,0.546569824219,-93.8125,176.625,18.5625,-0.45,-2.19,9.38
1455212238767008066,1223,0,/imu_data_acquisition2,42823.0,-0.147399902344,-0.0220947265625,0.825439453125,0.544494628906,-93.8125,176.625,18.5625,-0.45,-2.19,9.38
1455212238774247884,1224,0,/imu_data_acquisition2,42831.0,-0.165283203125,-0.00445556640625,-6.103515625e-05,0.541809082031,-100.625,189.875,24.3125,-1.21,-0.48,11.98
1455212238786353111,1225,0,/imu_data_acquisition2,42844.0,-0.184448242188,-0.0177612304688,0.822143554688,0.538330078125,-120.125,218.625,39.375,-1.98,-0.01,-0.01
1455212238797282934,1226,0,/imu_data_acquisition2,42854.0,-0.205078125,-0.0155639648438,0.820129394531,0.533935546875,-116.9375,223.125,54.125,-2.75,-1.88,13.22
1455212238806585073,1227,0,/imu_data_acquisition2,42864.0,-6.103515625e-05,-6.103515625e-05,-6.103515625e-05,0.5283203125,-4.9375,-0.0625,-0.0625,-2.75,-1.88,13.22
1455212238814970970,1228,0,/imu_data_acquisition2,42873.0,-0.246520996094,-0.0093994140625,0.816833496094,0.521484375,-116.1875,224.0625,68.4375,-3.64,-2.44,11.66
1455212238825361013,1229,0,/imu_data_acquisition2,42883.0,-0.266906738281,-0.006103515625,0.815551757812,0.513366699219,-118.125,220.4375,82.0625,-4.68,-2.05,11.48
1455212238837120056,1230,0,/imu_data_acquisition2,42894.0,-0.286010742188,-0.00341796875,0.815002441406,0.503967285156,-119.6875,201.75,97.25,-3.9,-5.1,11.76
1455212238846658945,1231,0,/imu_data_acquisition2,42905.0,-0.302978515625,-0.00103759765625,0.815002441406,0.493896484375,-102.5,157.6875,97.1875,-0.43,-9.53,13.82
1455212238857052087,1232,0,/imu_data_acquisition2,42915.0,-6.103515625e-05,-6.103515625e-05,-6.103515625e-05,0.484497070312,-102.5,157.6875,97.1875,4.93,-15.51,17.87
1455212238864757061,1233,0,/imu_data_acquisition2,42922.0,-6.103515625e-05,-6.103515625e-05,-6.103515625e-05,0.478454589844,-83.125,140.75,54.625,4.93,-15.51,17.87
1455212238877548933,1234,0,/imu_data_acquisition2,42935.0,-0.339111328125,0.00335693359375,0.808776855469,0.48046875,8.875,34.1875,-121.6875,8.49,-9.77,10.0
1455212238886869907,1235,0,/imu_data_acquisition2,42943.0,-0.341064453125,0.0018310546875,0.802795410156,0.489013671875,8.875,34.1875,-121.6875,8.49,-9.77,10.0
1455212238897294044,1236,0,/imu_data_acquisition2,42954.0,-0.341613769531,-0.00146484375,0.795959472656,0.499755859375,8.5625,13.4375,-155.0625,6.3,2.02,8.37
1455212238906701087,1237,0,/imu_data_acquisition2,42964.0,-0.0138549804688,-6.103515625e-05,-6.103515625e-05,0.510192871094,3.375,-0.0625,-0.0625,5.69,3.22,12.34
1455212238915194988,1238,0,/imu_data_acquisition2,42971.0,-0.341491699219,-0.00860595703125,0.783020019531,0.519836425781,11.375,0.8125,-139.8125,5.69,3.22,12.34
1455212238926184892,1239,0,/imu_data_acquisition2,42983.0,-0.338500976562,-0.010986328125,0.778381347656,0.528625488281,31.5,-22.3125,-7.4375,4.99,4.44,15.23
1455212238949402093,1240,0,/imu_data_acquisition2,42995.0,-0.332153320312,-0.0125122070312,0.775817871094,0.536254882812,55.4375,-57.125,-93.5,3.41,6.06,13.72
1455212239057725906,1241,0,/imu_data_acquisition2,43006.0,-0.32275390625,-0.013427734375,0.775756835938,0.542053222656,74.1875,-90.9375,-58.375,2.69,3.99,12.75
1455212239059694051,1242,0,/imu_data_acquisition2,43015.0,-0.311157226562,-0.0137329101562,0.778137207031,0.54541015625,88.125,-136.0625,14.625,1.81,0.63,12.31
1455212239061284065,1243,0,/imu_data_acquisition2,43024.0,-0.298156738281,-0.0138549804688,0.782409667969,0.546569824219,88.125,-136.0625,14.625,0.05,-6.65,11.66
1455212239062541961,1244,0,/imu_data_acquisition2,43033.0,-0.2841796875,-0.01416015625,0.787780761719,0.546325683594,87.5,-150.4375,33.375,0.05,-6.65,11.66
1455212239064450025,1245,0,/imu_data_acquisition2,43045.0,-0.269592285156,-0.0152587890625,0.793334960938,0.545654296875,82.875,-162.0625,36.3125,-1.36,-10.24,9.23
1455212239066627025,1246,0,/imu_data_acquisition2,43054.0,-0.2548828125,-0.0175170898438,0.798522949219,0.545043945312,72.625,-169.0,29.3125,-2.45,-10.57,6.44
1455212239080357074,1247,0,/imu_data_acquisition2,43065.0,-0.240844726562,-0.02099609375,0.803100585938,0.544555664062,57.125,-169.6875,20.1875,-2.84,-10.7,6.13
1455212239083839893,1248,0,/imu_data_acquisition2,43072.0,-0.228088378906,-0.0258178710938,0.807067871094,0.544067382812,36.4375,-163.4375,13.5,-2.84,-10.7,6.13
1455212239085319042,1249,0,/imu_data_acquisition2,43082.0,-0.216979980469,-0.0316772460938,0.810302734375,0.54345703125,14.375,-153.25,7.5625,-3.2,-10.82,6.75
1455212239087169885,1250,0,/imu_data_acquisition2,43093.0,-0.004150390625,-6.103515625e-05,-6.103515625e-05,0.542846679688,-4.25,-143.75,1.25,-3.98,-10.26,8.91
1455212239093904972,1251,0,/imu_data_acquisition2,43104.0,-0.198669433594,-0.0462036132812,0.81494140625,0.542419433594,-18.375,-137.1875,-5.625,-4.27,-9.55,9.35
1455212239098870038,1252,0,/imu_data_acquisition2,43115.0,-0.19091796875,-0.0545043945312,0.816467285156,0.542236328125,-29.8125,-131.875,-12.0,-4.41,-8.84,9.45
1455212239108294010,1253,0,/imu_data_acquisition2,43121.0,-0.183959960938,-0.0631713867188,0.8173828125,0.542236328125,-6.5,-0.0625,-0.0625,-4.52,-7.3,9.44
1455212239111747026,1254,0,/imu_data_acquisition2,43132.0,-0.177734375,-0.0719604492188,0.817810058594,0.542602539062,-43.375,-117.0,-24.5625,-4.47,-6.07,9.73
1455212239114168882,1255,0,/imu_data_acquisition2,43143.0,-0.172119140625,-0.08056640625,0.817810058594,0.543212890625,-46.0625,-109.4375,-28.75,-4.31,-2.28,-0.01
1455212239116544961,1256,0,/imu_data_acquisition2,43155.0,-0.166870117188,-0.0889282226562,0.817626953125,0.543823242188,-46.4375,-103.5625,-29.125,-3.41,-1.37,10.72
1455212239119954109,1257,0,/imu_data_acquisition2,43165.0,-0.161865234375,-0.096923828125,0.817504882812,0.544128417969,-44.4375,-99.5,-24.75,-3.41,-1.37,10.72
1455212239120665073,1258,0,/imu_data_acquisition2,43173.0,-0.156860351562,-0.1044921875,0.817749023438,0.543884277344,-41.1875,-97.625,-16.3125,-3.03,-0.81,10.81
1455212239125547885,1259,0,/imu_data_acquisition2,43181.0,-0.151794433594,-0.111572265625,0.818359375,0.542907714844,-36.9375,-97.0,-5.875,-2.68,-0.62,10.73
1455212239138277053,1260,0,/imu_data_acquisition2,43194.0,-0.146606445312,-0.1181640625,0.819519042969,0.541259765625,-31.9375,-96.75,4.3125,-1.98,-0.83,10.36
1455212239147692918,1261,0,/imu_data_acquisition2,43204.0,-0.141296386719,-0.124328613281,0.820983886719,0.539001464844,-27.875,-96.625,13.125,-1.65,-1.28,10.1
1455212239159406900,1262,0,/imu_data_acquisition2,43216.0,-0.135986328125,-0.130187988281,0.822692871094,0.536376953125,-24.6875,-96.125,18.875,-0.71,-2.67,9.23
1455212239170717954,1263,0,/imu_data_acquisition2,43222.0,-0.130554199219,-0.135803222656,0.824462890625,0.533630371094,-21.5,-95.125,20.5,-0.71,-2.67,9.23
1455212239177371025,1264,0,/imu_data_acquisition2,43233.0,-0.125061035156,-0.141052246094,0.826110839844,0.531066894531,-17.9375,-93.4375,18.75,-0.41,-2.99,9.12
1455212239183783054,1265,0,/imu_data_acquisition2,43242.0,-0.119506835938,-0.145935058594,0.827514648438,0.52880859375,-14.0,-90.6875,14.5625,-0.2,-3.25,9.08
1455212239197226047,1266,0,/imu_data_acquisition2,43255.0,-0.00457763671875,-6.103515625e-05,-6.103515625e-05,0.527038574219,-10.6875,-7.75,-0.0625,0.03,-3.38,9.09
1455212239207954883,1267,0,/imu_data_acquisition2,43265.0,-0.108337402344,-0.154846191406,0.829345703125,0.52587890625,-7.5625,-85.3125,-0.0625,0.16,-3.3,9.65
1455212239214034080,1268,0,/imu_data_acquisition2,43271.0,-0.1025390625,-0.158935546875,0.829650878906,0.525268554688,-4.75,-83.5625,-8.125,0.1,-3.12,10.01
1455212239226489067,1269,0,/imu_data_acquisition2,43283.0,-0.0965576171875,-0.162902832031,0.82958984375,0.525268554688,-1.75,-83.5625,-16.125,0.01,-2.89,10.36
1455212239235428094,1270,0,/imu_data_acquisition2,43292.0,-0.0902709960938,-0.166687011719,0.829284667969,0.525695800781,2.1875,-84.0,-23.0625,-0.24,-2.61,10.66
1455212239246212005,1271,0,/imu_data_acquisition2,43304.0,-0.0836181640625,-0.0138549804688,-6.103515625e-05,0.526611328125,7.0625,-84.0625,-13.375,-0.4,-2.5,10.76
1455212239259896993,1272,0,/imu_data_acquisition2,43317.0,-0.07666015625,-0.173156738281,0.827941894531,0.52783203125,13.4375,-84.0,-33.5625,-1.24,-2.03,11.46
1455212239268338918,1273,0,/imu_data_acquisition2,43323.0,-0.0692749023438,-0.175720214844,0.827270507812,0.529113769531,20.3125,-85.375,-33.9375,-1.24,-2.03,11.46
1455212239275509119,1274,0,/imu_data_acquisition2,43331.0,-0.0615234375,-0.177795410156,0.826599121094,0.530395507812,28.5,-85.5,-34.5625,-1.6,-1.99,11.69
1455212239286812067,1275,0,/imu_data_acquisition2,43344.0,-0.0534057617188,-0.17919921875,0.826049804688,0.531677246094,36.875,-85.1875,-34.25,-2.03,-1.96,11.98
1455212239299005985,1276,0,/imu_data_acquisition2,43355.0,-0.0450439453125,-0.180053710938,0.825561523438,0.532958984375,44.3125,-84.3125,-33.4375,-2.51,-2.03,12.27
1455212239309165000,1277,0,/imu_data_acquisition2,43366.0,-0.036376953125,-0.180297851562,0.8251953125,0.534057617188,51.75,-83.9375,-32.25,-4.44,-2.02,13.28
1455212239316529035,1278,0,/imu_data_acquisition2,43374.0,-0.0274047851562,-0.18017578125,0.824951171875,0.535034179688,57.8125,-84.8125,-29.875,-4.44,-2.02,13.28
1455212239325515985,1279,0,/imu_data_acquisition2,43382.0,-0.0181884765625,-0.179809570312,0.824829101562,0.535705566406,61.9375,-0.0625,-0.0625,-5.3,-1.89,13.48
1455212239336452007,1280,0,/imu_data_acquisition2,43394.0,-0.0089111328125,-0.179321289062,0.824951171875,0.535949707031,63.5,-86.875,-5.875,-7.26,-1.56,13.39
1455212239346971988,1281,0,/imu_data_acquisition2,43404.0,0.00018310546875,-0.179138183594,0.825134277344,0.535766601562,60.4375,-88.125,-16.0625,-8.42,-1.5,13.17
1455212239361175060,1282,0,/imu_data_acquisition2,43416.0,0.00909423828125,-0.179504394531,0.825561523438,0.534973144531,53.6875,-90.5625,-8.1875,-9.64,-1.66,12.64
1455212239364883899,1283,0,/imu_data_acquisition2,43423.0,0.017578125,-0.180541992188,0.826110839844,0.533508300781,44.9375,-92.875,0.375,-12.26,-2.2,10.37
1455212239374771118,1284,0,/imu_data_acquisition2,43433.0,0.025634765625,-0.182189941406,0.826965332031,0.531311035156,36.5,-93.8125,9.875,-13.8,-2.37,8.73
1455212239384502887,1285,0,/imu_data_acquisition2,43441.0,0.0330810546875,-0.184387207031,0.828125,0.528259277344,28.9375,-92.8125,21.375,-15.58,-1.63,6.81
1455212239397738933,1286,0,/imu_data_acquisition2,43456.0,0.0393676757812,-0.187316894531,0.829772949219,0.524230957031,16.1875,-88.125,37.3125,-19.14,2.56,1.97
1455212239409905910,1287,0,/imu_data_acquisition2,43466.0,0.0433349609375,-0.192077636719,0.831970214844,0.518676757812,-14.875,-80.0,62.0,-19.22,3.39,-1.69
1455212239414213895,1288,0,/imu_data_acquisition2,43472.0,0.043212890625,-0.199462890625,0.834655761719,0.511535644531,-63.9375,-58.9375,90.6875,-18.1,1.79,-5.24
1455212239425077915,1289,0,/imu_data_acquisition2,43483.0,0.0381469726562,-0.207885742188,0.837585449219,0.503723144531,-102.8125,-17.9375,111.125,-16.02,-1.82,-7.52
1455212239436376094,1290,0,/imu_data_acquisition2,43493.0,0.029296875,-0.213317871094,0.840759277344,0.496765136719,-95.9375,39.625,112.1875,-9.29,-13.48,-5.06
1455212239454657077,1291,0,/imu_data_acquisition2,43505.0,0.019775390625,-0.210388183594,0.843933105469,0.493103027344,-17.375,103.75,-0.0625,-5.61,-10.23,1.23
1455212239458152055,1292,0,/imu_data_acquisition2,43516.0,-6.103515625e-05,-6.103515625e-05,-6.103515625e-05,0.492065429688,53.8125,121.3125,42.8125,12.5,-6.76,10.78
1455212239466752052,1293,0,/imu_data_acquisition2,43521.0,0.0074462890625,-0.193603515625,0.848510742188,0.492370605469,54.125,99.25,17.9375,31.06,-18.12,37.3
1455212239477684020,1294,0,/imu_data_acquisition2,43534.0,0.0052490234375,-0.189758300781,0.848815917969,0.493469238281,25.625,47.0625,-4.4375,25.65,-15.67,25.55
1455212239487195014,1295,0,/imu_data_acquisition2,43544.0,0.0045166015625,-0.183959960938,0.847351074219,0.498168945312,50.625,51.625,-54.25,5.41,3.73,-1.46
1455212239495063066,1296,0,/imu_data_acquisition2,43551.0,-6.103515625e-05,-6.103515625e-05,-6.103515625e-05,0.503234863281,53.1875,114.1875,-46.625,2.48,6.38,-18.42
1455212239506433963,1297,0,/imu_data_acquisition2,43563.0,-0.0128173828125,-0.161987304688,0.84521484375,0.509155273438,59.4375,213.5625,-40.25,-1.11,-0.01,-0.01
1455212239516184091,1298,0,/imu_data_acquisition2,43573.0,-0.0267333984375,-0.146362304688,0.843627929688,0.515930175781,70.25,245.9375,-48.0,-7.35,-14.15,39.99
1455212239526010036,1299,0,/imu_data_acquisition2,43581.0,-0.03271484375,-0.133544921875,0.842651367188,0.520629882812,91.75,147.0,-38.75,-9.87,0.88,32.39
1455212239535269021,1300,0,/imu_data_acquisition2,43592.0,-0.031982421875,-0.123840332031,0.843200683594,0.522216796875,102.6875,54.6875,-9.625,-2.27,1.68,18.35
1455212239547662019,1301,0,/imu_data_acquisition2,43605.0,-0.0283203125,-0.115478515625,0.844055175781,0.522888183594,107.6875,-0.0625,-0.0625,1.49,-4.6,15.66
1455212239554184913,1302,0,/imu_data_acquisition2,43612.0,-0.0250244140625,-0.109008789062,0.844665527344,0.5234375,86.0625,7.5625,-4.3125,2.89,-1.72,6.78
1455212239567202091,1303,0,/imu_data_acquisition2,43622.0,-0.0235595703125,-0.102233886719,0.845092773438,0.524291992188,77.375,28.3125,-5.625,0.18,-1.15,12.25
1455212239574667930,1304,0,/imu_data_acquisition2,43632.0,-0.007568359375,-6.103515625e-05,-6.103515625e-05,0.524719238281,69.25,38.125,-0.5625,-1.07,-0.71,13.72
1455212239583967924,1305,0,/imu_data_acquisition2,43641.0,-0.0225219726562,-0.0899658203125,0.846130371094,0.524841308594,61.125,28.5,2.75,-0.48,-0.57,12.9
1455212239595828056,1306,0,/imu_data_acquisition2,43653.0,-0.0213012695312,-0.0850830078125,0.846618652344,0.52490234375,57.0,17.75,2.375,0.86,-1.46,9.27
1455212239605592966,1307,0,/imu_data_acquisition2,43662.0,-0.0201416015625,-0.0803833007812,0.847045898438,0.525024414062,54.8125,17.0625,1.875,0.84,-2.17,8.99
1455212239614789962,1308,0,/imu_data_acquisition2,43672.0,-0.0191650390625,-0.0755004882812,0.847473144531,0.525085449219,55.375,20.625,2.375,0.89,-2.17,9.4
1455212239625427961,1309,0,/imu_data_acquisition2,43683.0,-0.0181884765625,-0.0701904296875,0.847900390625,0.525146484375,59.5625,23.3125,1.875,0.24,-0.62,10.11
1455212239634366989,1310,0,/imu_data_acquisition2,43691.0,-0.0172119140625,-0.0647583007812,0.848266601562,0.525329589844,61.125,-0.0625,-0.0625,-0.15,0.69,11.7
1455212239645875930,1311,0,/imu_data_acquisition2,43704.0,-0.0167236328125,-0.06005859375,0.8486328125,0.525329589844,50.4375,24.125,2.4375,-0.2,1.02,10.82
1455212239656440973,1312,0,/imu_data_acquisition2,43714.0,-0.0162963867188,-0.056396484375,0.848999023438,0.525146484375,39.5625,18.0625,4.25,0.56,-0.69,9.57
1455212239664248943,1313,0,/imu_data_acquisition2,43721.0,-0.01611328125,-0.0530395507812,0.849304199219,0.525024414062,35.0625,18.9375,3.8125,0.58,-1.03,9.58
1455212239674680948,1314,0,/imu_data_acquisition2,43732.0,-0.01611328125,-0.0496215820312,0.849548339844,0.524963378906,34.1875,21.0,2.9375,0.4,-0.76,10.18
1455212239686794996,1315,0,/imu_data_acquisition2,43744.0,-0.0162963867188,-0.04638671875,0.849731445312,0.52490234375,31.9375,21.9375,2.75,-0.29,-0.01,10.95
1455212239693567991,1316,0,/imu_data_acquisition2,43751.0,-6.103515625e-05,-6.103515625e-05,-6.103515625e-05,0.524719238281,26.1875,17.875,3.75,0.04,-0.01,-0.01
1455212239706321954,1317,0,/imu_data_acquisition2,43764.0,-0.0164794921875,-0.04150390625,0.850219726562,0.524536132812,21.5,13.9375,3.5,0.2,-0.01,-0.01
1455212239716655015,1318,0,/imu_data_acquisition2,43772.0,-0.0166015625,-0.0396728515625,0.850402832031,0.5244140625,18.125,12.0625,3.125,0.3,-0.39,10.27
