%time,field.header.seq,field.header.stamp,field.header.frame_id,field.time_stamp,field.quat_x,field.quat_y,field.quat_z,field.quat_w,field.gyro_x,field.gyro_y,field.gyro_z,field.accel_x,field.accel_y,field.accel_z
1455211612571368932,1584,0,/imu_data_acquisition2,166716.0,-0.002685546875,-0.0227661132812,0.841247558594,0.540161132812,4.1875,3.25,1.5625,-0.01,-0.71,9.9
1455211612574943065,1585,0,/imu_data_acquisition2,166726.0,-6.103515625e-05,-6.103515625e-05,-6.103515625e-05,0.5400390625,4.6875,3.6875,1.875,0.04,-0.63,10.12
1455211612581013917,1586,0,/imu_data_acquisition2,166733.0,-0.00274658203125,-0.021728515625,0.841430664062,0.539916992188,5.125,3.8125,1.9375,0.04,-0.01,-0.01
1455211612591180086,1587,0,/imu_data_acquisition2,166743.0,-0.0028076171875,-0.021240234375,0.841552734375,0.539733886719,4.75,3.8125,2.0,0.06,-0.68,10.01
1455211612601839065,1588,0,/imu_data_acquisition2,166754.0,-0.00286865234375,-0.0206909179688,0.841674804688,0.539611816406,4.6875,3.5625,2.0,0.15,-0.66,-0.01
1455211612616885900,1589,0,/imu_data_acquisition2,166768.0,-0.0029296875,-0.0202026367188,0.841735839844,0.539489746094,4.3125,3.4375,1.875,-0.09,-0.69,10.17
1455211612624706983,1590,0,/imu_data_acquisition2,166777.0,-0.00311279296875,-0.0198364257812,0.841857910156,0.539367675781,4.3125,3.4375,1.875,0.0,-0.54,10.32
1455211612634468078,1591,0,/imu_data_acquisition2,166785.0,-0.003173828125,-0.0194091796875,0.841918945312,0.539245605469,4.3125,3.1875,2.0,0.0,-0.54,10.32
1455211612641437053,1592,0,/imu_data_acquisition2,166793.0,-0.0032958984375,-0.01904296875,0.841979980469,0.539123535156,3.9375,2.875,1.5625,0.21,-0.59,9.97
1455211612653301000,1593,0,/imu_data_acquisition2,166805.0,-0.00335693359375,-0.0187377929688,0.842102050781,0.539001464844,3.5625,2.375,1.75,0.02,-0.01,-0.01
1455211612665756940,1594,0,/imu_data_acquisition2,166816.0,-0.00341796875,-0.0185546875,0.842163085938,0.538879394531,2.8125,1.8125,1.375,0.08,-0.59,10.06
1455211612675991058,1595,0,/imu_data_acquisition2,166828.0,-0.00347900390625,-0.0183715820312,0.842224121094,0.538818359375,2.3125,1.8125,1.375,0.07,-0.51,10.23
1455211612685434103,1596,0,/imu_data_acquisition2,166836.0,-0.00347900390625,-0.0182495117188,0.84228515625,0.538757324219,1.5625,1.0625,1.0,0.07,-0.51,10.23
1455211612694087028,1597,0,/imu_data_acquisition2,166846.0,-0.00360107421875,-0.0181884765625,0.84228515625,0.538696289062,1.0,0.9375,0.6875,0.0,-0.53,10.23
1455211612706528902,1598,0,/imu_data_acquisition2,166857.0,-6.103515625e-05,-6.103515625e-05,-6.103515625e-05,0.538696289062,0.4375,0.75,0.375,0.31,-0.59,9.94
1455211612717197895,1599,0,/imu_data_acquisition2,166867.0,-0.0037841796875,-0.0181884765625,0.84228515625,0.538696289062,-0.125,0.625,0.125,0.09,-0.58,10.23
1455211612724497079,1600,0,/imu_data_acquisition2,166877.0,-0.00384521484375,-0.018310546875,0.84228515625,0.538696289062,-0.6875,0.25,0.25,0.2,-0.53,10.34
1455211612738305091,1601,0,/imu_data_acquisition2,166884.0,-0.00390625,-0.0184326171875,0.84228515625,0.538696289062,-0.6875,0.0625,0.1875,0.2,-0.53,10.34
1455211612747400999,1602,0,/imu_data_acquisition2,166898.0,-0.00396728515625,-0.0186157226562,0.84228515625,0.538696289062,-1.0,0.4375,-0.0625,-0.11,-0.58,10.32
1455211612755439043,1603,0,/imu_data_acquisition2,166907.0,-0.00408935546875,-0.0187377929688,0.84228515625,0.538696289062,-1.0625,0.25,0.0,0.27,-0.64,10.07
1455211612766720056,1604,0,/imu_data_acquisition2,166916.0,-0.004150390625,-0.0188598632812,0.84228515625,0.538696289062,-1.0625,0.25,0.0,0.27,-0.64,10.07
1455211612775796890,1605,0,/imu_data_acquisition2,166927.0,-0.0042724609375,-0.01904296875,0.84228515625,0.538696289062,-1.125,0.5,-0.0625,0.15,-0.65,10.23
1455211612783842086,1606,0,/imu_data_acquisition2,166935.0,-0.00445556640625,-0.0191650390625,0.84228515625,0.538696289062,-1.0,0.8125,0.0,0.15,-0.65,10.23
1455211612796319961,1607,0,/imu_data_acquisition2,166944.0,-0.00457763671875,-6.103515625e-05,-6.103515625e-05,0.538696289062,-1.375,0.375,0.0625,0.31,-0.68,10.04
1455211612805569887,1608,0,/imu_data_acquisition2,166957.0,-0.00469970703125,-0.0197143554688,0.84228515625,0.538696289062,-1.3125,0.625,-0.3125,0.65,-0.62,9.93
1455211612816019058,1609,0,/imu_data_acquisition2,166968.0,-6.103515625e-05,-6.103515625e-05,-6.103515625e-05,0.538696289062,-1.5,0.4375,-0.0625,0.65,-0.62,9.93
1455211612824963092,1610,0,/imu_data_acquisition2,166977.0,-0.0048828125,-6.103515625e-05,-6.103515625e-05,0.538696289062,-1.4375,0.875,-0.0625,-0.02,-0.75,10.15
1455211612834407091,1611,0,/imu_data_acquisition2,166985.0,-0.00494384765625,-0.0199584960938,0.84228515625,0.538696289062,-1.4375,0.5,0.0625,0.12,-0.62,10.16
1455211612842528104,1612,0,/imu_data_acquisition2,166994.0,-0.005126953125,-0.0202026367188,0.84228515625,0.538696289062,-1.5,1.125,0.0625,0.31,-0.7,10.21
1455211612851908922,1613,0,/imu_data_acquisition2,167004.0,-0.0052490234375,-0.0203857421875,0.842224121094,0.538696289062,-1.625,0.625,0.0625,0.25,-0.65,10.1
1455211612866425037,1614,0,/imu_data_acquisition2,167017.0,-0.00543212890625,-0.0206298828125,0.842224121094,0.538696289062,-1.6875,0.625,0.0625,0.16,-0.63,10.12
1455211612876955032,1615,0,/imu_data_acquisition2,167027.0,-0.005615234375,-0.0208740234375,0.842224121094,0.538696289062,-1.9375,0.875,0.0,0.2,-0.73,10.01
1455211612883095979,1616,0,/imu_data_acquisition2,167035.0,-0.00579833984375,-0.0211791992188,0.842224121094,0.538696289062,-2.0,0.8125,0.0625,0.34,-0.74,9.98
1455211612893873929,1617,0,/imu_data_acquisition2,167044.0,-0.0059814453125,-0.0213623046875,0.842224121094,0.538696289062,-1.9375,1.125,-0.25,0.12,-0.69,-0.01
1455211612903733968,1618,0,/imu_data_acquisition2,167054.0,-0.00616455078125,-0.0216064453125,0.842224121094,0.538696289062,-1.875,0.6875,-0.1875,0.23,-0.75,9.96
1455211612915657997,1619,0,/imu_data_acquisition2,167067.0,-0.00634765625,-0.0219116210938,0.842224121094,0.538696289062,-1.875,0.8125,-0.1875,0.37,-0.66,9.88
1455211612924618005,1620,0,/imu_data_acquisition2,167075.0,-0.0064697265625,-0.0221557617188,0.842224121094,0.538635253906,-1.5,0.3125,-0.125,0.37,-0.66,9.88
1455211612933130979,1621,0,/imu_data_acquisition2,167085.0,-0.006591796875,-0.0223388671875,0.842224121094,0.538635253906,-1.3125,1.0,-0.25,0.09,-0.68,10.1
1455211612946050882,1622,0,/imu_data_acquisition2,167098.0,-0.00665283203125,-0.0225830078125,0.842163085938,0.538635253906,-1.1875,0.5625,-0.0625,0.1,-0.72,10.21
1455211612955523967,1623,0,/imu_data_acquisition2,167105.0,-0.0068359375,-0.0227661132812,0.842163085938,0.538635253906,-0.9375,0.9375,-0.125,0.1,-0.72,10.21
1455211612965965032,1624,0,/imu_data_acquisition2,167117.0,-6.103515625e-05,-6.103515625e-05,-6.103515625e-05,0.538635253906,-0.75,0.8125,-0.1875,0.3,-0.73,9.91
1455211612978986024,1625,0,/imu_data_acquisition2,167128.0,-0.00714111328125,-0.0230102539062,0.842163085938,0.538635253906,-0.625,1.375,-0.0625,0.44,-0.79,10.08
1455211612981314897,1626,0,/imu_data_acquisition2,167133.0,-0.00726318359375,-0.0230712890625,0.842163085938,0.538635253906,-0.25,1.5625,0.25,0.44,-0.79,10.08
1455211612992846012,1627,0,/imu_data_acquisition2,167145.0,-0.00738525390625,-0.0231323242188,0.842163085938,0.538696289062,-0.25,1.75,0.25,0.2,-0.65,10.04
1455211613004300117,1628,0,/imu_data_acquisition2,167155.0,-0.007568359375,-0.0232543945312,0.842163085938,0.538696289062,0.375,1.875,0.5,0.19,-0.86,9.87
1455211613016292095,1629,0,/imu_data_acquisition2,167166.0,-0.0078125,-0.023193359375,0.842224121094,0.538635253906,-0.3125,1.9375,0.75,-0.24,-0.61,9.83
1455211613030092954,1630,0,/imu_data_acquisition2,167178.0,-0.00799560546875,-0.02294921875,0.842224121094,0.538635253906,1.4375,3.5,0.4375,0.05,-1.05,12.46
1455211613035600900,1631,0,/imu_data_acquisition2,167185.0,-0.00823974609375,-0.0227661132812,0.842224121094,0.538635253906,0.5,3.375,0.4375,0.05,-1.05,12.46
1455211613041412115,1632,0,/imu_data_acquisition2,167193.0,-0.00848388671875,-0.00714111328125,-6.103515625e-05,0.538635253906,-1.625,2.8125,0.125,0.7,-1.78,10.0
1455211613054761886,1633,0,/imu_data_acquisition2,167207.0,-0.00872802734375,-0.022705078125,0.842163085938,0.538635253906,-1.0625,2.625,0.0,-0.03,-0.84,-0.01
1455211613066323041,1634,0,/imu_data_acquisition2,167218.0,-0.00897216796875,-0.0224609375,0.842224121094,0.53857421875,0.8125,3.625,0.8125,-0.14,-0.41,10.58
1455211613073196887,1635,0,/imu_data_acquisition2,167225.0,-0.0091552734375,-0.0222778320312,0.84228515625,0.538513183594,0.75,3.3125,1.0,0.39,-0.47,9.35
1455211613083373069,1636,0,/imu_data_acquisition2,167235.0,-0.00946044921875,-0.0221557617188,0.84228515625,0.538452148438,-0.6875,3.625,0.6875,0.55,-0.53,9.08
1455211613094161033,1637,0,/imu_data_acquisition2,167245.0,-0.00982666015625,-0.0220336914062,0.84228515625,0.538513183594,-1.375,4.6875,0.0625,-0.05,-0.88,10.35
1455211613101396083,1638,0,/imu_data_acquisition2,167253.0,-0.01025390625,-0.0219116210938,0.84228515625,0.538513183594,-1.625,4.9375,0.1875,0.12,-0.01,-0.01
1455211613116451978,1639,0,/imu_data_acquisition2,167268.0,-0.0106811523438,-0.0218505859375,0.84228515625,0.538513183594,-1.8125,4.25,-0.0625,0.31,-1.06,10.06
1455211613125710010,1640,0,/imu_data_acquisition2,167277.0,-0.0110473632812,-0.0217895507812,0.84228515625,0.538513183594,-1.5,4.125,-0.0625,0.35,-0.99,10.02
1455211613132698059,1641,0,/imu_data_acquisition2,167283.0,-0.0114135742188,-0.0216674804688,0.84228515625,0.538513183594,-0.9375,4.4375,-0.25,-0.01,-0.76,9.79
1455211613144371032,1642,0,/imu_data_acquisition2,167295.0,-0.0117797851562,-0.005859375,-6.103515625e-05,0.538513183594,-0.75,5.1875,0.1875,0.0,-0.8,-0.01
1455211613154922008,1643,0,/imu_data_acquisition2,167305.0,-0.0123291015625,-0.0215454101562,0.842224121094,0.538513183594,-1.1875,5.375,0.0,0.07,-0.96,10.16
1455211613163741111,1644,0,/imu_data_acquisition2,167314.0,-0.0128173828125,-0.00616455078125,-6.103515625e-05,0.538513183594,-1.5,4.8125,-0.4375,0.37,-0.9,10.13
1455211613178212881,1645,0,/imu_data_acquisition2,167328.0,-0.0132446289062,-0.021728515625,0.842163085938,0.53857421875,-2.1875,4.625,-0.875,0.12,-0.93,10.46
1455211613184345960,1646,0,/imu_data_acquisition2,167335.0,-0.013671875,-0.021728515625,0.842102050781,0.538696289062,-2.8125,4.375,-1.0,0.15,-0.68,9.86
1455211613191310882,1647,0,/imu_data_acquisition2,167343.0,-0.01416015625,-0.021728515625,0.842041015625,0.538757324219,-3.125,5.0,-1.125,0.2,-0.36,10.0
1455211613203471899,1648,0,/imu_data_acquisition2,167354.0,-0.0147705078125,-0.021728515625,0.841979980469,0.538879394531,-3.75,5.9375,-1.5625,0.07,-0.58,10.31
1455211613216078996,1649,0,/imu_data_acquisition2,167368.0,-0.0154418945312,-0.0217895507812,0.841857910156,0.539001464844,-5.0625,6.375,-1.9375,0.53,-0.68,9.99
1455211613223903894,1650,0,/imu_data_acquisition2,167373.0,-0.0162353515625,-0.02197265625,0.841674804688,0.539245605469,-6.5,6.875,-3.0,0.3,-0.8,10.21
1455211613233711957,1651,0,/imu_data_acquisition2,167385.0,-0.0171508789062,-0.0221557617188,0.841491699219,0.539489746094,-7.875,7.8125,-3.625,0.46,-0.77,10.0
1455211613244025945,1652,0,/imu_data_acquisition2,167395.0,-0.0181884765625,-0.0223999023438,0.841247558594,0.539855957031,-9.1875,8.6875,-4.625,0.5,-0.01,-0.01
1455211613254231929,1653,0,/imu_data_acquisition2,167403.0,-0.0194091796875,-0.022705078125,0.840942382812,0.540283203125,-10.875,10.75,-5.625,0.65,-0.68,9.88
1455211613266391992,1654,0,/imu_data_acquisition2,167417.0,-0.0209350585938,-0.0230102539062,0.840637207031,0.540710449219,-12.6875,13.125,-6.4375,0.24,-0.95,9.72
1455211613276402950,1655,0,/imu_data_acquisition2,167428.0,-0.0226440429688,-0.0233764648438,0.840209960938,0.541259765625,-14.1875,15.125,-7.75,0.4,-0.93,10.05
1455211613282221078,1656,0,/imu_data_acquisition2,167433.0,-0.0245361328125,-0.0237426757812,0.839721679688,0.541931152344,-15.5,16.625,-8.9375,0.75,-0.7,9.79
1455211613292819976,1657,0,/imu_data_acquisition2,167445.0,-0.026611328125,-0.0239868164062,0.839233398438,0.542602539062,-15.8125,19.5,-9.375,0.39,-1.16,10.04
1455211613304090976,1658,0,/imu_data_acquisition2,167456.0,-0.0288696289062,-0.0241088867188,0.838623046875,0.543395996094,-15.875,22.0625,-11.5625,0.59,-0.71,10.14
1455211613312700033,1659,0,/imu_data_acquisition2,167463.0,-0.03125,-0.0242309570312,0.837829589844,0.544494628906,-15.9375,23.25,-14.875,0.7,0.15,10.13
1455211613325902938,1660,0,/imu_data_acquisition2,167476.0,-0.0339965820312,-0.0244140625,0.837036132812,0.545593261719,-19.375,26.75,-15.625,0.35,-1.5,9.98
1455211613333986997,1661,0,/imu_data_acquisition2,167485.0,-0.03759765625,-0.0247192382812,0.836181640625,0.546569824219,-26.1875,33.8125,-14.0625,0.11,-0.83,10.37
1455211613343015909,1662,0,/imu_data_acquisition2,167494.0,-0.0402221679688,-0.0255126953125,0.835266113281,0.547790527344,-25.75,36.9375,-16.3125,0.84,-0.78,10.39
1455211613353370904,1663,0,/imu_data_acquisition2,167504.0,-0.0421142578125,-0.02587890625,0.834289550781,0.549133300781,-28.5625,38.75,-0.0625,1.07,0.61,9.47
1455211613364679098,1664,0,/imu_data_acquisition2,167517.0,-0.0471801757812,-0.0262451171875,0.833251953125,0.55029296875,-36.1875,48.875,-16.25,1.26,-1.3,8.77
1455211613381032943,1665,0,/imu_data_acquisition2,167526.0,-0.0530395507812,-0.0255126953125,0.831970214844,0.551696777344,-30.25,63.9375,-19.875,1.13,0.48,9.41
1455211613383936882,1666,0,/imu_data_acquisition2,167534.0,-0.0601806640625,-0.0242309570312,0.830749511719,0.552856445312,-34.0,79.5,-16.8125,1.37,-0.2,8.76
1455211613392757892,1667,0,/imu_data_acquisition2,167544.0,-0.0689697265625,-0.0225830078125,0.829650878906,0.553527832031,-41.0,98.0625,-9.875,1.9,-1.98,8.35
1455211613408427000,1668,0,/imu_data_acquisition2,167556.0,-0.0797729492188,-0.0198974609375,0.828552246094,0.553833007812,-44.3125,125.0625,-5.25,-3.5,-4.13,14.0
1455211613412648916,1669,0,/imu_data_acquisition2,167564.0,-0.0911254882812,-0.0169067382812,0.82666015625,0.555053710938,-44.5,132.625,-18.6875,0.74,0.2,8.63
1455211613421946048,1670,0,/imu_data_acquisition2,167574.0,-0.10302734375,-0.0145263671875,0.824462890625,0.556274414062,-53.5,134.8125,-21.3125,0.3,0.34,10.64
1455211613441694021,1671,0,/imu_data_acquisition2,167585.0,-0.117309570312,-0.0136108398438,0.822875976562,0.555847167969,-86.75,147.4375,-2.625,-0.89,-3.26,9.83
1455211613444077968,1672,0,/imu_data_acquisition2,167594.0,-0.133728027344,-0.0125732421875,0.821350097656,0.554443359375,-99.6875,168.375,7.4375,0.53,1.61,11.69
1455211613452892065,1673,0,/imu_data_acquisition2,167604.0,-0.152893066406,-0.010986328125,0.819885253906,0.551635742188,-115.25,198.8125,22.6875,-1.31,-0.88,11.48
1455211613464468955,1674,0,/imu_data_acquisition2,167615.0,-0.174377441406,-0.00958251953125,0.817687988281,0.548461914062,-132.625,221.125,22.125,-1.03,-1.49,12.02
1455211613472110986,1675,0,/imu_data_acquisition2,167623.0,-0.197265625,-0.0079345703125,0.815246582031,0.54443359375,-141.0625,237.0625,28.875,-1.89,-0.83,13.79
1455211613484015941,1676,0,/imu_data_acquisition2,167636.0,-0.220581054688,-0.0059814453125,-6.103515625e-05,0.538757324219,-145.4375,242.5,-0.0625,-2.63,-2.27,11.48
1455211613494360923,1677,0,/imu_data_acquisition2,167643.0,-0.244689941406,-0.00390625,0.810913085938,0.531555175781,-152.0,250.375,63.0,-3.8,-2.05,13.58
1455211613504256963,1678,0,/imu_data_acquisition2,167655.0,-0.268798828125,-0.00189208984375,0.80908203125,0.522644042969,-158.4375,249.0625,80.9375,-3.61,-1.83,13.87
1455211613515454053,1679,0,/imu_data_acquisition2,167667.0,-0.291870117188,-0.00091552734375,0.80810546875,0.511596679688,-168.875,230.125,103.6875,-3.58,-2.75,12.91
1455211613521337985,1680,0,/imu_data_acquisition2,167673.0,-0.313537597656,-0.0008544921875,0.808044433594,0.498779296875,-175.1875,207.0625,122.625,-0.58,-8.25,13.54
1455211613534879922,1681,0,/imu_data_acquisition2,167685.0,-0.332214355469,-0.000732421875,0.808349609375,0.485961914062,-156.375,178.4375,-0.0625,4.7,-13.09,18.3
1455211613545202016,1682,0,/imu_data_acquisition2,167695.0,-0.346862792969,-0.000244140625,0.808044433594,0.476196289062,-118.25,144.1875,94.0625,9.61,-17.37,22.0
1455211613551608085,1683,0,/imu_data_acquisition2,167703.0,-0.354614257812,0.000732421875,0.805419921875,0.474914550781,-39.5,90.6875,1.25,8.9,-0.27,14.68
1455211613565031051,1684,0,/imu_data_acquisition2,167716.0,-0.353454589844,0.0013427734375,0.801513671875,0.482299804688,43.1875,8.5625,-90.0,8.26,5.51,8.7
1455211613621161937,1685,0,/imu_data_acquisition2,167725.0,-0.349304199219,0.00048828125,0.798461914062,0.490295410156,49.1875,-32.125,-96.625,7.71,6.88,7.14
1455211613670875072,1686,0,/imu_data_acquisition2,167733.0,-0.344665527344,-0.00067138671875,0.797058105469,0.495849609375,38.6875,-44.5625,-65.1875,7.3,5.45,8.89
1455211613672640085,1687,0,/imu_data_acquisition2,167745.0,-0.339111328125,-0.0008544921875,0.79736328125,0.499206542969,44.75,-54.5,-30.5625,5.12,1.45,15.89
1455211613674206018,1688,0,/imu_data_acquisition2,167755.0,-0.330993652344,-0.000244140625,0.79931640625,0.501525878906,63.4375,-81.0,-8.125,4.26,0.53,15.67
1455211613675705909,1689,0,/imu_data_acquisition2,167763.0,-0.3193359375,0.00042724609375,0.802795410156,0.503540039062,82.9375,-119.75,4.25,3.47,-0.08,12.97
1455211613677216053,1690,0,/imu_data_acquisition2,167774.0,-0.304992675781,0.0009765625,0.807495117188,0.5048828125,96.0625,-150.5,17.5,1.3,-2.69,8.9
1455211613678556919,1691,0,/imu_data_acquisition2,167783.0,-0.28955078125,0.00164794921875,0.813049316406,0.505065917969,99.125,-164.4375,33.875,0.06,-5.17,8.88
1455211613683430910,1692,0,/imu_data_acquisition2,167793.0,-0.273986816406,0.0018310546875,0.819091796875,0.504028320312,91.4375,-169.0625,47.0,-1.05,-8.0,9.28
1455211613685636997,1693,0,/imu_data_acquisition2,167803.0,-0.258666992188,0.0009765625,-6.103515625e-05,0.50244140625,77.625,-172.8125,48.5,-2.56,-11.88,8.1
1455211613687118053,1694,0,/imu_data_acquisition2,167813.0,-0.24365234375,-0.00115966796875,0.830383300781,0.501159667969,64.0625,-175.6875,37.8125,-3.08,-12.51,6.87
1455211613688457012,1695,0,/imu_data_acquisition2,167823.0,-0.229309082031,-0.0045166015625,0.834716796875,0.500671386719,51.1875,-173.625,20.8125,-3.55,-12.46,6.05
1455211613689970016,1696,0,/imu_data_acquisition2,167833.0,-0.216064453125,-0.00885009765625,0.838012695312,0.5009765625,36.5,-165.375,3.3125,-3.98,-12.29,5.71
1455211613692284107,1697,0,/imu_data_acquisition2,167843.0,-6.103515625e-05,-6.103515625e-05,-6.103515625e-05,0.502075195312,20.625,-153.5625,-12.375,-4.68,-11.93,6.07
1455211613702461004,1698,0,/imu_data_acquisition2,167853.0,-0.193969726562,-0.02001953125,0.841430664062,0.50390625,7.125,-12.25,-0.0625,-4.97,-11.45,7.04
1455211613711671113,1699,0,/imu_data_acquisition2,167864.0,-0.18505859375,-0.0263671875,0.841735839844,0.506469726562,-3.6875,-126.5625,-40.1875,-5.26,-10.58,7.7
1455211613724049091,1700,0,/imu_data_acquisition2,167875.0,-0.177307128906,-0.0330810546875,0.841247558594,0.509643554688,-13.375,-115.5,-51.8125,-5.4,-8.98,8.35
1455211613735215902,1701,0,/imu_data_acquisition2,167884.0,-0.170532226562,-0.0401000976562,0.840087890625,0.513366699219,-22.0,-105.75,-61.5,-5.33,-8.04,8.7
1455211613743628978,1702,0,/imu_data_acquisition2,167895.0,-0.164672851562,-0.0472412109375,0.838317871094,0.517578125,-27.5,-96.25,-69.3125,-5.15,-6.8,9.05
1455211613754117965,1703,0,/imu_data_acquisition2,167905.0,-0.159484863281,-0.0542602539062,0.836181640625,0.52197265625,-31.0,-7.8125,-0.0625,-4.53,-4.37,10.2
1455211613766361951,1704,0,/imu_data_acquisition2,167914.0,-0.154846191406,-0.0612182617188,0.833862304688,0.526306152344,-33.0625,-82.0625,-73.125,-4.09,-3.22,10.44
1455211613774277925,1705,0,/imu_data_acquisition2,167925.0,-0.150329589844,-0.0679931640625,0.831665039062,0.530151367188,-33.5625,-79.8125,-67.5625,-3.65,-2.34,-0.01
1455211613781234025,1706,0,/imu_data_acquisition2,167933.0,-0.145874023438,-0.0745849609375,0.829895019531,0.533264160156,-32.75,-79.5,-56.875,-2.74,-1.51,10.58
1455211613793255090,1707,0,/imu_data_acquisition2,167944.0,-0.141357421875,-0.0809326171875,0.828735351562,0.535400390625,-31.125,-80.875,-43.3125,-2.31,-1.47,10.59
1455211613805213928,1708,0,/imu_data_acquisition2,167955.0,-0.136657714844,-0.087158203125,0.828186035156,0.536499023438,-29.6875,-82.9375,-28.875,-1.94,-1.56,10.45
1455211613811546087,1709,0,/imu_data_acquisition2,167964.0,-0.131896972656,-0.09326171875,0.828247070312,0.536560058594,-29.125,-86.0,-15.3125,-1.58,-1.86,10.01
1455211613827336072,1710,0,/imu_data_acquisition2,167974.0,-0.126892089844,-0.099365234375,0.828796386719,0.535827636719,-28.75,-89.25,-3.8125,-1.0,-2.31,9.46
1455211613835885047,1711,0,/imu_data_acquisition2,167985.0,-0.121765136719,-0.105407714844,0.829711914062,0.534423828125,-27.875,-91.5625,4.375,-0.77,-2.44,9.18
1455211613841922998,1712,0,/imu_data_acquisition2,167994.0,-0.116577148438,-0.111389160156,0.830871582031,0.532592773438,-27.5,-12.75,-0.0625,-0.54,-2.53,-0.01
1455211613859435081,1713,0,/imu_data_acquisition2,168004.0,-0.111450195312,-0.117431640625,0.832092285156,0.530517578125,-27.5625,-93.125,12.875,-0.25,-2.58,8.74
1455211613863876104,1714,0,/imu_data_acquisition2,168014.0,-0.106384277344,-0.123352050781,0.833251953125,0.528381347656,-27.6875,-91.5,13.625,-0.19,-2.68,9.18
1455211613871773958,1715,0,/imu_data_acquisition2,168024.0,-0.101501464844,-0.129150390625,0.834289550781,0.526245117188,-28.25,-89.3125,12.875,-0.17,-2.85,9.8
1455211613883384943,1716,0,/imu_data_acquisition2,168034.0,-0.0966186523438,-0.135009765625,0.835205078125,0.524291992188,-28.5625,-88.3125,10.4375,-0.17,-3.17,10.67
1455211613896868944,1717,0,/imu_data_acquisition2,168044.0,-0.0131225585938,-6.103515625e-05,-6.103515625e-05,0.523132324219,-24.75,-91.5625,-1.25,-0.25,-3.22,10.81
1455211613901778936,1718,0,/imu_data_acquisition2,168053.0,-6.103515625e-05,-6.103515625e-05,-6.103515625e-05,0.521911621094,-24.75,-91.5625,-1.25,-0.27,-3.17,10.76
1455211613913867950,1719,0,/imu_data_acquisition2,168064.0,-0.0800170898438,-0.152221679688,0.8359375,0.521240234375,-19.5,-93.6875,-9.0,-0.35,-3.01,10.49
1455211613924932003,1720,0,/imu_data_acquisition2,168075.0,-0.0733032226562,-0.157043457031,0.83544921875,0.521545410156,-7.0,-95.25,-22.875,-0.48,-2.66,10.04
1455211613933906078,1721,0,/imu_data_acquisition2,168086.0,-0.0662841796875,-0.161315917969,0.834716796875,0.522277832031,-0.5,-93.6875,-28.375,-0.62,-2.6,10.07
1455211613945136070,1722,0,/imu_data_acquisition2,168096.0,-0.0591430664062,-0.165100097656,0.833801269531,0.5234375,6.4375,-90.9375,-33.625,-0.75,-2.59,10.1
1455211613952800035,1723,0,/imu_data_acquisition2,168104.0,-0.0048828125,-6.103515625e-05,-6.103515625e-05,0.524963378906,14.5625,-87.5625,-38.375,-1.13,-2.76,10.14
1455211613962635993,1724,0,/imu_data_acquisition2,168114.0,-0.0442504882812,-0.170349121094,0.831481933594,0.526916503906,23.5,-83.25,-43.125,-1.33,-2.8,10.14
1455211613974622011,1725,0,/imu_data_acquisition2,168125.0,-0.03662109375,-0.171630859375,0.830139160156,0.529235839844,33.6875,-78.0,-47.25,-1.51,-3.04,10.32
1455211613982955932,1726,0,/imu_data_acquisition2,168134.0,-0.0131225585938,-6.103515625e-05,-6.103515625e-05,0.531860351562,43.9375,-73.25,-50.9375,-2.13,-2.9,10.9
1455211613993077993,1727,0,/imu_data_acquisition2,168144.0,-0.0208129882812,-0.17138671875,0.827209472656,0.53466796875,53.4375,-67.875,-53.0,-2.73,-2.76,11.27
1455211614004172086,1728,0,/imu_data_acquisition2,168155.0,-0.0128173828125,-0.170043945312,0.825805664062,0.537536621094,61.5625,-63.8125,-52.875,-3.14,-2.8,11.46
1455211614012376070,1729,0,/imu_data_acquisition2,168164.0,-0.0047607421875,-0.168090820312,0.824462890625,0.540344238281,68.0,-60.375,-51.25,-4.35,-2.61,11.9
1455211614023737907,1730,0,/imu_data_acquisition2,168175.0,0.003173828125,-0.165649414062,0.823364257812,0.542785644531,72.375,-56.9375,-47.1875,-4.94,-2.46,11.96
1455211614035845041,1731,0,/imu_data_acquisition2,168186.0,0.0108642578125,-0.1630859375,0.822448730469,0.544860839844,72.8125,-54.3125,-41.0,-5.72,-2.29,11.93
1455211614043405055,1732,0,/imu_data_acquisition2,168194.0,0.0181884765625,-0.160705566406,0.821838378906,0.546325683594,69.1875,-53.625,-32.4375,-6.53,-2.19,11.63
1455211614054152965,1733,0,/imu_data_acquisition2,168205.0,0.0250854492188,-0.158752441406,0.821533203125,0.546997070312,62.75,-52.9375,-22.0,-8.62,-1.81,10.57
1455211614065009117,1734,0,/imu_data_acquisition2,168214.0,0.0250854492188,-0.158752441406,0.821533203125,0.546997070312,53.75,-53.0625,-8.0625,-10.02,-1.09,10.04
1455211614073461055,1735,0,/imu_data_acquisition2,168225.0,0.0368041992188,-0.157348632812,0.82275390625,0.544982910156,38.75,-55.0,13.0625,-12.08,0.62,9.94
1455211614084903955,1736,0,/imu_data_acquisition2,168236.0,0.0406494140625,-0.159423828125,0.82470703125,0.541137695312,9.5625,-57.5625,43.5625,-15.45,3.57,5.08
1455211614093137979,1737,0,/imu_data_acquisition2,168244.0,0.0406494140625,-0.159423828125,0.82470703125,0.541137695312,-29.625,-47.9375,73.4375,-15.19,2.23,0.96
1455211614103327035,1738,0,/imu_data_acquisition2,168255.0,0.0392456054688,-0.169128417969,0.83056640625,0.529174804688,-56.75,-19.8125,88.5,-13.85,-1.59,-2.74
1455211614114017009,1739,0,/imu_data_acquisition2,168265.0,0.0345458984375,-0.170837402344,0.833557128906,0.524230957031,-37.875,26.75,77.0625,-7.79,-11.9,-3.74
1455211614124718904,1740,0,/imu_data_acquisition2,168274.0,0.0345458984375,-0.170837402344,0.833557128906,0.524230957031,39.1875,66.5625,26.6875,6.44,-15.79,1.28
1455211614135670900,1741,0,/imu_data_acquisition2,168285.0,0.0303955078125,-0.153869628906,0.836181640625,0.525573730469,107.125,82.9375,-21.4375,11.45,-5.87,16.48
1455211614144198894,1742,0,/imu_data_acquisition2,168295.0,0.0303955078125,-0.153869628906,0.836181640625,0.525573730469,81.6875,100.0625,-28.9375,12.03,-9.65,13.88
1455211614156712055,1743,0,/imu_data_acquisition2,168306.0,0.0223999023438,-0.130737304688,0.83544921875,0.533325195312,93.875,137.125,-46.375,0.99,-0.63,-5.36
1455211614164331912,1744,0,/imu_data_acquisition2,168315.0,0.0144653320312,-0.00616455078125,-6.103515625e-05,0.538818359375,96.8125,182.875,-52.8125,0.0,1.06,-4.6
1455211614175077915,1745,0,/imu_data_acquisition2,168325.0,0.0144653320312,-0.115539550781,0.834350585938,0.538818359375,106.5,217.0,-54.875,0.0,-0.01,-0.01
1455211614182404994,1746,0,/imu_data_acquisition2,168334.0,-0.00323486328125,-0.078125,0.831359863281,0.550231933594,144.5,211.9375,-58.6875,-3.86,1.21,30.76
1455211614191925048,1747,0,/imu_data_acquisition2,168344.0,-0.00323486328125,-0.078125,0.831359863281,0.550231933594,161.1875,150.3125,-37.625,-6.14,5.77,28.75
1455211614205187082,1748,0,/imu_data_acquisition2,168355.0,-0.00421142578125,-0.0452270507812,0.830932617188,0.554504394531,156.0,78.0625,-0.0625,-4.98,4.06,23.08
1455211614212002992,1749,0,/imu_data_acquisition2,168364.0,-0.00421142578125,-0.0452270507812,0.830932617188,0.554504394531,136.8125,32.5,0.9375,-1.97,4.79,22.12
1455211614224926948,1750,0,/imu_data_acquisition2,168375.0,-6.103515625e-05,-0.0340576171875,0.831481933594,0.554565429688,65.75,4.625,10.125,0.43,8.03,11.24
1455211614235258102,1751,0,/imu_data_acquisition2,168385.0,0.00262451171875,-0.0292358398438,0.832092285156,0.553833007812,35.25,-0.0625,-0.0625,2.63,5.45,7.78
1455211614242496013,1752,0,/imu_data_acquisition2,168394.0,0.00213623046875,-0.0242919921875,0.83251953125,0.553405761719,10.25,25.875,3.25,-0.82,-0.72,-0.01
1455211614254026889,1753,0,/imu_data_acquisition2,168405.0,0.00128173828125,-0.0238037109375,0.83251953125,0.553466796875,-1.0,11.8125,0.125,-0.59,0.4,13.59
1455211614265103101,1754,0,/imu_data_acquisition2,168415.0,0.00079345703125,-0.0242309570312,0.832397460938,0.553649902344,-7.125,2.125,-2.5625,0.07,1.01,11.67
1455211614272526979,1755,0,/imu_data_acquisition2,168424.0,0.00079345703125,-0.0242309570312,0.832397460938,0.553649902344,-18.0,-1.375,-2.6875,0.42,0.45,10.26
1455211614283751010,1756,0,/imu_data_acquisition2,168436.0,6.103515625e-05,-0.0255737304688,0.832214355469,0.553833007812,-23.625,-2.4375,-4.0625,0.46,-1.16,9.86
1455211614296565055,1757,0,/imu_data_acquisition2,168447.0,-0.00177001953125,-0.029052734375,0.831726074219,0.554443359375,-23.0625,-2.0625,-4.875,0.77,-1.71,9.44
1455211614302237987,1758,0,/imu_data_acquisition2,168454.0,-0.00177001953125,-0.029052734375,0.831726074219,0.554443359375,-23.0625,-2.0625,-4.875,0.87,-1.55,9.58
1455211614313163042,1759,0,/imu_data_acquisition2,168465.0,-0.002685546875,-0.0303955078125,0.831359863281,0.554870605469,-14.5625,1.4375,-5.8125,0.6,-1.39,9.63
1455211614326915979,1760,0,/imu_data_acquisition2,168477.0,-0.00341796875,-0.0313110351562,0.8310546875,0.555297851562,-10.1875,1.375,-5.25,0.77,-1.49,9.55
1455211614332906007,1761,0,/imu_data_acquisition2,168485.0,-0.00396728515625,-0.031982421875,0.830810546875,0.5556640625,-6.125,1.9375,-4.375,0.59,-1.55,9.31
1455211614344176054,1762,0,/imu_data_acquisition2,168494.0,-0.00439453125,-0.0323486328125,0.83056640625,0.555969238281,-0.6875,3.125,-3.3125,0.5,-1.8,9.85
1455211614355998992,1763,0,/imu_data_acquisition2,168504.0,-0.004638671875,-0.0322265625,0.830383300781,0.556213378906,-0.6875,3.125,-3.3125,0.52,-1.31,9.63
1455211614363004922,1764,0,/imu_data_acquisition2,168514.0,-0.00457763671875,-0.0317993164062,0.830322265625,0.556335449219,9.375,2.625,-0.375,0.55,-0.01,-0.01
1455211614374494075,1765,0,/imu_data_acquisition2,168525.0,-0.00433349609375,-0.031005859375,0.830322265625,0.556335449219,11.0,2.625,0.4375,0.52,-0.98,9.92
1455211614384002923,1766,0,/imu_data_acquisition2,168535.0,-0.0040283203125,-0.0144653320312,-6.103515625e-05,0.556396484375,10.6875,2.25,1.0625,0.46,-0.7,10.01
1455211614392283916,1767,0,/imu_data_acquisition2,168544.0,-0.003662109375,-0.0292358398438,0.830444335938,0.556335449219,10.6875,2.25,1.0625,0.62,-0.6,10.1
1455211614405925989,1768,0,/imu_data_acquisition2,168556.0,-0.00341796875,-0.0284423828125,0.830200195312,0.556701660156,7.6875,2.5,0.3125,0.5,-0.41,10.35
1455211614415388107,1769,0,/imu_data_acquisition2,168565.0,-0.00323486328125,-0.02783203125,0.830261230469,0.556701660156,5.75,1.6875,0.25,0.56,-0.49,10.08
1455211614423511028,1770,0,/imu_data_acquisition2,168575.0,-0.0030517578125,-0.02734375,0.830261230469,0.556701660156,4.6875,1.9375,-0.0625,0.6,-0.73,10.35
1455211614434813976,1771,0,/imu_data_acquisition2,168586.0,-0.00299072265625,-0.0269165039062,0.830261230469,0.556701660156,4.1875,2.3125,-0.3125,0.54,-0.79,10.31
1455211614444093942,1772,0,/imu_data_acquisition2,168595.0,-0.0029296875,-0.0264892578125,0.830261230469,0.556701660156,4.1875,2.3125,-0.0625,0.53,-0.01,-0.01
1455211614453434944,1773,0,/imu_data_acquisition2,168605.0,-0.0029296875,-0.0260620117188,0.830017089844,0.557067871094,5.5,3.25,-0.1875,0.75,-0.93,9.98
1455211614464940071,1774,0,/imu_data_acquisition2,168616.0,-0.0029296875,-0.0255126953125,0.830078125,0.557067871094,6.375,3.9375,0.375,0.71,-1.01,9.94
1455211614474123954,1775,0,/imu_data_acquisition2,168625.0,-0.0029296875,-0.0248413085938,0.830078125,0.55712890625,7.6875,4.8125,0.875,0.29,-0.93,10.14
1455211614484417915,1776,0,/imu_data_acquisition2,168636.0,-0.00286865234375,-0.0241088867188,0.830139160156,0.557067871094,8.75,5.875,0.9375,0.34,-0.89,10.11
1455211614494097948,1777,0,/imu_data_acquisition2,168645.0,-0.00286865234375,-0.023193359375,0.830200195312,0.557006835938,8.9375,6.375,0.9375,0.32,-0.82,10.27
1455211614502119064,1778,0,/imu_data_acquisition2,168654.0,-0.0029296875,-0.0222778320312,0.830139160156,0.557067871094,8.9375,6.375,0.9375,0.32,-0.82,10.27
1455211614514445066,1779,0,/imu_data_acquisition2,168665.0,-0.00299072265625,-0.0213623046875,0.830200195312,0.557006835938,6.9375,5.1875,0.3125,0.15,-0.41,10.22
1455211614526329994,1780,0,/imu_data_acquisition2,168676.0,-0.00299072265625,-0.0206298828125,0.830200195312,0.557067871094,4.9375,3.8125,0.0625,0.24,-0.32,10.3
1455211614534370899,1781,0,/imu_data_acquisition2,168686.0,-0.0030517578125,-0.0200805664062,0.830200195312,0.557067871094,2.1875,2.0,-0.4375,0.37,-0.21,10.14
1455211614546235084,1782,0,/imu_data_acquisition2,168697.0,-0.00311279296875,-0.0198364257812,0.830261230469,0.557067871094,-1.0625,0.3125,-0.75,0.46,-0.45,10.04
1455211614553634881,1783,0,/imu_data_acquisition2,168705.0,-0.003173828125,-0.0199584960938,0.829162597656,0.558654785156,-4.0625,-0.9375,-1.4375,0.46,-0.23,9.81
1455211614565056085,1784,0,/imu_data_acquisition2,168716.0,-0.0032958984375,-0.020263671875,0.8291015625,0.558715820312,-7.4375,-1.1875,-1.75,0.41,-1.1,9.77
1455211614576613903,1785,0,/imu_data_acquisition2,168726.0,-0.0035400390625,-0.0208129882812,0.828979492188,0.558837890625,-7.1875,-1.1875,-2.4375,0.88,-0.6,9.38
1455211614583854913,1786,0,/imu_data_acquisition2,168736.0,-0.0037841796875,-0.0214233398438,0.828857421875,0.559020996094,-6.375,0.625,-2.25,0.39,-0.66,9.86
1455211614593522071,1787,0,/imu_data_acquisition2,168744.0,-0.004150390625,-0.0218505859375,0.828735351562,0.559204101562,-6.375,-0.0625,-0.0625,0.71,-0.98,-0.01
1455211614605876922,1788,0,/imu_data_acquisition2,168756.0,-0.00457763671875,-0.0221557617188,0.826904296875,0.561950683594,-5.875,1.6875,-2.125,0.74,-1.06,9.87
1455211614613185882,1789,0,/imu_data_acquisition2,168765.0,-0.0050048828125,-0.0224609375,0.826782226562,0.562072753906,-5.875,1.6875,-2.125,0.56,-0.01,-0.01
1455211614625998973,1790,0,/imu_data_acquisition2,168776.0,-0.00537109375,-0.0226440429688,0.82666015625,0.562194824219,-3.5,1.875,-1.625,0.62,-0.77,9.98
1455211614636441946,1791,0,/imu_data_acquisition2,168787.0,-0.00567626953125,-0.0227661132812,0.826599121094,0.562316894531,-2.9375,2.25,-1.3125,0.63,-0.89,10.5
1455211614643194913,1792,0,/imu_data_acquisition2,168795.0,-0.0059814453125,-0.0228881835938,0.826477050781,0.562438964844,-2.9375,2.25,-1.3125,0.38,-0.71,10.25
1455211614656002998,1793,0,/imu_data_acquisition2,168805.0,-0.0062255859375,-0.0230102539062,0.825744628906,0.5634765625,-3.0,1.8125,-1.0,0.63,-0.64,10.29
1455211614665255069,1794,0,/imu_data_acquisition2,168815.0,-6.103515625e-05,-6.103515625e-05,-6.103515625e-05,0.563537597656,-2.875,1.6875,-0.75,0.53,-0.59,10.28
1455211614673520088,1795,0,/imu_data_acquisition2,168825.0,-0.00677490234375,-0.0232543945312,0.82568359375,0.563598632812,-4.0,1.25,-0.5,0.57,-0.01,-0.01
1455211614685837030,1796,0,/imu_data_acquisition2,168837.0,-0.0069580078125,-0.0239868164062,0.82568359375,0.563598632812,-3.1875,1.125,-0.625,0.5,-1.22,10.21
1455211614693979024,1797,0,/imu_data_acquisition2,168844.0,-0.00714111328125,-0.02490234375,0.825622558594,0.563659667969,-3.1875,1.125,-0.625,0.5,-1.22,10.21
1455211614701714038,1798,0,/imu_data_acquisition2,168853.0,-0.00732421875,-0.0249633789062,0.825622558594,0.563659667969,-1.75,1.3125,-0.4375,0.72,-1.13,10.08
1455211614715255975,1799,0,/imu_data_acquisition2,168866.0,-0.00750732421875,-0.0248413085938,0.825622558594,0.563659667969,1.8125,2.6875,0.3125,0.54,-1.17,10.12
1455211614726263999,1800,0,/imu_data_acquisition2,168876.0,-0.007568359375,-0.0245971679688,0.825622558594,0.563659667969,3.1875,3.3125,0.5,0.59,-1.1,9.83
1455211614733958959,1801,0,/imu_data_acquisition2,168886.0,-0.00762939453125,-0.0242309570312,0.825622558594,0.563659667969,4.5,4.125,1.0625,0.46,-1.11,9.95
1455211614743747949,1802,0,/imu_data_acquisition2,168895.0,-0.00775146484375,-0.0247192382812,0.825622558594,0.563598632812,4.5,4.125,1.0625,0.46,-1.11,9.95
1455211614754952907,1803,0,/imu_data_acquisition2,168905.0,-0.00787353515625,-0.0247802734375,0.82568359375,0.563537597656,5.25,4.375,1.25,0.37,-0.92,10.02
1455211614762954950,1804,0,/imu_data_acquisition2,168914.0,-0.00787353515625,-0.024658203125,0.825744628906,0.563415527344,6.125,5.0625,1.6875,0.55,-0.77,9.86
1455211614775744915,1805,0,/imu_data_acquisition2,168926.0,-0.00787353515625,-0.0244140625,0.825866699219,0.563293457031,6.375,5.5625,1.9375,0.46,-0.82,9.85
1455211614785232067,1806,0,/imu_data_acquisition2,168936.0,-0.00799560546875,-0.023681640625,0.825927734375,0.563171386719,6.375,5.5625,1.9375,0.42,-0.6,10.02
1455211614793831110,1807,0,/imu_data_acquisition2,168945.0,-0.00811767578125,-0.02294921875,0.826049804688,0.563049316406,6.4375,5.6875,2.0,0.42,-0.6,10.02
1455211614801848888,1808,0,/imu_data_acquisition2,168953.0,-0.0081787109375,-0.0222778320312,0.826171875,0.562927246094,6.125,5.5625,2.125,0.38,-0.85,10.17
1455211614814845085,1809,0,/imu_data_acquisition2,168966.0,-0.00830078125,-0.0216064453125,0.826293945312,0.562805175781,5.9375,5.25,2.125,0.41,-0.57,9.97
1455211614825330972,1810,0,/imu_data_acquisition2,168976.0,-0.00836181640625,-0.0211791992188,0.826354980469,0.562622070312,5.625,5.3125,2.125,0.27,-0.68,10.12
1455211614841084957,1811,0,/imu_data_acquisition2,168987.0,-0.00836181640625,-0.020751953125,0.826477050781,0.562561035156,5.3125,4.6875,1.75,0.57,-0.63,9.96
1455211614846875905,1812,0,/imu_data_acquisition2,168996.0,-0.00830078125,-0.0205078125,0.826538085938,0.562438964844,4.5625,3.75,1.625,0.14,-0.71,10.09
1455211614854867935,1813,0,/imu_data_acquisition2,169006.0,-0.00836181640625,-0.0202026367188,0.826599121094,0.562316894531,4.25,3.875,1.5625,0.15,-0.59,10.3
1455211614865571975,1814,0,/imu_data_acquisition2,169014.0,-0.0084228515625,-0.0198974609375,0.82666015625,0.562255859375,3.5625,3.4375,1.3125,0.15,-0.59,10.3
1455211614875658035,1815,0,/imu_data_acquisition2,169027.0,-0.00848388671875,-0.0196533203125,0.826721191406,0.562194824219,2.75,3.0625,1.0625,0.39,-0.61,10.09
1455211614885638952,1816,0,/imu_data_acquisition2,169037.0,-0.008544921875,-0.0194702148438,0.826782226562,0.562072753906,2.75,3.0625,1.0625,0.14,-0.7,10.39
1455211614893265008,1817,0,/imu_data_acquisition2,169043.0,-0.00860595703125,-0.0193481445312,0.826843261719,0.562072753906,2.3125,2.5625,0.9375,0.14,-0.7,10.39
1455211614903949022,1818,0,/imu_data_acquisition2,169055.0,-0.00872802734375,-0.0191650390625,0.826904296875,0.561950683594,2.0625,2.5,0.9375,0.05,-0.61,10.04
1455211614915452003,1819,0,/imu_data_acquisition2,169067.0,-0.0087890625,-0.01904296875,0.826904296875,0.56201171875,1.8125,2.375,0.5,0.3,-0.79,10.2
1455211614926306009,1820,0,/imu_data_acquisition2,169077.0,-0.0087890625,-0.0191040039062,0.826904296875,0.561950683594,1.5,1.625,0.6875,0.24,-0.62,9.94
1455211614935858964,1821,0,/imu_data_acquisition2,169087.0,-0.00885009765625,-0.0191040039062,0.826904296875,0.561950683594,1.3125,1.875,0.3125,0.09,-0.62,10.0
1455211614946562051,1822,0,/imu_data_acquisition2,169095.0,-0.0089111328125,-0.0189819335938,0.826965332031,0.561889648438,1.5625,1.8125,0.75,0.09,-0.62,10.0
1455211614951559066,1823,0,/imu_data_acquisition2,169103.0,-0.009033203125,-0.0189208984375,0.826965332031,0.561828613281,1.8125,2.1875,0.6875,0.03,-0.79,10.35
1455211614967093944,1824,0,/imu_data_acquisition2,169114.0,-0.009033203125,-0.0189208984375,0.827026367188,0.561828613281,1.625,1.75,0.625,0.66,-0.57,9.85
1455211614976073980,1825,0,/imu_data_acquisition2,169127.0,-0.00909423828125,-0.0188598632812,0.827026367188,0.561767578125,1.75,2.25,0.6875,0.2,-0.68,10.29
1455211614987267017,1826,0,/imu_data_acquisition2,169138.0,-0.00921630859375,-0.018798828125,0.827087402344,0.561706542969,1.75,2.25,0.6875,0.22,-0.74,10.02
1455211614994546890,1827,0,/imu_data_acquisition2,169145.0,-0.00927734375,-0.018798828125,0.827087402344,0.561645507812,1.625,2.3125,0.8125,0.22,-0.74,10.02
1455211615004398107,1828,0,/imu_data_acquisition2,169156.0,-0.0093994140625,-0.0186767578125,0.8271484375,0.561584472656,1.875,2.3125,1.0,0.16,-0.62,10.17
1455211615015224933,1829,0,/imu_data_acquisition2,169163.0,-0.00946044921875,-0.0185546875,0.827209472656,0.5615234375,1.8125,2.75,1.0,0.34,-0.6,9.94
1455211615028623104,1830,0,/imu_data_acquisition2,169177.0,-0.00958251953125,-0.0184936523438,0.827209472656,0.561462402344,1.5,2.3125,0.875,0.4,-0.59,9.84
1455211615039521932,1831,0,/imu_data_acquisition2,169189.0,-0.009765625,-0.0184326171875,0.827331542969,0.561340332031,0.9375,2.5,0.875,0.18,-0.65,9.97
1455211615041704893,1832,0,/imu_data_acquisition2,169193.0,-0.009765625,-0.0184326171875,0.827331542969,0.561340332031,0.9375,2.5,0.875,0.18,-0.65,9.97
1455211615052947998,1833,0,/imu_data_acquisition2,169204.0,-0.0098876953125,-0.0184326171875,0.827331542969,0.561340332031,0.6875,2.3125,0.625,0.34,-0.6,10.17
1455211615064704895,1834,0,/imu_data_acquisition2,169215.0,-0.010009765625,-0.0184936523438,0.827331542969,0.561340332031,0.25,2.125,0.5,0.26,-0.66,10.11
1455211615077106952,1835,0,/imu_data_acquisition2,169227.0,-0.0101928710938,-0.0184936523438,0.827331542969,0.561340332031,0.1875,2.3125,0.3125,0.07,-0.66,10.04
1455211615086319923,1836,0,/imu_data_acquisition2,169237.0,-0.0103149414062,-0.0184936523438,0.827331542969,0.561340332031,-0.0625,1.9375,0.125,0.19,-0.72,10.2
1455211615095139026,1837,0,/imu_data_acquisition2,169245.0,-0.010498046875,-0.0185546875,0.827331542969,0.561340332031,0.125,2.125,0.0625,0.19,-0.72,10.2
1455211615101649045,1838,0,/imu_data_acquisition2,169253.0,-0.0106201171875,-0.0186157226562,0.827331542969,0.561340332031,0.125,1.8125,0.0625,0.3,-0.7,9.94
1455211615116871118,1839,0,/imu_data_acquisition2,169264.0,-0.0108032226562,-0.0187377929688,0.827270507812,0.561340332031,0.5625,2.25,0.0625,0.26,-0.72,10.0
1455211615126127958,1840,0,/imu_data_acquisition2,169277.0,-0.0109252929688,-0.0186767578125,0.827270507812,0.561340332031,0.6875,2.0625,0.0625,0.03,-0.63,10.01
1455211615137171030,1841,0,/imu_data_acquisition2,169287.0,-0.0110473632812,-0.0186767578125,0.827270507812,0.561340332031,0.6875,2.125,0.125,0.19,-0.68,10.1
1455211615146207094,1842,0,/imu_data_acquisition2,169295.0,-0.01123046875,-0.0187377929688,0.827270507812,0.561340332031,0.5,2.125,-0.0625,0.17,-0.71,10.19
1455211615154313087,1843,0,/imu_data_acquisition2,169304.0,-0.0113525390625,-0.018798828125,0.827270507812,0.561340332031,0.25,2.1875,-0.0625,0.26,-0.62,10.02
1455211615161595106,1844,0,/imu_data_acquisition2,169313.0,-0.011474609375,-0.018798828125,0.827270507812,0.561340332031,0.25,2.3125,-0.0625,0.16,-0.64,10.26
1455211615176687955,1845,0,/imu_data_acquisition2,169328.0,-0.0116577148438,-0.0187377929688,0.827270507812,0.561340332031,0.0,2.375,-0.0625,0.28,-0.64,10.09
1455211615188030004,1846,0,/imu_data_acquisition2,169337.0,-0.0118408203125,-0.0187377929688,0.827270507812,0.561401367188,-0.3125,2.4375,-0.0625,0.28,-0.64,10.09
1455211615194804906,1847,0,/imu_data_acquisition2,169344.0,-0.011962890625,-0.018798828125,0.827270507812,0.561401367188,-0.8125,2.1875,-0.25,0.22,-0.41,10.03
1455211615207000970,1848,0,/imu_data_acquisition2,169358.0,-0.01220703125,-0.0187377929688,0.827270507812,0.561401367188,-1.1875,2.3125,-0.0625,-0.13,-0.47,10.44
1455211615214890956,1849,0,/imu_data_acquisition2,169367.0,-0.012451171875,-0.018798828125,0.827270507812,0.561401367188,-2.0625,2.3125,-0.1875,-0.5,0.39,8.75
1455211615225748062,1850,0,/imu_data_acquisition2,169378.0,-0.0127563476562,-0.0185546875,0.827270507812,0.561401367188,0.375,4.25,-0.0625,-0.07,-0.99,-0.01
1455211615235958099,1851,0,/imu_data_acquisition2,169388.0,-0.01318359375,-0.0185546875,0.827209472656,0.561462402344,-2.4375,4.6875,-0.9375,-0.17,-0.91,10.0
1455211615248409032,1852,0,/imu_data_acquisition2,169399.0,-0.0136108398438,-0.0188598632812,0.827087402344,0.561584472656,-6.125,1.8125,-1.5625,-0.17,-0.91,10.0
1455211615253614902,1853,0,/imu_data_acquisition2,169404.0,-0.0140380859375,-0.0189819335938,0.827026367188,0.561645507812,-3.75,2.9375,-1.4375,-0.01,-0.24,9.71
1455211615262398004,1854,0,/imu_data_acquisition2,169414.0,-0.014404296875,-6.103515625e-05,-6.103515625e-05,0.561706542969,-2.5,4.0625,-0.625,-0.8,-0.56,11.07
1455211615275690078,1855,0,/imu_data_acquisition2,169427.0,-0.0147705078125,-0.0191650390625,0.826904296875,0.561767578125,-3.6875,2.25,-1.0,-0.12,-0.36,10.86
1455211615286843061,1856,0,/imu_data_acquisition2,169438.0,-0.0152587890625,-0.019287109375,0.826843261719,0.561889648438,-4.625,4.1875,-1.125,-0.12,-0.36,10.86
1455211615292727947,1857,0,/imu_data_acquisition2,169444.0,-0.0159301757812,-0.0193481445312,0.826782226562,0.561950683594,-5.4375,5.9375,-1.5625,0.02,-1.04,10.13
1455211615304955005,1858,0,/imu_data_acquisition2,169454.0,-0.0166015625,-0.0195922851562,0.82666015625,0.562133789062,-6.1875,5.0625,-0.0625,0.12,-1.11,10.97
1455211615313983917,1859,0,/imu_data_acquisition2,169465.0,-0.0172119140625,-0.0198364257812,0.826538085938,0.562316894531,-6.5,4.0625,-2.5625,0.14,-0.87,10.58
1455211615328032016,1860,0,/imu_data_acquisition2,169477.0,-0.0177612304688,-0.0200805664062,0.826354980469,0.5625,-6.375,4.25,-2.6875,0.0,-0.97,9.7
1455211615336056947,1861,0,/imu_data_acquisition2,169486.0,-0.0184936523438,-0.0203857421875,0.826232910156,0.562683105469,-7.4375,-0.0625,-0.0625,-0.03,-1.08,9.95
1455211615344477891,1862,0,/imu_data_acquisition2,169495.0,-0.0191650390625,-0.0208129882812,0.825988769531,0.562927246094,-8.8125,4.125,-3.5625,0.12,-0.75,10.25
1455211615355178117,1863,0,/imu_data_acquisition2,169504.0,-0.0199584960938,-0.021240234375,0.825805664062,0.563232421875,-9.8125,4.75,-0.0625,-0.03,-0.85,10.43
1455211615368246078,1864,0,/imu_data_acquisition2,169513.0,-0.0208129882812,-0.0217895507812,0.825500488281,0.563537597656,-10.8125,4.5625,-4.875,0.06,-0.78,10.21
1455211615375817060,1865,0,/imu_data_acquisition2,169527.0,-0.0216674804688,-0.0225219726562,0.8251953125,0.56396484375,-12.75,3.875,-5.8125,0.56,-0.59,9.52
1455211615387111902,1866,0,/imu_data_acquisition2,169536.0,-0.0225219726562,-0.0234375,0.824829101562,0.564453125,-14.625,2.3125,-7.375,0.39,-0.01,-0.01
1455211615400058031,1867,0,/imu_data_acquisition2,169543.0,-0.0235595703125,-0.0244140625,0.824401855469,0.565002441406,-16.25,4.3125,-8.4375,0.35,-0.07,9.81
1455211615403925895,1868,0,/imu_data_acquisition2,169554.0,-0.0247802734375,-0.0254516601562,0.823913574219,0.565551757812,-18.1875,5.0625,-8.6875,0.25,-1.08,9.99
1455211615413909912,1869,0,/imu_data_acquisition2,169564.0,-0.0260620117188,-0.0266723632812,0.823364257812,0.566284179688,-20.625,4.5625,-10.5,0.1,-1.24,10.71
1455211615433401107,1870,0,/imu_data_acquisition2,169576.0,-0.0274047851562,-0.0281372070312,0.822692871094,0.567138671875,-23.0625,4.1875,-12.875,0.48,-1.33,9.9
1455211615437823057,1871,0,/imu_data_acquisition2,169588.0,-0.0288696289062,-0.0296020507812,0.821899414062,0.568176269531,-24.25,4.5,-15.5,0.89,-0.11,9.99
1455211615444962024,1872,0,/imu_data_acquisition2,169595.0,-0.0148315429688,-6.103515625e-05,-6.103515625e-05,0.569396972656,-24.3125,6.3125,-18.375,0.89,-0.11,9.99
1455211615452012062,1873,0,/imu_data_acquisition2,169604.0,-0.0324096679688,-0.032470703125,0.819885253906,0.570739746094,-27.0625,10.5625,-0.0625,0.76,-1.23,10.08
1455211615464112997,1874,0,/imu_data_acquisition2,169615.0,-0.0348510742188,-0.033935546875,0.818786621094,0.572021484375,-30.875,14.6875,-19.375,0.83,-1.15,9.79
1455211615475210905,1875,0,/imu_data_acquisition2,169627.0,-0.00634765625,-6.103515625e-05,-6.103515625e-05,0.573425292969,-29.5,19.5625,-21.125,1.22,-0.69,9.26
1455211615483634948,1876,0,/imu_data_acquisition2,169634.0,-0.0408325195312,-0.0362548828125,0.816528320312,0.57470703125,-32.6875,24.25,-18.75,1.12,-2.96,9.32
1455211615494791984,1877,0,/imu_data_acquisition2,169645.0,-0.04443359375,-0.03662109375,0.8154296875,0.575988769531,-12.5,-0.0625,-0.0625,1.53,-1.24,8.81
1455211615504379034,1878,0,/imu_data_acquisition2,169656.0,-0.0487060546875,-0.0362548828125,0.814392089844,0.5771484375,-24.9375,44.875,-16.375,1.35,-0.93,8.77
1455211615513370037,1879,0,/imu_data_acquisition2,169663.0,-0.00701904296875,-6.103515625e-05,-6.103515625e-05,0.578002929688,-24.9375,58.1875,-11.75,1.4,-0.94,9.22
1455211615527417898,1880,0,/imu_data_acquisition2,169678.0,-0.0599975585938,-0.0335083007812,0.812805175781,0.578491210938,-25.5625,71.0625,-5.375,1.43,-0.01,-0.01
1455211615536334037,1881,0,/imu_data_acquisition2,169688.0,-0.0669555664062,-0.03076171875,0.812072753906,0.578857421875,-21.8125,86.25,-3.5,0.8,-2.23,8.87
1455211615544502973,1882,0,/imu_data_acquisition2,169695.0,-0.01220703125,-6.103515625e-05,-6.103515625e-05,0.579223632812,-17.5625,100.5,-3.25,1.16,-0.01,8.86
1455211615551937103,1883,0,/imu_data_acquisition2,169704.0,-0.083740234375,-0.0231323242188,0.810668945312,0.578979492188,-24.4375,114.3125,4.375,1.16,-0.01,-0.01
1455211615565274953,1884,0,/imu_data_acquisition2,169717.0,-0.094482421875,-0.01904296875,0.810241699219,0.578125,-34.5625,131.1875,12.4375,-0.37,-3.74,10.85
1455211615680686950,1885,0,/imu_data_acquisition2,169728.0,-0.105590820312,-0.0146484375,0.80908203125,0.577880859375,-34.625,138.1875,1.4375,-0.09,2.06,10.34
1455211615752556085,1886,0,/imu_data_acquisition2,169737.0,-0.117309570312,-0.0108642578125,0.807739257812,0.577697753906,-44.6875,139.25,-0.625,0.28,2.55,11.39
1455211615753323078,1887,0,/imu_data_acquisition2,169745.0,-6.103515625e-05,-6.103515625e-05,-6.103515625e-05,0.575866699219,-79.0,147.1875,16.1875,-0.83,-2.39,-0.01
1455211615755999088,1888,0,/imu_data_acquisition2,169757.0,-0.146667480469,-0.0074462890625,0.805969238281,0.573425292969,-94.9375,159.4375,20.625,-0.52,-0.04,11.74
1455211615757755994,1889,0,/imu_data_acquisition2,169763.0,-0.163146972656,-0.00604248046875,-6.103515625e-05,0.570434570312,-104.0625,167.9375,25.6875,-2.87,-5.47,9.89
1455211615758943080,1890,0,/imu_data_acquisition2,169773.0,-0.180419921875,-0.004150390625,0.803527832031,0.567260742188,-104.375,179.8125,25.125,-1.37,-0.33,9.67
1455211615760575056,1891,0,/imu_data_acquisition2,169783.0,-0.200073242188,-0.00238037109375,0.801818847656,0.563110351562,-124.0625,202.4375,33.4375,-1.87,-1.78,12.37
1455211615762330055,1892,0,/imu_data_acquisition2,169793.0,-0.220764160156,-0.00091552734375,0.800415039062,0.557312011719,-138.0625,209.25,49.5,-2.84,-3.09,11.04
1455211615770267009,1893,0,/imu_data_acquisition2,169803.0,-0.241943359375,0.00079345703125,0.799133300781,0.550354003906,-142.3125,215.375,62.0625,-3.58,-2.54,11.39
1455211615771894931,1894,0,/imu_data_acquisition2,169813.0,-0.263549804688,0.002685546875,0.7978515625,0.542175292969,-145.8125,220.5625,74.5,-3.73,-2.12,12.4
1455211615773503065,1895,0,/imu_data_acquisition2,169823.0,-0.284790039062,0.00433349609375,0.796997070312,0.532531738281,-150.875,214.25,89.8125,-3.93,-2.35,12.03
1455211615774974107,1896,0,/imu_data_acquisition2,169833.0,-0.305053710938,0.005126953125,0.796875,0.521484375,-157.5625,196.9375,105.1875,-3.95,-5.02,11.47
1455211615775732040,1897,0,/imu_data_acquisition2,169843.0,-0.323852539062,0.00537109375,0.797302246094,0.509338378906,-157.4375,178.375,116.875,-2.71,-7.4,11.03
1455211615776894092,1898,0,/imu_data_acquisition2,169853.0,-0.01220703125,-6.103515625e-05,-6.103515625e-05,0.498168945312,-129.4375,163.8125,110.9375,4.95,-11.83,18.08
1455211615778233051,1899,0,/imu_data_acquisition2,169863.0,-0.352661132812,0.00958251953125,0.796447753906,0.491088867188,-74.25,137.75,70.875,9.04,-12.98,18.9
1455211615780059099,1900,0,/imu_data_acquisition2,169873.0,-0.359375,0.0115356445312,0.793579101562,0.490905761719,-21.0625,86.875,-7.375,5.63,-9.48,20.19
1455211615784414052,1901,0,/imu_data_acquisition2,169883.0,-0.359741210938,0.0112915039062,0.78955078125,0.4970703125,22.625,18.125,-82.4375,8.63,-0.01,-0.01
1455211615790335893,1902,0,/imu_data_acquisition2,169893.0,-0.357482910156,0.00970458984375,0.786010742188,0.504333496094,29.5,-16.4375,-95.0625,8.35,3.22,7.54
1455211615792794942,1903,0,/imu_data_acquisition2,169903.0,-0.354309082031,0.008056640625,0.783386230469,0.510559082031,30.625,-29.25,-80.25,7.61,-0.01,-0.01
1455211615794886112,1904,0,/imu_data_acquisition2,169913.0,-0.349609375,0.00714111328125,0.781982421875,0.515930175781,42.0,-43.375,-61.375,6.56,1.58,13.64
1455211615797817945,1905,0,/imu_data_acquisition2,169923.0,-0.342468261719,0.00653076171875,0.781921386719,0.520874023438,58.5625,-70.1875,-48.625,3.88,0.0,14.18
1455211615804511070,1906,0,/imu_data_acquisition2,169933.0,-0.332275390625,0.00567626953125,0.783081054688,0.525695800781,74.5,-104.375,-39.875,2.69,-0.37,12.73
1455211615806634902,1907,0,/imu_data_acquisition2,169946.0,-0.319763183594,0.00469970703125,0.785461425781,0.529907226562,85.3125,-131.4375,-27.1875,1.22,-0.97,10.97
1455211615809978961,1908,0,/imu_data_acquisition2,169957.0,-0.306213378906,0.0037841796875,0.788818359375,0.532897949219,88.0,-145.125,-9.3125,-1.3,-4.56,10.03
1455211615812782049,1909,0,/imu_data_acquisition2,169964.0,-0.292236328125,0.002685546875,0.793029785156,0.534545898438,83.5625,-152.5625,7.625,-2.6,-6.81,11.52
1455211615827109098,1910,0,/imu_data_acquisition2,169978.0,-0.277954101562,0.00115966796875,0.797668457031,0.535217285156,77.9375,-159.8125,18.0625,-2.85,-7.5,11.09
1455211615831552982,1911,0,/imu_data_acquisition2,169983.0,-0.263305664062,-0.0009765625,0.802490234375,0.535400390625,72.625,-0.0625,-0.0625,-4.03,-8.3,8.58
1455211615845851898,1912,0,/imu_data_acquisition2,169995.0,-0.0145874023438,-6.103515625e-05,-6.103515625e-05,0.534912109375,63.0625,-169.375,26.0,-2.13,-0.01,-0.01
1455211615852941989,1913,0,/imu_data_acquisition2,170004.0,-0.235656738281,-0.00738525390625,0.812133789062,0.533752441406,46.875,-0.0625,-0.0625,-5.3,-9.68,7.6
1455211615861582040,1914,0,/imu_data_acquisition2,170013.0,-0.223693847656,-0.0117797851562,0.816589355469,0.531982421875,28.625,-155.3125,31.625,-5.86,-10.58,7.69
1455211615872956991,1915,0,/imu_data_acquisition2,170024.0,-0.213073730469,-0.0169677734375,0.820556640625,0.530090332031,12.25,-146.125,27.8125,-6.23,-10.57,7.2
1455211615883122920,1916,0,/imu_data_acquisition2,170034.0,-0.203796386719,-0.0228271484375,0.823852539062,0.528442382812,-2.0,-135.625,20.25,-6.05,-10.0,7.0
1455211615891885995,1917,0,/imu_data_acquisition2,170044.0,-0.196105957031,-0.0136108398438,-6.103515625e-05,0.527099609375,-16.6875,-121.5,11.75,-6.02,-9.17,7.24
1455211615905966997,1918,0,/imu_data_acquisition2,170057.0,-0.190063476562,-0.0360107421875,0.828247070312,0.525939941406,-30.875,-106.5,4.5,-5.91,-7.4,8.75
1455211615912879943,1919,0,/imu_data_acquisition2,170063.0,-0.185363769531,-0.0430908203125,0.829467773438,0.525146484375,-41.6875,-93.0,-2.0625,-5.56,-6.6,9.69
1455211615923032999,1920,0,/imu_data_acquisition2,170074.0,-0.181579589844,-0.0501708984375,0.830261230469,0.524597167969,-46.375,-82.875,-7.5625,-5.04,-5.47,10.29
1455211615936042070,1921,0,/imu_data_acquisition2,170086.0,-0.17822265625,-0.0570068359375,0.830749511719,0.524230957031,-47.0625,-77.125,-10.0,-3.97,-2.25,9.78
1455211615944649934,1922,0,/imu_data_acquisition2,170095.0,-0.175231933594,-0.0638427734375,0.831359863281,0.523559570312,-49.4375,-73.5625,-5.5625,-1.08,-0.01,-0.01
1455211615952965021,1923,0,/imu_data_acquisition2,170105.0,-0.172546386719,-0.0704345703125,0.832275390625,0.522094726562,-50.75,-69.75,4.0625,-3.18,-2.39,11.2
1455211615965424060,1924,0,/imu_data_acquisition2,170115.0,-0.169799804688,-0.0765991210938,0.833557128906,0.520080566406,-46.5625,-69.8125,12.5625,-2.29,-2.45,10.82
1455211615972981929,1925,0,/imu_data_acquisition2,170124.0,-0.166564941406,-0.0824584960938,0.835021972656,0.517822265625,-41.0625,-72.6875,17.0,-1.8,-2.45,10.06
1455211615982480049,1926,0,/imu_data_acquisition2,170134.0,-0.163146972656,-0.0880737304688,0.836669921875,0.515380859375,-37.75,-74.3125,19.75,-1.36,-2.77,9.57
1455211615994751930,1927,0,/imu_data_acquisition2,170146.0,-0.15966796875,-0.0936279296875,0.838256835938,0.512878417969,-37.0625,-73.8125,20.1875,-0.95,-3.39,9.48
1455211616003041982,1928,0,/imu_data_acquisition2,170154.0,-0.15625,-0.09912109375,0.839660644531,0.510620117188,-36.125,-72.0,16.4375,-0.23,-4.24,9.66
1455211616012537956,1929,0,/imu_data_acquisition2,170164.0,-0.152770996094,-0.104431152344,0.840576171875,0.509033203125,-33.9375,-6.4375,-0.0625,0.12,-4.24,9.61
1455211616026154994,1930,0,/imu_data_acquisition2,170177.0,-0.149108886719,-0.109680175781,0.841003417969,0.508361816406,-30.875,-70.0625,-4.4375,0.43,-4.02,9.36
1455211616033010959,1931,0,/imu_data_acquisition2,170184.0,-0.145141601562,-0.114868164062,0.840881347656,0.508544921875,-27.5625,-69.9375,-17.1875,0.83,-3.49,9.29
1455211616043338060,1932,0,/imu_data_acquisition2,170195.0,-0.140930175781,-0.119934082031,0.840270996094,0.509643554688,-24.0,-69.6875,-29.0625,1.02,-3.2,9.26
1455211616054395914,1933,0,/imu_data_acquisition2,170205.0,-0.136352539062,-0.124816894531,0.839172363281,0.511535644531,-19.4375,-70.8125,-40.0,1.07,-2.83,9.24
1455211616063231945,1934,0,/imu_data_acquisition2,170214.0,-0.13134765625,-0.129516601562,0.837646484375,0.514099121094,-14.125,-71.875,-49.875,1.08,-2.23,8.72
1455211616073859930,1935,0,/imu_data_acquisition2,170225.0,-0.125793457031,-0.133911132812,0.835815429688,0.517333984375,-7.8125,-73.6875,-58.375,1.11,-2.03,8.18
1455211616084152936,1936,0,/imu_data_acquisition2,170235.0,-0.119750976562,-0.137878417969,0.833740234375,0.521057128906,-0.3125,-75.0,-65.3125,1.06,-1.93,8.02
1455211616092415094,1937,0,/imu_data_acquisition2,170244.0,-0.113342285156,-0.141296386719,0.831420898438,0.525268554688,8.1875,-74.375,-70.625,0.96,-2.01,8.13
1455211616103650093,1938,0,/imu_data_acquisition2,170255.0,-0.106506347656,-0.144104003906,0.828979492188,0.52978515625,16.6875,-73.875,-75.25,0.74,-2.53,8.74
1455211616113692998,1939,0,/imu_data_acquisition2,170264.0,-6.103515625e-05,-6.103515625e-05,-6.103515625e-05,0.53466796875,25.125,-73.0,-79.625,0.58,-2.85,9.3
1455211616122490882,1940,0,/imu_data_acquisition2,170274.0,-0.0916748046875,-0.148010253906,0.823547363281,0.539916992188,32.8125,-72.875,-84.0,0.33,-3.17,9.77
1455211616134917020,1941,0,/imu_data_acquisition2,170284.0,-0.0835571289062,-0.149291992188,0.820495605469,0.54541015625,40.0,-74.5625,-88.375,-0.13,-3.66,10.61
1455211616142365932,1942,0,/imu_data_acquisition2,170294.0,-0.0748291015625,-0.150329589844,0.8173828125,0.551086425781,46.4375,-78.125,-12.375,-0.32,-3.92,10.68
1455211616153610944,1943,0,/imu_data_acquisition2,170304.0,-0.0655517578125,-0.151184082031,0.814025878906,0.556945800781,51.75,-0.0625,-0.0625,-0.54,-4.15,10.74
1455211616163897991,1944,0,/imu_data_acquisition2,170314.0,-0.0557250976562,-0.151733398438,0.810546875,0.562927246094,57.625,-85.0625,-98.8125,-1.15,-4.26,10.93
1455211616173000097,1945,0,/imu_data_acquisition2,170324.0,-0.04541015625,-0.152038574219,0.806884765625,0.569030761719,63.8125,-87.4375,-101.25,-1.55,-4.15,11.05
1455211616185322046,1946,0,/imu_data_acquisition2,170335.0,-0.0347290039062,-0.151916503906,0.803161621094,0.575073242188,69.125,-88.5625,-101.9375,-1.87,-3.75,11.53
1455211616193021059,1947,0,/imu_data_acquisition2,170344.0,-0.0238647460938,-0.151611328125,0.799438476562,0.580810546875,72.375,-89.3125,-99.375,-2.8,-0.74,-0.01
1455211616201975107,1948,0,/imu_data_acquisition2,170354.0,-0.012939453125,-6.103515625e-05,-6.103515625e-05,0.586120605469,73.625,-90.125,-94.3125,-3.31,-3.04,12.56
1455211616213996887,1949,0,/imu_data_acquisition2,170365.0,-6.103515625e-05,-6.103515625e-05,-6.103515625e-05,0.5908203125,74.125,-91.1875,-86.375,-3.95,-2.64,12.67
1455211616223684072,1950,0,/imu_data_acquisition2,170374.0,0.00872802734375,-0.150512695312,0.789733886719,0.594665527344,73.8125,-91.6875,-75.0625,-4.61,-2.25,12.45
1455211616232747077,1951,0,/imu_data_acquisition2,170384.0,0.0191650390625,-0.150268554688,0.787475585938,0.597412109375,71.6875,-91.0,-60.25,-6.36,-1.21,11.87
1455211616244417905,1952,0,/imu_data_acquisition2,170395.0,0.0289916992188,-0.150207519531,0.786071777344,0.598937988281,66.875,-88.8125,-42.0,-7.3,-0.53,11.3
1455211616253271102,1953,0,/imu_data_acquisition2,170404.0,0.037841796875,-0.150695800781,0.785522460938,0.598999023438,57.1875,-86.125,-19.8125,-8.41,0.2,10.69
1455211616261842966,1954,0,/imu_data_acquisition2,170414.0,0.0453491210938,-0.152038574219,0.786071777344,0.597412109375,42.625,-81.375,6.0,-11.97,3.06,10.12
1455211616274665117,1955,0,/imu_data_acquisition2,170425.0,0.05126953125,-0.154541015625,0.787963867188,0.593811035156,23.625,-78.6875,37.375,-14.86,4.79,10.17
1455211616284749031,1956,0,/imu_data_acquisition2,170434.0,0.0556030273438,-0.159057617188,0.791442871094,0.587524414062,-1.25,-81.125,78.1875,-17.5,6.02,9.16
1455211616292125940,1957,0,/imu_data_acquisition2,170444.0,0.0580444335938,-0.166320800781,0.796752929688,0.578002929688,-34.75,-87.75,126.1875,-19.02,2.67,1.8
