%time,field.header.seq,field.header.stamp,field.header.frame_id,field.time_stamp,field.quat_x,field.quat_y,field.quat_z,field.quat_w,field.gyro_x,field.gyro_y,field.gyro_z,field.accel_x,field.accel_y,field.accel_z
1542222911017050027,168,0,/imu_data_acquisition2,45814.0,-0.0787963867188,0.064697265625,0.664855957031,0.739990234375,-11.4375,19.5625,-1.25,-1.78,0.23,10.48
1542222911026969909,169,0,/imu_data_acquisition2,45824.0,-0.0804443359375,0.0650024414062,0.664733886719,0.739868164062,-12.1875,15.5625,-1.25,-1.4,0.4,10.01
1542222911034298896,170,0,/imu_data_acquisition2,45831.0,-0.081787109375,0.0650024414062,-6.103515625e-05,0.73974609375,-11.9375,11.5625,-0.0625,-1.4,0.4,10.01
1542222911044399976,171,0,/imu_data_acquisition2,45841.0,-0.0831909179688,0.0651245117188,0.664733886719,0.739562988281,-11.4375,11.75,0.0625,-1.58,0.25,9.92
1542222911060224056,172,0,/imu_data_acquisition2,45856.0,-0.0845947265625,0.0652465820312,0.664733886719,0.739440917969,-11.6875,11.8125,0.0,-1.45,-0.39,9.63
1542222911070166110,173,0,/imu_data_acquisition2,45866.0,-0.0873413085938,0.0653686523438,0.664672851562,0.739135742188,-11.3125,10.625,0.125,-1.56,0.02,9.89
1542222911078471899,174,0,/imu_data_acquisition2,45874.0,-0.0873413085938,0.0653686523438,0.664672851562,0.739135742188,-10.125,10.0625,0.0625,-1.96,0.0,9.91
1542222911084552049,175,0,/imu_data_acquisition2,45881.0,-0.0885009765625,0.0654296875,0.664672851562,0.739013671875,-10.125,10.0625,0.0625,-1.96,0.0,9.91
1542222911094355106,176,0,/imu_data_acquisition2,45891.0,-0.089599609375,0.0654907226562,0.664611816406,0.738891601562,-8.875,9.1875,0.0625,-2.29,-0.14,10.18
1542222911107054948,177,0,/imu_data_acquisition2,45903.0,-0.0905151367188,0.0654907226562,0.664611816406,0.73876953125,-7.75,7.25,-0.125,-2.35,-0.01,-0.01
1542222911129168987,178,0,/imu_data_acquisition2,45913.0,-0.0911865234375,0.0654296875,0.664611816406,0.738708496094,-7.0625,4.6875,-0.3125,-1.95,0.2,9.58
1542222911137108087,179,0,/imu_data_acquisition2,45925.0,-0.09228515625,0.0650024414062,0.66455078125,0.738647460938,-5.75,1.875,-1.0625,-2.25,-0.14,10.27
1542222911138855934,180,0,/imu_data_acquisition2,45934.0,-0.09228515625,0.0650024414062,0.66455078125,0.738647460938,-5.75,1.875,-1.0625,-1.91,0.04,10.12
1542222911143321990,181,0,/imu_data_acquisition2,45940.0,-0.0926513671875,0.0648803710938,0.664428710938,0.738708496094,-4.4375,1.75,-1.6875,-1.91,0.04,10.12
1542222911157470941,182,0,/imu_data_acquisition2,45954.0,-0.0922241210938,0.0647583007812,0.664367675781,0.738830566406,-3.0,1.3125,-1.5,-1.83,-0.16,10.11
1542222911167249917,183,0,/imu_data_acquisition2,45964.0,-0.0922241210938,0.0647583007812,0.664367675781,0.738830566406,-3.0,1.3125,-1.5,-2.12,-0.14,9.9
1542222911186063051,184,0,/imu_data_acquisition2,45976.0,-0.092041015625,0.0647583007812,0.664367675781,0.738891601562,-2.375,1.0625,-0.9375,-2.07,-0.38,9.95
1542222911188389062,185,0,/imu_data_acquisition2,45983.0,-0.092041015625,0.0648193359375,0.664306640625,0.738891601562,-1.375,1.5625,-0.9375,-2.21,-0.33,9.81
1542222911195568084,186,0,/imu_data_acquisition2,45991.0,-0.0921630859375,0.0648803710938,0.664306640625,0.738891601562,-0.3125,1.4375,-0.4375,-2.21,-0.33,9.81
1542222911208107948,187,0,/imu_data_acquisition2,46003.0,-0.0921630859375,0.0650634765625,0.664306640625,0.738891601562,0.875,1.8125,-0.25,-2.06,-0.4,9.94
1542222911217557907,188,0,/imu_data_acquisition2,46014.0,-0.0921020507812,0.0652465820312,0.664245605469,0.738891601562,2.125,1.375,0.1875,-2.56,-0.35,9.77
1542222911228545904,189,0,/imu_data_acquisition2,46025.0,-0.0917358398438,0.06591796875,0.664184570312,0.738952636719,4.75,1.5,0.25,-2.21,-0.13,9.68
1542222911234972953,190,0,/imu_data_acquisition2,46030.0,-0.0917358398438,0.06591796875,0.664184570312,0.738952636719,4.75,1.5,0.25,-2.21,-0.13,9.68
1542222911246499061,191,0,/imu_data_acquisition2,46041.0,-0.09130859375,0.0662841796875,0.664184570312,0.739013671875,5.625,0.0625,0.375,-2.05,-0.15,9.92
1542222911255047082,192,0,/imu_data_acquisition2,46051.0,-0.0908813476562,0.0665893554688,0.664184570312,0.739074707031,6.3125,-0.8125,0.375,-2.67,-0.3,9.88
1542222911268301010,193,0,/imu_data_acquisition2,46064.0,-0.0903930664062,0.0670166015625,0.664123535156,0.739135742188,7.4375,-0.0625,-0.1875,-2.22,-0.16,9.85
1542222911278767108,194,0,/imu_data_acquisition2,46075.0,-0.0897827148438,0.0673828125,0.6640625,0.739196777344,8.6875,-1.875,-0.4375,-1.94,-0.18,9.65
1542222911285415887,195,0,/imu_data_acquisition2,46081.0,-0.0890502929688,0.0678100585938,0.6640625,0.7392578125,8.6875,-1.875,-0.4375,-1.94,-0.18,9.65
1542222911293992042,196,0,/imu_data_acquisition2,46091.0,-0.0883178710938,0.0682373046875,0.663940429688,0.739379882812,9.4375,-1.875,-0.8125,-2.21,-0.12,9.85
1542222911308991909,197,0,/imu_data_acquisition2,46105.0,-0.087646484375,0.0686645507812,0.663818359375,0.739562988281,9.3125,-1.5,-1.25,-2.33,-0.16,9.66
1542222911318126916,198,0,/imu_data_acquisition2,46114.0,-0.0869750976562,0.069091796875,0.663757324219,0.739685058594,9.1875,-1.6875,-0.875,-1.84,0.14,9.57
1542222911328161954,199,0,/imu_data_acquisition2,46122.0,-0.08642578125,0.0695190429688,0.66357421875,0.739807128906,8.75,-0.5,-1.5625,-1.84,0.14,9.57
1542222911335745096,200,0,/imu_data_acquisition2,46132.0,-0.0857543945312,0.070068359375,0.663513183594,0.739929199219,7.4375,-0.4375,-1.4375,-1.99,0.03,9.64
1542222911346487045,201,0,/imu_data_acquisition2,46141.0,-0.08544921875,0.0704345703125,0.663330078125,0.740051269531,3.75,1.0,-2.0,-2.28,0.04,9.7
1542222911353883981,202,0,/imu_data_acquisition2,46151.0,-0.0850219726562,0.0707397460938,0.663208007812,0.740173339844,3.75,1.0,-2.0,-1.82,0.01,9.66
1542222911366069078,203,0,/imu_data_acquisition2,46163.0,-0.0847778320312,0.071044921875,0.6630859375,0.740356445312,2.8125,0.6875,-0.0625,-2.31,-0.02,9.47
1542222911379755973,204,0,/imu_data_acquisition2,46174.0,-0.084716796875,0.0712890625,0.662841796875,0.740539550781,1.8125,2.0,-3.25,-1.98,-0.15,9.61
1542222911383713960,205,0,/imu_data_acquisition2,46180.0,-0.0847778320312,0.071533203125,0.66259765625,0.74072265625,0.8125,2.8125,-3.6875,-1.98,-0.15,9.61
1542222911396163940,206,0,/imu_data_acquisition2,46191.0,-0.0848388671875,0.07177734375,0.662353515625,0.740905761719,1.1875,3.3125,-3.625,-2.31,-0.29,9.82
1542222911405245065,207,0,/imu_data_acquisition2,46201.0,-0.0849609375,0.072021484375,0.662109375,0.741088867188,1.0,3.0,-3.4375,-2.07,-0.33,9.58
1542222911415601015,208,0,/imu_data_acquisition2,46213.0,-0.0850830078125,0.0722045898438,0.661926269531,0.7412109375,0.9375,3.3125,-2.6875,-2.0,-0.2,9.63
1542222911427074909,209,0,/imu_data_acquisition2,46224.0,-0.085205078125,0.0724487304688,0.661743164062,0.741333007812,0.75,3.75,-2.4375,-1.85,-0.11,9.75
1542222911434245109,210,0,/imu_data_acquisition2,46230.0,-0.08544921875,0.07275390625,0.661560058594,0.741455078125,0.5625,4.625,-2.3125,-1.81,0.05,9.87
1542222911443578958,211,0,/imu_data_acquisition2,46240.0,-0.0858154296875,0.0731201171875,0.661376953125,0.741577148438,-0.0625,6.0,-2.5,-2.0,0.1,9.95
1542222911455854892,212,0,/imu_data_acquisition2,46251.0,-0.0862426757812,0.0735473632812,0.6611328125,0.74169921875,-0.5625,7.25,-2.9375,-1.7,0.05,9.72
1542222911467071056,213,0,/imu_data_acquisition2,46264.0,-0.0867919921875,0.073974609375,0.660888671875,0.741760253906,-1.125,8.8125,-2.8125,-1.21,0.11,9.31
1542222911477149009,214,0,/imu_data_acquisition2,46274.0,-0.087646484375,0.0746459960938,0.660583496094,0.741882324219,-2.125,12.3125,-3.5625,-2.41,-0.22,9.98
1542222911482942104,215,0,/imu_data_acquisition2,46280.0,-0.088623046875,0.0753173828125,0.660278320312,0.741943359375,-2.4375,13.4375,-3.375,-1.76,0.0,9.91
1542222911494122982,216,0,/imu_data_acquisition2,46291.0,-0.0897827148438,0.0762329101562,0.659912109375,0.742065429688,-2.875,17.75,-3.625,-2.69,0.46,9.33
1542222911505036115,217,0,/imu_data_acquisition2,46300.0,-0.09130859375,0.0773315429688,0.659423828125,0.7421875,-3.9375,21.9375,-5.3125,-1.79,-0.8,9.52
1542222911516289949,218,0,/imu_data_acquisition2,46313.0,-0.0931396484375,0.0787963867188,0.658813476562,0.742370605469,-4.3125,27.375,-0.0625,-1.34,-0.18,9.36
1542222911527301073,219,0,/imu_data_acquisition2,46324.0,-0.0951538085938,0.0804443359375,0.658081054688,0.742553710938,-3.75,31.0625,-7.875,-1.3,0.91,10.1
1542222911534163951,220,0,/imu_data_acquisition2,46330.0,-0.0975341796875,0.0823974609375,0.657104492188,0.742858886719,-3.9375,36.3125,-10.8125,-1.31,0.12,10.17
1542222911543549060,221,0,/imu_data_acquisition2,46340.0,-0.100402832031,0.0848388671875,0.655883789062,0.743286132812,-4.5625,44.9375,-14.125,-1.28,0.32,-0.01
1542222911555366039,222,0,/imu_data_acquisition2,46351.0,-0.103881835938,0.0880737304688,0.654418945312,0.743774414062,-3.5625,56.3125,-16.6875,-0.83,-0.21,9.42
1542222911566867113,223,0,/imu_data_acquisition2,46363.0,-0.108093261719,0.0922241210938,0.652526855469,0.744323730469,-2.375,71.5,-19.875,-0.95,0.23,9.26
1542222911577059030,224,0,/imu_data_acquisition2,46374.0,-0.113220214844,0.0977783203125,0.650329589844,0.744812011719,0.75,90.875,-21.4375,-0.86,-0.5,9.33
1542222911583374023,225,0,/imu_data_acquisition2,46380.0,-0.119506835938,0.104919433594,0.647705078125,0.7451171875,3.25,114.25,-23.125,-0.94,0.35,9.78
1542222911594017982,226,0,/imu_data_acquisition2,46391.0,-0.127197265625,0.113830566406,0.644653320312,0.745178222656,3.9375,141.375,-24.5625,-0.74,0.68,9.38
1542222911604810953,227,0,/imu_data_acquisition2,46401.0,-0.136840820312,0.124389648438,0.640991210938,0.744934082031,0.5625,172.5625,-27.375,-0.75,0.72,9.0
1542222911616046905,228,0,/imu_data_acquisition2,46412.0,-0.148193359375,0.13720703125,0.636901855469,0.744018554688,1.625,-0.0625,-0.0625,-1.01,-0.21,8.88
1542222911628833055,229,0,/imu_data_acquisition2,46425.0,-0.1611328125,0.152587890625,0.632263183594,0.742309570312,6.625,244.3125,-21.9375,-3.21,1.16,9.4
1542222911635761022,230,0,/imu_data_acquisition2,46432.0,-0.176391601562,0.170349121094,0.62744140625,0.739074707031,1.375,285.1875,-12.125,-3.21,1.16,9.4
1542222911645062923,231,0,/imu_data_acquisition2,46440.0,-0.192932128906,0.189086914062,0.623291015625,0.73388671875,-7.75,305.8125,8.0,-3.93,1.11,9.78
1542222911654913902,232,0,/imu_data_acquisition2,46452.0,-0.209411621094,0.206665039062,0.619689941406,0.727600097656,-20.0,296.875,18.8125,-6.74,1.58,11.94
1542222911667208909,233,0,/imu_data_acquisition2,46464.0,-0.225769042969,0.221435546875,0.615173339844,0.72216796875,-34.625,271.75,-2.8125,-0.75,0.35,11.28
1542222911677417039,234,0,/imu_data_acquisition2,46473.0,-0.243774414062,0.236633300781,0.609008789062,0.716674804688,-41.75,291.875,-19.125,-4.92,0.77,12.67
1542222911684312105,235,0,/imu_data_acquisition2,46481.0,-0.264038085938,0.252746582031,0.599609375,0.711975097656,-43.25,323.9375,-56.1875,-4.73,-0.24,16.93
1542222911694117069,236,0,/imu_data_acquisition2,46491.0,-0.287902832031,0.272033691406,0.585510253906,0.707275390625,-36.875,390.1875,-96.375,-7.66,1.87,15.85
1542222911705697059,237,0,/imu_data_acquisition2,46502.0,-0.3134765625,0.292175292969,0.567749023438,0.702880859375,-32.1875,420.9375,-132.25,-9.25,2.33,15.97
1542222911716811895,238,0,/imu_data_acquisition2,46512.0,-0.337280273438,0.310974121094,0.54833984375,0.699157714844,-18.375,401.0625,-149.4375,-12.62,1.67,16.68
1542222911724322080,239,0,/imu_data_acquisition2,46521.0,-0.355773925781,0.323486328125,0.530334472656,0.698181152344,-9.5,299.3125,-160.625,-7.75,0.87,31.29
1542222911735004901,240,0,/imu_data_acquisition2,46531.0,-0.369995117188,0.324645996094,0.516662597656,0.700561523438,-48.0625,147.625,-177.375,-7.73,-0.66,38.54
1542222911744607925,241,0,/imu_data_acquisition2,46541.0,-0.378234863281,0.323120117188,0.506469726562,0.704345703125,-5.6875,-0.0625,-0.0625,-5.33,-1.88,37.99
1542222911753669023,242,0,/imu_data_acquisition2,46551.0,-0.380493164062,0.319396972656,0.497253417969,0.711242675781,25.0,-2.375,-143.3125,3.75,4.84,14.36
1542222911767271041,243,0,/imu_data_acquisition2,46564.0,-0.381958007812,0.313598632812,0.489135742188,0.718688964844,17.375,-31.75,-143.8125,4.73,5.33,8.41
1542222911777184963,244,0,/imu_data_acquisition2,46572.0,-0.384094238281,0.306701660156,0.481872558594,0.725463867188,-0.4375,-38.875,-140.3125,4.37,6.02,6.31
1542222911783550977,245,0,/imu_data_acquisition2,46580.0,-0.386596679688,0.299194335938,0.475830078125,0.731201171875,-16.4375,-43.5,-128.0,2.83,6.72,7.65
1542222911794383049,246,0,/imu_data_acquisition2,46591.0,-0.388366699219,0.291381835938,0.471618652344,0.736145019531,-21.875,-55.8125,-106.3125,2.25,6.52,8.85
1542222911806159019,247,0,/imu_data_acquisition2,46601.0,-0.388244628906,0.283630371094,0.469482421875,0.740539550781,-14.375,-73.875,-78.0,1.89,6.19,9.47
1542222911814301967,248,0,/imu_data_acquisition2,46611.0,-0.385498046875,0.276123046875,0.469665527344,0.744689941406,1.1875,-95.3125,-47.0625,1.7,6.0,9.68
1542222911825967073,249,0,/imu_data_acquisition2,46622.0,-0.380065917969,0.268859863281,0.471923828125,0.748657226562,17.8125,-117.375,-17.1875,1.28,5.32,10.0
1542222911834681034,250,0,/imu_data_acquisition2,46631.0,-0.372314453125,0.261535644531,0.476257324219,0.75244140625,30.75,-139.6875,8.9375,0.97,4.72,10.18
1542222911845413923,251,0,/imu_data_acquisition2,46642.0,-0.362609863281,0.25390625,0.482299804688,0.755981445312,40.3125,-160.375,29.9375,0.71,3.75,10.21
1542222911854942083,252,0,/imu_data_acquisition2,46651.0,-0.351196289062,0.245849609375,0.489501953125,0.759338378906,48.8125,-178.6875,45.25,-0.17,1.58,10.33
1542222911869540929,253,0,/imu_data_acquisition2,46666.0,-0.338256835938,0.2373046875,0.49755859375,0.7626953125,57.5,-195.125,54.9375,-1.34,-0.38,11.04
1542222911874629020,254,0,/imu_data_acquisition2,46672.0,-0.323913574219,0.228088378906,0.506042480469,0.766174316406,65.1875,-210.9375,59.4375,-1.34,-0.38,11.04
1542222911885596036,255,0,/imu_data_acquisition2,46682.0,-0.308349609375,0.217895507812,0.5146484375,0.769836425781,71.0625,-229.0625,59.125,-2.61,-2.86,12.5
1542222911894309043,256,0,/imu_data_acquisition2,46690.0,-0.291381835938,0.20654296875,0.52294921875,0.77392578125,78.9375,-247.125,52.6875,-3.29,-4.66,12.76
1542222911903527975,257,0,/imu_data_acquisition2,46700.0,-0.273132324219,0.194213867188,0.530212402344,0.77880859375,90.4375,-263.25,38.875,-3.87,-5.83,12.66
1542222911916116952,258,0,/imu_data_acquisition2,46713.0,-0.253845214844,0.18115234375,0.536071777344,0.784484863281,100.5625,-273.875,20.1875,-4.38,-5.74,12.3
1542222911924050092,259,0,/imu_data_acquisition2,46720.0,-0.234191894531,0.167419433594,0.540344238281,0.790649414062,104.125,-278.3125,1.75,-5.28,-3.83,11.78
1542222911933547019,260,0,/imu_data_acquisition2,46730.0,-0.21484375,0.153076171875,-6.103515625e-05,0.796875,100.5625,-279.1875,-11.6875,-5.53,-2.36,11.61
1542222911945091962,261,0,/imu_data_acquisition2,46741.0,-0.19580078125,0.138610839844,0.546020507812,0.802673339844,97.0,-275.6875,-15.75,-5.77,-0.97,11.32
1542222911954097032,262,0,/imu_data_acquisition2,46750.0,-0.176940917969,0.124694824219,0.548522949219,0.8076171875,96.625,-268.3125,-9.5625,-5.68,1.35,10.22
1542222911970449924,263,0,/imu_data_acquisition2,46766.0,-6.103515625e-05,-6.103515625e-05,-6.103515625e-05,0.811401367188,101.3125,-255.0,4.6875,-5.71,2.1,10.0
1542222911979198932,264,0,/imu_data_acquisition2,46776.0,-0.0142211914062,-6.103515625e-05,-6.103515625e-05,0.813781738281,109.75,-238.8125,24.5625,-6.37,2.58,11.51
1542222911984333038,265,0,/imu_data_acquisition2,46780.0,-0.119750976562,0.09130859375,0.559936523438,0.814758300781,119.1875,-0.0625,-0.0625,-9.31,3.55,18.38
1542222911993870973,266,0,/imu_data_acquisition2,46791.0,-0.099365234375,0.08154296875,0.566162109375,0.814208984375,124.0,-237.625,71.875,-9.96,3.73,20.15
1542222912005942106,267,0,/imu_data_acquisition2,46802.0,-0.0783081054688,0.0711059570312,0.573974609375,0.81201171875,123.1875,-249.125,97.9375,-10.52,3.32,20.96
1542222912013607025,268,0,/imu_data_acquisition2,46810.0,-0.0569458007812,0.059814453125,0.583068847656,0.808227539062,117.375,-259.375,120.5625,-12.42,0.4,20.73
1542222912024066925,269,0,/imu_data_acquisition2,46821.0,-0.035400390625,0.0476684570312,0.592956542969,0.803039550781,111.9375,-267.625,137.3125,-13.34,-1.42,19.67
1542222912035442113,270,0,/imu_data_acquisition2,46832.0,-0.0137329101562,0.0350341796875,0.60302734375,0.796813964844,108.6875,-273.3125,146.75,-14.05,-3.35,17.74
1542222912043560981,271,0,/imu_data_acquisition2,46840.0,0.0076904296875,0.0223388671875,0.612731933594,0.789916992188,106.4375,-271.3125,147.5625,-14.67,-5.21,15.18
1542222912055783033,272,0,/imu_data_acquisition2,46853.0,0.028076171875,0.0101318359375,0.621398925781,0.782897949219,100.4375,-259.5,138.375,-15.82,-7.36,10.33
1542222912067109107,273,0,/imu_data_acquisition2,46862.0,-6.103515625e-05,-6.103515625e-05,-6.103515625e-05,0.776428222656,85.625,-237.375,119.5625,-16.55,-6.22,8.44
1542222912072943925,274,0,/imu_data_acquisition2,46870.0,0.06103515625,-0.012451171875,-6.103515625e-05,0.770751953125,56.1875,-208.6875,99.0,-16.98,-5.51,6.55
1542222912085855960,275,0,/imu_data_acquisition2,46882.0,0.0726318359375,-0.0228881835938,0.638427734375,0.765930175781,31.75,-180.0,82.1875,-17.93,-5.0,4.32
1542222912096169948,276,0,/imu_data_acquisition2,46891.0,0.082275390625,-0.0315551757812,0.641967773438,0.761657714844,26.25,-5.25,-0.0625,-18.28,-3.88,2.6
1542222912103715896,277,0,/imu_data_acquisition2,46901.0,0.09033203125,-0.0380249023438,0.64501953125,0.757873535156,28.375,-118.0625,59.3125,-18.23,-2.92,0.79
1542222912115614891,278,0,/imu_data_acquisition2,46911.0,0.0966186523438,-0.0421752929688,0.647888183594,0.75439453125,29.875,-83.4375,53.9375,-0.82,-0.01,-0.01
1542222912123946905,279,0,/imu_data_acquisition2,46920.0,0.100646972656,-0.0443115234375,0.651000976562,0.751037597656,25.3125,-48.25,53.75,-18.87,-2.3,-1.05
1542222912133677959,280,0,/imu_data_acquisition2,46931.0,0.101989746094,-0.0448608398438,0.654602050781,0.747680664062,13.4375,-12.8125,57.75,-18.78,-2.27,-1.77
1542222912145750999,281,0,/imu_data_acquisition2,46941.0,0.0975952148438,-0.0442504882812,0.659423828125,0.744079589844,-27.3125,43.5625,72.5,-19.33,5.48,-9.57
1542222912153825044,282,0,/imu_data_acquisition2,46950.0,0.0835571289062,-0.0451049804688,0.665222167969,0.740600585938,-123.5,106.4375,86.6875,-5.91,-15.73,5.25
1542222912164021015,283,0,/imu_data_acquisition2,46961.0,0.0703735351562,-0.04638671875,0.669677734375,0.737854003906,-120.375,95.5625,68.3125,7.91,-12.71,23.16
1542222912174511909,284,0,/imu_data_acquisition2,46971.0,0.0606689453125,-0.0439453125,0.673767089844,0.735107421875,-60.9375,100.0625,61.0625,7.81,-12.94,20.27
1542222912183125972,285,0,/imu_data_acquisition2,46980.0,0.0504760742188,-0.039306640625,0.67578125,0.734313964844,-50.5625,123.0,25.5,2.36,-11.98,-1.16
1542222912194391012,286,0,/imu_data_acquisition2,46991.0,0.0380249023438,-0.03271484375,0.675354003906,0.73583984375,-56.5,157.625,-13.625,0.0,-9.21,10.26
1542222912203807115,287,0,/imu_data_acquisition2,47000.0,0.0267333984375,-0.0240478515625,0.674194335938,0.737670898438,-30.0,165.8125,-24.25,-3.05,-3.68,19.15
1542222912213218927,288,0,/imu_data_acquisition2,47010.0,0.0180053710938,-0.0147705078125,0.673522949219,0.73876953125,-3.0625,150.75,-15.0625,-1.95,0.94,11.1
1542222912224231004,289,0,/imu_data_acquisition2,47021.0,0.00994873046875,-0.0052490234375,0.673278808594,0.739318847656,5.6875,147.375,-6.8125,-1.37,1.45,11.9
1542222912233774900,290,0,/imu_data_acquisition2,47031.0,0.00189208984375,0.00433349609375,0.67333984375,0.739318847656,5.5625,148.125,0.1875,-1.64,0.61,14.77
1542222912244236946,291,0,/imu_data_acquisition2,47041.0,-6.103515625e-05,-6.103515625e-05,-6.103515625e-05,0.738830566406,4.1875,148.0625,5.75,-1.74,0.47,14.36
1542222912252835988,292,0,/imu_data_acquisition2,47050.0,-0.0147705078125,0.02294921875,0.674133300781,0.738098144531,-1.25,148.0,8.9375,-2.28,3.0,15.47
1542222912264349937,293,0,/imu_data_acquisition2,47061.0,-0.0240478515625,0.0313720703125,0.674926757812,0.73681640625,-14.6875,147.625,16.625,-4.43,4.32,15.51
1542222912278029918,294,0,/imu_data_acquisition2,47075.0,-0.0338134765625,0.0382690429688,0.67626953125,0.734924316406,-31.0,138.9375,24.875,-5.13,2.75,15.7
1542222912284800052,295,0,/imu_data_acquisition2,47081.0,-0.0430297851562,0.0438232421875,0.677368164062,0.733032226562,-36.6875,122.4375,22.75,-3.76,-1.24,13.1
1542222912295908927,296,0,/imu_data_acquisition2,47093.0,-0.0509033203125,0.0482788085938,0.678100585938,0.731567382812,-33.875,102.25,16.25,-3.21,-0.51,12.22
1542222912306545019,297,0,/imu_data_acquisition2,47101.0,-0.0576782226562,0.052001953125,0.678527832031,0.73046875,-29.8125,86.6875,10.9375,-3.76,0.06,12.34
1542222912315366983,298,0,/imu_data_acquisition2,47111.0,-0.063232421875,0.0548706054688,0.678649902344,0.729675292969,-25.75,70.0625,5.75,-1.92,-0.54,11.37
1542222912335462093,299,0,/imu_data_acquisition2,47128.0,-0.0678100585938,0.0571899414062,0.678527832031,0.729248046875,-20.9375,56.875,1.25,-2.82,-0.32,11.23
1542222912336613893,300,0,/imu_data_acquisition2,47133.0,-0.0712280273438,0.0588989257812,0.678161621094,0.729064941406,-15.1875,42.875,-2.6875,-2.34,-0.6,10.85
1542222912345743894,301,0,/imu_data_acquisition2,47141.0,-0.0736694335938,0.0599975585938,0.677917480469,0.728942871094,-12.625,29.625,-0.0625,-2.19,-0.6,10.86
1542222912353652954,302,0,/imu_data_acquisition2,47151.0,-0.0753784179688,0.0607299804688,0.677673339844,0.728942871094,-8.8125,19.9375,-2.5,-1.67,-0.91,10.02
1542222912364624977,303,0,/imu_data_acquisition2,47161.0,-0.0764770507812,0.061279296875,0.677429199219,0.72900390625,-4.5625,13.75,-2.875,-1.64,-0.41,10.2
1542222912375046968,304,0,/imu_data_acquisition2,47171.0,-0.0147094726562,-6.103515625e-05,-6.103515625e-05,0.729064941406,-1.8125,10.375,-2.5,-1.56,-0.26,10.22
1542222912385000944,305,0,/imu_data_acquisition2,47181.0,-0.0777587890625,0.0623779296875,0.677062988281,0.729187011719,0.25,9.875,-2.0625,-2.09,-0.37,10.39
1542222912394289016,306,0,/imu_data_acquisition2,47191.0,-0.078125,0.06298828125,0.677001953125,0.729125976562,1.875,7.875,-0.5,-2.01,-0.24,10.61
1542222912405988931,307,0,/imu_data_acquisition2,47202.0,-0.0782470703125,0.0634765625,0.677001953125,0.729064941406,2.875,4.9375,1.0,-1.66,-0.18,10.44
1542222912413414955,308,0,/imu_data_acquisition2,47210.0,-0.078125,0.06396484375,0.677062988281,0.72900390625,4.4375,3.1875,1.5625,-2.15,0.59,-0.01
1542222912423985958,309,0,/imu_data_acquisition2,47221.0,-0.0779418945312,0.0643920898438,0.677124023438,0.728881835938,5.125,2.75,1.6875,-1.82,0.09,10.34
1542222912434611082,310,0,/imu_data_acquisition2,47232.0,-0.0776977539062,0.0648193359375,0.677185058594,0.728820800781,5.375,1.25,1.75,-1.41,0.24,9.66
1542222912443278074,311,0,/imu_data_acquisition2,47240.0,-0.0776977539062,0.0648193359375,0.677185058594,0.728820800781,4.875,2.25,0.9375,-1.95,0.29,10.22
1542222912454217910,312,0,/imu_data_acquisition2,47251.0,-0.0773315429688,0.0657348632812,0.677124023438,0.728820800781,5.4375,2.5,0.3125,-2.2,0.08,10.38
1542222912466526031,313,0,/imu_data_acquisition2,47262.0,-0.0770263671875,0.066162109375,0.677124023438,0.728881835938,6.1875,1.3125,-0.1875,-1.5,0.12,10.1
1542222912473026990,314,0,/imu_data_acquisition2,47270.0,-0.0762939453125,0.066650390625,0.677124023438,0.728881835938,5.875,2.0,-0.5,-1.61,0.23,9.55
1542222912485366106,315,0,/imu_data_acquisition2,47281.0,-0.076171875,0.0670776367188,0.677001953125,0.728942871094,4.5625,2.75,-0.0625,-1.57,0.14,9.68
1542222912496376991,316,0,/imu_data_acquisition2,47291.0,-0.076171875,0.0670776367188,0.677001953125,0.728942871094,4.3125,2.8125,-1.1875,-1.69,-0.01,9.77
1542222912503133058,317,0,/imu_data_acquisition2,47300.0,-0.0760498046875,0.0675048828125,0.676879882812,0.729064941406,4.375,3.8125,-1.0625,-1.88,-0.18,9.68
1542222912515695095,318,0,/imu_data_acquisition2,47312.0,-0.0759887695312,0.0685424804688,0.676574707031,0.729187011719,4.8125,4.5,-1.625,-1.94,-0.06,9.57
1542222912526247978,319,0,/imu_data_acquisition2,47321.0,-0.0759887695312,0.069091796875,0.676452636719,0.729309082031,4.5,4.625,-1.4375,-1.98,0.17,9.7
1542222912533071041,320,0,/imu_data_acquisition2,47330.0,-0.0760498046875,0.069580078125,0.676330566406,0.729370117188,3.375,4.875,-1.4375,-2.26,0.34,9.77
1542222912546253919,321,0,/imu_data_acquisition2,47342.0,-0.0762329101562,0.0699462890625,0.676208496094,0.729431152344,1.75,4.375,-1.4375,-1.96,0.38,9.58
1542222912556859016,322,0,/imu_data_acquisition2,47351.0,-0.0764770507812,0.0701293945312,0.676025390625,0.7294921875,0.25,4.0625,-1.75,-2.19,0.39,9.73
1542222912563709020,323,0,/imu_data_acquisition2,47361.0,-0.0768432617188,0.0703125,0.675842285156,0.729614257812,-1.75,4.1875,-2.75,-2.13,0.33,9.65
1542222912574615001,324,0,/imu_data_acquisition2,47371.0,-0.0772705078125,0.0703125,0.675659179688,0.729797363281,-3.0625,3.8125,-3.5625,-2.24,0.29,9.74
1542222912586910009,325,0,/imu_data_acquisition2,47381.0,-0.0777587890625,0.0703125,0.675354003906,0.72998046875,-4.1875,4.0,-4.3125,-2.02,0.26,9.85
1542222912593445062,326,0,/imu_data_acquisition2,47391.0,-0.0780639648438,0.0703735351562,0.675109863281,0.730163574219,-5.3125,2.75,-4.3125,-2.08,0.29,9.67
1542222912606409072,327,0,/imu_data_acquisition2,47401.0,-0.0785522460938,0.0702514648438,0.674865722656,0.730346679688,-6.3125,2.4375,-4.5625,-2.24,0.02,10.02
1542222912617141008,328,0,/imu_data_acquisition2,47410.0,-6.103515625e-05,-6.103515625e-05,-6.103515625e-05,0.730529785156,-6.375,1.75,-4.3125,-2.25,-0.05,9.57
1542222912623955011,329,0,/imu_data_acquisition2,47421.0,-0.0794677734375,0.0698852539062,0.674377441406,0.730773925781,-5.9375,1.9375,-4.5,-2.18,-0.09,9.92
1542222912636482954,330,0,/imu_data_acquisition2,47431.0,-0.0798950195312,0.069580078125,0.674133300781,0.73095703125,-5.375,1.0625,-4.125,-1.73,-0.01,9.59
1542222912643296957,331,0,/imu_data_acquisition2,47440.0,-0.080322265625,0.0693969726562,0.673950195312,0.731079101562,-4.875,1.9375,-3.625,-1.91,-0.12,9.86
1542222912656299114,332,0,/imu_data_acquisition2,47451.0,-0.0807495117188,0.0692749023438,0.673767089844,0.731262207031,-3.9375,2.0,-3.4375,-1.9,-0.17,9.65
1542222912664388895,333,0,/imu_data_acquisition2,47461.0,-6.103515625e-05,-6.103515625e-05,-6.103515625e-05,0.7314453125,-3.25,2.4375,-3.375,-2.21,-0.23,9.62
1542222912673494100,334,0,/imu_data_acquisition2,47471.0,-0.0814208984375,0.0692138671875,0.67333984375,0.731567382812,-2.4375,2.3125,-2.75,-1.99,-0.14,9.9
1542222912685981035,335,0,/imu_data_acquisition2,47481.0,-0.0816040039062,0.0692749023438,0.673217773438,0.731689453125,-1.75,2.3125,-2.4375,-1.99,-0.17,9.68
1542222912694287061,336,0,/imu_data_acquisition2,47491.0,-0.081787109375,0.0693359375,0.673034667969,0.731750488281,-1.0,2.1875,-2.1875,-2.13,-0.16,9.8
1542222912704341888,337,0,/imu_data_acquisition2,47501.0,-0.0819702148438,0.0693969726562,0.672912597656,0.731872558594,-0.6875,2.25,-1.9375,-2.11,-0.05,9.76
1542222912716850996,338,0,/imu_data_acquisition2,47511.0,-0.0819702148438,0.0693969726562,0.672912597656,0.731872558594,0.0625,2.375,-1.5625,-2.25,-0.07,9.81
1542222912724292039,339,0,/imu_data_acquisition2,47521.0,-0.0820922851562,0.0697631835938,0.672729492188,0.731994628906,0.5,2.5625,-1.375,-1.69,-0.01,9.72
1542222912734968900,340,0,/imu_data_acquisition2,47531.0,-0.08203125,0.0699462890625,0.672668457031,0.732055664062,0.625,2.5625,-0.75,-1.82,0.02,9.89
1542222912743824005,341,0,/imu_data_acquisition2,47540.0,-0.08203125,0.0699462890625,0.672668457031,0.732055664062,0.5625,2.8125,-0.0625,-2.11,0.02,9.54
1542222912754750967,342,0,/imu_data_acquisition2,47551.0,-0.08203125,0.0701293945312,0.672607421875,0.732055664062,0.0625,3.875,-0.8125,-2.1,-0.08,9.98
1542222912765995025,343,0,/imu_data_acquisition2,47562.0,-0.0822143554688,0.0704345703125,0.672546386719,0.732055664062,0.4375,4.5625,-0.75,-1.72,-0.05,9.64
1542222912773518085,344,0,/imu_data_acquisition2,47571.0,-0.082275390625,0.0706787109375,0.672485351562,0.732116699219,0.75,6.0625,-0.5,-1.64,0.02,9.88
1542222912784837961,345,0,/imu_data_acquisition2,47581.0,-0.082275390625,0.071044921875,0.672485351562,0.732055664062,0.8125,6.875,-0.5,-1.94,-0.05,9.9
1542222912795520067,346,0,/imu_data_acquisition2,47591.0,-0.0823974609375,0.0714721679688,0.672485351562,0.732055664062,1.0,9.5625,-0.9375,-1.83,0.01,9.85
1542222912803689956,347,0,/imu_data_acquisition2,47601.0,-0.0825805664062,0.072021484375,0.67236328125,0.732055664062,1.125,11.25,-0.875,-1.65,0.16,9.43
1542222912814831018,348,0,/imu_data_acquisition2,47611.0,-6.103515625e-05,-6.103515625e-05,-6.103515625e-05,0.732055664062,0.8125,15.125,-1.9375,-0.86,-0.42,9.12
1542222912824810981,349,0,/imu_data_acquisition2,47622.0,-0.0845947265625,0.0748901367188,0.671691894531,0.732177734375,0.8125,19.0625,-3.25,-2.28,0.43,10.16
1542222912834302902,350,0,/imu_data_acquisition2,47631.0,-0.0845947265625,0.0748901367188,0.671691894531,0.732177734375,1.5,22.125,-3.625,-1.7,0.83,10.4
1542222912846196889,351,0,/imu_data_acquisition2,47642.0,-0.0858154296875,0.0762939453125,0.671264648438,0.732238769531,2.125,24.25,-4.1875,-1.81,0.31,9.83
1542222912854212045,352,0,/imu_data_acquisition2,47651.0,-0.0870971679688,0.077880859375,0.670837402344,0.732360839844,2.1875,29.5625,-4.625,-1.48,0.17,9.6
1542222912864823102,353,0,/imu_data_acquisition2,47661.0,-0.088623046875,0.079833984375,0.670288085938,0.732421875,3.5625,36.1875,-5.0,-1.71,0.06,9.6
1542222912875166893,354,0,/imu_data_acquisition2,47671.0,-0.0905151367188,0.0822143554688,-6.103515625e-05,0.732482910156,4.9375,43.8125,-5.0,-0.89,0.08,9.59
1542222912888062953,355,0,/imu_data_acquisition2,47682.0,-0.095458984375,0.0889282226562,0.668212890625,0.732421875,6.25,55.0625,-5.125,-1.4,0.08,9.85
1542222912894959926,356,0,/imu_data_acquisition2,47691.0,-0.095458984375,0.0889282226562,0.668212890625,0.732421875,7.9375,68.75,-5.6875,-1.14,0.03,9.88
1542222912906604051,357,0,/imu_data_acquisition2,47702.0,-0.098876953125,0.0935668945312,0.667236328125,0.732299804688,11.6875,84.4375,-5.4375,-1.24,0.15,10.06
1542222912915139913,358,0,/imu_data_acquisition2,47711.0,-0.102966308594,0.0994262695312,0.666076660156,0.731994628906,16.5625,103.1875,-4.625,-0.58,-0.32,9.02
1542222912924283027,359,0,/imu_data_acquisition2,47721.0,-0.107788085938,0.106689453125,0.664733886719,0.731506347656,21.5,127.8125,-5.75,-0.57,0.35,8.95
1542222912937371015,360,0,/imu_data_acquisition2,47732.0,-0.113708496094,0.11572265625,0.662963867188,0.730834960938,25.8125,159.3125,-7.5625,-0.63,-0.32,9.05
1542222912944448947,361,0,/imu_data_acquisition2,47741.0,-0.12109375,0.126892089844,0.66064453125,0.729919433594,25.8125,159.3125,-7.5625,-1.27,0.62,9.0
1542222912953974962,362,0,/imu_data_acquisition2,47751.0,-0.130004882812,0.140319824219,0.658142089844,0.728210449219,29.25,192.0,-2.875,-1.67,1.1,9.06
1542222912965621948,363,0,/imu_data_acquisition2,47762.0,-0.140258789062,0.155944824219,0.655029296875,0.725891113281,38.5625,249.625,9.0,-3.68,-0.35,9.46
1542222912975131034,364,0,/imu_data_acquisition2,47771.0,-0.151550292969,0.173400878906,0.651977539062,0.722412109375,40.625,263.1875,6.6875,-0.69,-0.01,-0.01
1542222912984788894,365,0,/imu_data_acquisition2,47781.0,-0.163452148438,0.191772460938,0.648254394531,0.718566894531,39.5625,257.75,-4.25,-2.03,-0.38,11.27
1542222912994939088,366,0,/imu_data_acquisition2,47791.0,-0.175170898438,0.20947265625,0.643615722656,0.714965820312,44.125,249.5625,-10.25,-1.86,2.6,13.19
1542222913004755020,367,0,/imu_data_acquisition2,47801.0,-0.186218261719,0.226745605469,0.638366699219,0.711608886719,44.125,249.5625,-10.25,-4.11,2.07,12.63
1542222913014478921,368,0,/imu_data_acquisition2,47811.0,-0.198059082031,0.244323730469,0.631713867188,0.708557128906,34.25,297.0,-50.75,-2.55,-0.01,-0.01
1542222913027801990,369,0,/imu_data_acquisition2,47823.0,-0.230895996094,0.283081054688,0.611022949219,0.702270507812,25.75,340.9375,-80.125,-7.09,1.78,15.93
1542222913038126945,370,0,/imu_data_acquisition2,47832.0,-0.230895996094,0.283081054688,0.611022949219,0.702270507812,15.1875,385.875,-113.625,-8.37,2.52,16.58
1542222913043411970,371,0,/imu_data_acquisition2,47840.0,-0.252502441406,0.304382324219,0.596069335938,0.698791503906,15.1875,385.875,-113.625,-8.37,2.52,16.58
1542222913056473970,372,0,/imu_data_acquisition2,47851.0,-0.274719238281,0.325012207031,0.578491210938,0.695922851562,16.5,390.875,-143.3125,-6.0,2.24,33.48
1542222913065383911,373,0,/imu_data_acquisition2,47862.0,-0.293029785156,0.342102050781,0.559875488281,0.695495605469,-5.0,179.875,-191.75,-4.08,1.61,38.66
1542222913074579954,374,0,/imu_data_acquisition2,47872.0,-0.307312011719,0.347595214844,-6.103515625e-05,0.699035644531,-39.0625,95.9375,-159.625,4.76,-0.45,22.98
1542222913086221933,375,0,/imu_data_acquisition2,47882.0,-0.318664550781,0.347229003906,0.533325195312,0.702453613281,-1.375,10.5,-152.9375,3.7,1.35,13.39
1542222913094837903,376,0,/imu_data_acquisition2,47891.0,-0.323669433594,0.343688964844,0.52392578125,0.708923339844,-1.375,10.5,-152.9375,4.74,2.89,7.62
1542222913103929042,377,0,/imu_data_acquisition2,47901.0,-0.326782226562,0.337768554688,0.514465332031,0.71728515625,7.8125,-27.8125,-166.375,2.52,6.1,6.98
1542222913116038084,378,0,/imu_data_acquisition2,47912.0,-0.330261230469,0.330261230469,0.5048828125,0.725891113281,-26.125,-45.8125,-179.5,1.81,6.49,8.19
1542222913126948118,379,0,/imu_data_acquisition2,47922.0,-0.334899902344,0.3212890625,0.495849609375,0.734008789062,-43.125,-58.25,-169.8125,1.5,6.72,9.27
1542222913137756109,380,0,/imu_data_acquisition2,47934.0,-0.34326171875,0.300048828125,0.482055664062,0.748168945312,-45.25,-76.25,-149.4375,1.38,6.85,9.76
1542222913146892070,381,0,/imu_data_acquisition2,47942.0,-0.34326171875,0.300048828125,0.482055664062,0.748168945312,-45.25,-76.25,-149.4375,1.96,7.13,9.13
1542222913158850908,382,0,/imu_data_acquisition2,47952.0,-0.344482421875,0.2890625,0.477966308594,0.754577636719,-13.9375,-116.4375,-90.625,2.23,7.09,8.9
1542222913166429996,383,0,/imu_data_acquisition2,47962.0,-0.342834472656,0.278442382812,0.475830078125,0.760620117188,6.1875,-5.4375,-0.0625,2.39,6.79,8.8
1542222913189937114,385,0,/imu_data_acquisition2,47985.0,-0.331420898438,0.258972167969,0.477416992188,0.771484375,48.6875,-163.0625,-2.0,1.85,3.77,9.2
1542222913194427967,386,0,/imu_data_acquisition2,47991.0,-0.321655273438,0.250244140625,0.480773925781,0.776428222656,48.6875,-163.0625,-2.0,1.85,3.77,9.2
1542222913207412958,387,0,/imu_data_acquisition2,48004.0,-0.309265136719,0.242126464844,0.4853515625,0.781127929688,72.375,-176.375,20.875,0.46,1.78,10.8
1542222913219484090,388,0,/imu_data_acquisition2,48012.0,-0.294555664062,0.234375,0.490844726562,0.785705566406,103.75,-202.75,51.1875,-0.16,1.14,11.71
1542222913225923061,389,0,/imu_data_acquisition2,48022.0,-0.278198242188,0.226440429688,0.497131347656,0.7900390625,107.3125,-216.5,59.9375,-0.9,0.1,13.02
1542222913240375995,390,0,/imu_data_acquisition2,48037.0,-0.242553710938,0.208068847656,0.511413574219,0.797729492188,105.375,-233.0,63.4375,-2.66,-2.97,15.19
1542222913243396997,391,0,/imu_data_acquisition2,48040.0,-0.242553710938,0.208068847656,0.511413574219,0.797729492188,105.375,-233.0,63.4375,-2.66,-2.97,15.19
1542222913255286931,392,0,/imu_data_acquisition2,48052.0,-0.223388671875,0.196899414062,0.518676757812,0.801452636719,111.9375,-269.375,52.0,-3.62,-3.97,15.36
1542222913267174959,393,0,/imu_data_acquisition2,48063.0,-0.203063964844,0.184509277344,0.525207519531,0.805541992188,111.9375,-269.375,52.0,-3.7,-3.56,14.77
1542222913276613950,394,0,/imu_data_acquisition2,48073.0,-0.181884765625,0.171020507812,0.530700683594,0.809936523438,118.8125,-291.8125,24.3125,-4.04,-3.49,13.37
1542222913287080049,395,0,/imu_data_acquisition2,48084.0,-0.160217285156,0.156677246094,0.534973144531,0.814636230469,123.6875,-292.75,11.75,-4.46,-2.64,13.01
1542222913293015003,396,0,/imu_data_acquisition2,48090.0,-0.138305664062,0.142211914062,0.537902832031,0.8193359375,123.6875,-292.75,11.75,-4.46,-2.64,13.01
1542222913305421113,397,0,/imu_data_acquisition2,48102.0,-0.115966796875,0.128662109375,0.539733886719,0.823791503906,134.3125,-284.375,4.9375,-5.24,-1.25,13.71
1542222913317992925,398,0,/imu_data_acquisition2,48113.0,-0.0933227539062,0.116271972656,0.541137695312,0.827575683594,147.6875,-270.0,18.6875,-9.33,3.8,21.18
1542222913325375080,399,0,/imu_data_acquisition2,48122.0,-0.0704345703125,0.104248046875,0.54296875,0.830261230469,141.1875,-275.875,42.0,-10.37,5.24,22.25
1542222913343175888,400,0,/imu_data_acquisition2,48138.0,-0.0252685546875,0.0776977539062,0.551330566406,0.830261230469,123.0625,-282.6875,74.125,-13.16,4.79,22.8
1542222913350306034,401,0,/imu_data_acquisition2,48147.0,-0.00408935546875,0.062255859375,0.558776855469,0.826965332031,99.1875,-0.0625,-0.0625,-14.48,2.46,21.21
1542222913355048894,402,0,/imu_data_acquisition2,48152.0,-0.00408935546875,0.062255859375,0.558776855469,0.826965332031,99.1875,-289.3125,109.9375,-14.48,2.46,21.21
1542222913369525909,403,0,/imu_data_acquisition2,48166.0,0.016357421875,0.0457153320312,0.568298339844,0.821411132812,68.25,-284.75,169.0,-17.55,-1.53,12.95
1542222913379158973,404,0,/imu_data_acquisition2,48176.0,0.035400390625,0.0289916992188,0.579162597656,0.81396484375,39.0,-264.75,176.4375,-21.97,-5.98,11.8
1542222913388870954,405,0,/imu_data_acquisition2,48185.0,0.0514526367188,0.0121459960938,0.590148925781,0.805541992188,26.25,-247.6875,169.875,-22.43,-6.1,8.17
1542222913393819093,406,0,/imu_data_acquisition2,48191.0,0.0657348632812,-0.004150390625,0.600402832031,0.796936035156,26.25,-247.6875,169.875,-22.43,-6.1,8.17
1542222913405213117,407,0,/imu_data_acquisition2,48201.0,0.0790405273438,-0.018798828125,0.609375,0.788696289062,28.0625,-226.6875,153.8125,-22.36,-6.22,3.83
1542222913418646097,408,0,/imu_data_acquisition2,48215.0,0.0907592773438,-0.0310668945312,0.616760253906,0.78125,29.625,-193.75,131.875,-22.6,-2.8,-2.72
1542222913427135944,409,0,/imu_data_acquisition2,48223.0,0.099609375,-0.0405883789062,0.622985839844,0.774780273438,3.5625,-100.0,98.1875,-22.91,-2.69,-2.37
1542222913436985015,410,0,/imu_data_acquisition2,48233.0,0.104797363281,-0.0477294921875,0.628540039062,0.769226074219,3.5625,-100.0,98.1875,-23.58,-1.98,-9.6
1542222913443368911,411,0,/imu_data_acquisition2,48240.0,0.106384277344,-0.0528564453125,0.634216308594,0.763977050781,-13.375,-54.1875,95.75,-23.58,-1.98,-9.6
1542222913454391956,412,0,/imu_data_acquisition2,48251.0,-6.103515625e-05,-6.103515625e-05,-6.103515625e-05,0.758850097656,-37.4375,4.5625,101.4375,-27.17,-6.05,-10.26
1542222913468978881,413,0,/imu_data_acquisition2,48262.0,0.0938720703125,-0.0557861328125,0.647338867188,0.754333496094,-77.375,73.5,101.5625,-23.24,-10.21,-7.48
1542222913476797103,414,0,/imu_data_acquisition2,48273.0,0.0812377929688,-0.0546875,0.652954101562,0.751037597656,-96.5625,110.875,82.4375,8.38,-16.14,16.12
1542222913486787080,415,0,/imu_data_acquisition2,48283.0,0.070556640625,-0.055419921875,0.655883789062,0.74951171875,-97.5,78.0625,45.6875,4.45,-9.96,-1.04
1542222913497204065,416,0,/imu_data_acquisition2,48292.0,0.0621948242188,-0.0524291992188,0.658020019531,0.748596191406,-49.0,92.125,-0.0625,4.45,-9.96,-1.04
1542222913504107952,417,0,/imu_data_acquisition2,48301.0,0.0528564453125,-0.0465698242188,0.657897949219,0.749755859375,-37.75,125.5625,-8.6875,2.16,-6.56,2.97
1542222913516772985,418,0,/imu_data_acquisition2,48313.0,0.042236328125,-0.0380859375,0.656616210938,0.752075195312,-30.3125,158.125,-29.3125,-1.87,-0.6,13.61
1542222913528551101,419,0,/imu_data_acquisition2,48323.0,0.0338134765625,-0.0275268554688,0.656311035156,0.753234863281,5.9375,160.125,-12.3125,-1.83,-2.79,12.07
1542222913536847114,420,0,/imu_data_acquisition2,48333.0,0.0263671875,-6.103515625e-05,-6.103515625e-05,0.753479003906,12.5625,148.4375,-0.625,-1.81,-1.1,14.54
1542222913544647932,421,0,/imu_data_acquisition2,48341.0,0.0191650390625,-0.0076904296875,0.656677246094,0.75390625,11.0625,142.8125,-4.75,-1.81,-1.1,14.54
1542222913553941965,422,0,/imu_data_acquisition2,48350.0,0.0123291015625,0.0018310546875,0.656433105469,0.754272460938,13.3125,137.8125,-7.0625,-1.72,0.49,13.98
1542222913565743923,423,0,/imu_data_acquisition2,48362.0,0.0064697265625,0.011474609375,0.656311035156,0.75439453125,22.125,131.9375,-3.4375,-2.23,1.17,14.34
1542222913577656030,424,0,/imu_data_acquisition2,48373.0,0.00091552734375,0.020751953125,0.656372070312,0.754150390625,22.75,125.5,1.4375,-3.7,3.9,14.9
1542222913587810993,425,0,/imu_data_acquisition2,48383.0,-0.0047607421875,0.0289916992188,0.65673828125,0.753540039062,13.4375,118.0625,6.6875,-2.84,2.25,13.53
1542222913593990087,426,0,/imu_data_acquisition2,48391.0,-0.0105590820312,0.0355834960938,0.657531738281,0.752502441406,-1.3125,104.5,13.375,-2.84,2.25,13.53
1542222913606580018,427,0,/imu_data_acquisition2,48403.0,-0.0165405273438,0.0407104492188,0.65869140625,0.751159667969,-13.5,92.25,18.3125,-3.17,0.3,12.55
1542222913615334033,428,0,/imu_data_acquisition2,48412.0,-0.0221557617188,0.0448608398438,0.65966796875,0.749938964844,-18.875,81.0625,16.4375,-2.83,0.66,12.54
1542222913626415967,429,0,/imu_data_acquisition2,48423.0,-0.0272827148438,0.0482788085938,0.660461425781,0.748840332031,-19.3125,70.9375,13.75,-2.14,0.49,11.37
1542222913638700008,430,0,/imu_data_acquisition2,48435.0,-0.0317993164062,0.0509643554688,0.6611328125,0.747863769531,-19.375,59.375,11.6875,-1.72,-0.15,10.61
1542222913643345117,431,0,/imu_data_acquisition2,48440.0,-0.0357055664062,0.0531005859375,0.66162109375,0.747131347656,-18.6875,49.3125,8.8125,-1.72,-0.15,10.61
1542222913656841039,432,0,/imu_data_acquisition2,48453.0,-0.0389404296875,0.0546875,0.661987304688,0.746459960938,-17.0,39.8125,7.125,-1.57,-0.04,10.47
1542222913669924020,433,0,/imu_data_acquisition2,48466.0,-0.041748046875,0.0560302734375,0.662353515625,0.745910644531,-12.9375,29.1875,5.5625,-1.21,-0.35,10.02
1542222913680358886,434,0,/imu_data_acquisition2,48476.0,-0.044189453125,0.0571899414062,0.662658691406,0.745422363281,-12.9375,29.1875,5.5625,-1.62,0.0,10.4
1542222913687972068,435,0,/imu_data_acquisition2,48485.0,-0.0462646484375,0.0581665039062,0.662902832031,0.744995117188,-8.75,23.5,3.625,-1.61,0.04,10.25
1542222913697618961,436,0,/imu_data_acquisition2,48493.0,-0.0481567382812,0.0592041015625,0.6630859375,0.74462890625,-8.75,23.5,3.625,-1.61,0.04,10.25
1542222913704603910,437,0,/imu_data_acquisition2,48502.0,-0.0496215820312,0.0601196289062,0.663208007812,0.744384765625,-6.25,19.6875,2.75,-1.4,0.15,10.23
1542222913717720985,438,0,/imu_data_acquisition2,48515.0,-0.0509033203125,0.0609130859375,0.663330078125,0.744140625,-5.0625,17.5625,2.1875,-1.58,0.64,9.97
1542222913729644060,439,0,/imu_data_acquisition2,48526.0,-0.0521240234375,0.0617065429688,0.663391113281,0.743896484375,-4.875,15.125,1.3125,-1.43,0.45,9.95
1542222913739742040,440,0,/imu_data_acquisition2,48536.0,-0.0532836914062,0.0623779296875,0.663391113281,0.743774414062,-4.875,15.125,1.3125,-1.05,0.74,9.48
1542222913747657060,441,0,/imu_data_acquisition2,48545.0,-0.0545043945312,0.0629272460938,0.663391113281,0.74365234375,-6.4375,14.75,0.1875,-1.05,0.74,9.48
1542222913756087064,442,0,/imu_data_acquisition2,48552.0,-0.0557250976562,0.0634155273438,0.663269042969,0.743591308594,-6.875,13.5625,-1.0625,-1.38,0.63,-0.01
1542222913768194913,443,0,/imu_data_acquisition2,48565.0,-0.05712890625,0.0639038085938,0.663024902344,0.74365234375,-8.3125,15.6875,-0.0625,-1.58,0.5,10.18
1542222913779063940,444,0,/imu_data_acquisition2,48576.0,-0.0585327148438,0.064208984375,0.662902832031,0.74365234375,-11.25,13.375,-2.6875,-1.65,0.2,10.42
1542222913789349079,445,0,/imu_data_acquisition2,48586.0,-0.06005859375,0.0643920898438,0.662719726562,0.74365234375,-11.25,13.375,-2.6875,-1.91,0.01,10.12
1542222913795094966,446,0,/imu_data_acquisition2,48592.0,-0.0615234375,0.0645751953125,0.662536621094,0.743713378906,-11.4375,12.9375,-3.0,-1.91,0.01,10.12
1542222913807466983,447,0,/imu_data_acquisition2,48604.0,-0.0628662109375,0.0647583007812,0.662292480469,0.743774414062,-10.0,12.25,-3.6875,-1.84,0.16,9.76
1542222913814491033,448,0,/imu_data_acquisition2,48610.0,-0.06396484375,0.0650024414062,0.662048339844,0.743896484375,-7.6875,10.6875,-3.5,-1.84,0.16,9.76
1542222913838845968,450,0,/imu_data_acquisition2,48634.0,-0.06591796875,0.0656127929688,0.661560058594,0.744079589844,-5.625,10.375,-3.1875,-1.88,0.33,9.9
1542222913843094110,451,0,/imu_data_acquisition2,48640.0,-0.0665893554688,0.0657958984375,0.661437988281,0.744140625,-4.0625,7.25,-2.0,-1.88,0.33,9.9
1542222913854742050,452,0,/imu_data_acquisition2,48651.0,-0.0672607421875,0.0660400390625,0.661315917969,0.744201660156,-3.8125,7.4375,-1.9375,-1.87,0.17,9.67
1542222913866683959,453,0,/imu_data_acquisition2,48662.0,-0.0679321289062,0.0662841796875,0.6611328125,0.744201660156,-3.8125,7.4375,-1.9375,-1.88,-0.01,9.87
1542222913879154920,454,0,/imu_data_acquisition2,48674.0,-0.068603515625,0.0665283203125,0.661010742188,0.744262695312,-3.6875,7.3125,-2.125,-1.58,0.14,9.88
1542222913896861076,456,0,/imu_data_acquisition2,48692.0,-0.06982421875,0.0670166015625,0.66064453125,0.744445800781,-3.25,7.5,-2.8125,-1.83,0.11,9.38
1542222913903683900,457,0,/imu_data_acquisition2,48701.0,-0.0704956054688,0.0672607421875,0.660400390625,0.744567871094,-3.5625,6.625,-2.75,-2.19,0.15,10.1
1542222913914722919,458,0,/imu_data_acquisition2,48711.0,-0.071044921875,0.0673828125,0.660217285156,0.74462890625,-4.0625,5.875,-2.5625,-2.13,0.18,9.95
1542222913927716016,459,0,/imu_data_acquisition2,48723.0,-0.071533203125,0.0675048828125,0.660095214844,0.744689941406,-4.25,5.25,-2.5,-1.75,0.05,9.66
1542222913940256118,460,0,/imu_data_acquisition2,48734.0,-0.0721435546875,0.0676879882812,0.659912109375,0.744812011719,-4.625,5.8125,-2.625,-2.17,0.05,9.44
1542222913946113109,461,0,/imu_data_acquisition2,48742.0,-0.0726928710938,0.0677490234375,0.659790039062,0.744873046875,-4.3125,4.625,-2.25,-1.48,0.19,9.23
1542222913957273960,462,0,/imu_data_acquisition2,48752.0,-0.0733642578125,0.06787109375,0.659606933594,0.744934082031,-5.0,6.5625,-2.375,-2.12,-0.01,10.01
1542222913963522911,463,0,/imu_data_acquisition2,48760.0,-0.0740966796875,0.0680541992188,0.659423828125,0.744995117188,-4.8125,6.875,-2.4375,-1.88,-0.09,9.69
1542222913976078033,464,0,/imu_data_acquisition2,48772.0,-0.07470703125,0.0682373046875,0.659301757812,0.745056152344,-4.375,6.875,-2.3125,-1.79,-0.08,9.61
1542222913990578889,465,0,/imu_data_acquisition2,48786.0,-0.0752563476562,0.0684814453125,0.659118652344,0.7451171875,-3.625,7.1875,-2.25,-2.01,0.0,9.82
1542222913993809938,466,0,/imu_data_acquisition2,48791.0,-0.0758056640625,0.0687255859375,0.658935546875,0.745178222656,-3.1875,6.75,-2.375,-2.01,0.0,9.82
1542222914006215095,467,0,/imu_data_acquisition2,48801.0,-0.0762329101562,0.0689697265625,0.658813476562,0.745239257812,-2.1875,6.125,-2.25,-1.92,-0.11,9.81
1542222914019053936,468,0,/imu_data_acquisition2,48813.0,-0.07666015625,0.0692749023438,0.658569335938,0.745361328125,-2.0,5.875,-2.6875,-1.92,-0.04,9.7
1542222914025939941,469,0,/imu_data_acquisition2,48823.0,-0.0769653320312,0.0695190429688,0.658447265625,0.745483398438,-1.625,5.3125,-2.5,-2.01,0.1,9.59
1542222914037550926,470,0,/imu_data_acquisition2,48833.0,-0.0773315429688,0.0697631835938,0.658264160156,0.745544433594,-1.3125,5.0625,-2.4375,-1.98,-0.24,9.71
1542222914043878078,471,0,/imu_data_acquisition2,48840.0,-0.0776977539062,0.0700073242188,0.658081054688,0.74560546875,-0.9375,4.75,-1.8125,-2.14,-0.27,10.02
1542222914053934097,472,0,/imu_data_acquisition2,48851.0,-0.077880859375,0.0702514648438,0.658020019531,0.745666503906,-0.4375,3.9375,-1.0625,-1.96,-0.06,10.1
1542222914065030097,473,0,/imu_data_acquisition2,48861.0,-0.078125,0.0704956054688,0.658020019531,0.745666503906,-0.1875,4.1875,-0.5625,-1.79,0.02,9.96
1542222914076251029,474,0,/imu_data_acquisition2,48872.0,-0.0784301757812,0.07080078125,0.657897949219,0.745666503906,-0.6875,5.3125,-0.0625,-2.17,0.34,9.93
1542222914086385965,475,0,/imu_data_acquisition2,48883.0,-0.078857421875,0.0711059570312,0.657775878906,0.745666503906,-1.25,5.5,-1.125,-1.54,0.19,9.7
1542222914097526073,476,0,/imu_data_acquisition2,48894.0,-0.0794067382812,0.0714111328125,0.657653808594,0.745666503906,-2.0,7.3125,-1.25,-1.85,0.06,9.86
1542222914104581117,477,0,/imu_data_acquisition2,48900.0,-0.0800170898438,0.0718383789062,0.657531738281,0.745727539062,-2.1875,8.625,-1.5,-1.53,0.23,9.59
1542222914117048978,478,0,/imu_data_acquisition2,48914.0,-0.0808715820312,0.0724487304688,0.657348632812,0.745727539062,-2.5625,12.125,-2.375,-1.88,-0.78,9.21
1542222914129518985,479,0,/imu_data_acquisition2,48926.0,-0.0819702148438,0.0732421875,0.656982421875,0.745849609375,-3.5,16.0,-4.4375,-1.32,0.84,9.61
1542222914139480113,480,0,/imu_data_acquisition2,48934.0,-0.0833740234375,0.0744018554688,0.656616210938,0.745910644531,-2.6875,21.75,-3.5625,-1.32,0.84,9.61
1542222914146848917,481,0,/imu_data_acquisition2,48943.0,-0.0849609375,0.0758666992188,0.656127929688,0.745971679688,-2.125,25.625,-4.25,-1.41,0.83,10.23
1542222914157006978,482,0,/imu_data_acquisition2,48952.0,-0.0869140625,0.07763671875,0.655517578125,0.746154785156,-2.5625,30.875,-7.0,-1.64,0.77,9.78
1542222914165541887,483,0,/imu_data_acquisition2,48960.0,-0.0891723632812,0.079833984375,0.654663085938,0.746337890625,-2.25,37.75,-8.6875,-1.23,0.74,9.73
1542222914174724102,484,0,/imu_data_acquisition2,48971.0,-0.0919799804688,0.0825805664062,0.653625488281,0.746643066406,-1.9375,46.6875,-11.1875,-0.51,0.19,9.67
1542222914183396100,485,0,/imu_data_acquisition2,48980.0,-0.0953979492188,0.0860595703125,0.652282714844,0.747009277344,-1.25,58.4375,-14.4375,-0.79,-0.04,9.2
1542222914197781085,486,0,/imu_data_acquisition2,48990.0,-0.099609375,0.0906982421875,0.650634765625,0.747375488281,0.375,74.75,-16.5,-0.44,0.08,9.7
1542222914203006982,487,0,/imu_data_acquisition2,49000.0,-0.104736328125,0.0966796875,0.648620605469,0.747619628906,3.5625,94.5625,-18.0,-0.91,0.17,9.98
1542222914213388919,488,0,/imu_data_acquisition2,49010.0,-0.110717773438,0.104553222656,0.646423339844,0.747619628906,9.6875,118.4375,-16.8125,-0.75,-0.74,9.3
1542222914229183912,489,0,/imu_data_acquisition2,49020.0,-0.118286132812,0.114562988281,0.643798828125,0.747253417969,12.5625,150.1875,-16.625,-1.05,0.97,8.93
1542222914233278036,490,0,/imu_data_acquisition2,49030.0,-0.127868652344,0.126647949219,0.640441894531,0.746643066406,10.6875,185.8125,-20.625,0.77,-0.4,8.17
1542222914243069887,491,0,/imu_data_acquisition2,49040.0,-0.139892578125,0.140991210938,0.635864257812,0.745788574219,8.1875,226.0,-30.5,-1.21,-0.29,9.11
1542222914257085084,492,0,/imu_data_acquisition2,49050.0,-0.153259277344,0.157409667969,0.630981445312,0.744079589844,10.75,256.6875,-25.3125,-2.07,-0.19,9.23
1542222914263715982,493,0,/imu_data_acquisition2,49060.0,-0.168090820312,0.176208496094,0.626342773438,0.740539550781,12.0,291.3125,-7.6875,-2.95,0.01,8.75
1542222914273144006,494,0,/imu_data_acquisition2,49070.0,-0.183715820312,0.19580078125,0.622009277344,0.735534667969,7.5625,307.1875,5.0,-5.21,2.06,11.64
1542222914289061069,495,0,/imu_data_acquisition2,49080.0,-0.199645996094,0.213317871094,0.616821289062,0.730895996094,-7.9375,291.8125,-9.5,-0.36,2.89,12.51
1542222914292814970,496,0,/imu_data_acquisition2,49090.0,-0.216674804688,0.23046875,0.610412597656,0.726135253906,-17.0625,299.9375,-23.125,-4.08,1.16,14.42
1542222914303478002,497,0,/imu_data_acquisition2,49100.0,-0.235900878906,0.248168945312,0.601501464844,0.721801757812,-23.6875,325.6875,-52.375,-4.97,0.61,16.57
1542222914313231945,498,0,/imu_data_acquisition2,49110.0,-0.257629394531,0.267211914062,0.588745117188,0.718017578125,-23.8125,364.125,-92.875,-6.99,1.13,16.59
1542222914323209047,499,0,/imu_data_acquisition2,49120.0,-0.28125,0.28662109375,0.572631835938,0.714782714844,-24.0625,389.3125,-129.8125,-9.45,2.58,15.89
1542222914333704948,500,0,/imu_data_acquisition2,49130.0,-0.303039550781,0.304382324219,0.554748535156,0.712585449219,-10.625,365.0625,-151.25,-11.95,2.21,17.4
1542222914343183994,501,0,/imu_data_acquisition2,49140.0,-0.319885253906,0.316650390625,0.537353515625,0.713195800781,3.4375,274.4375,-167.5,-5.97,1.61,30.58
1542222914353357076,502,0,/imu_data_acquisition2,49150.0,-0.333190917969,0.318908691406,0.523742675781,0.716247558594,-35.9375,143.875,-175.5,-3.74,1.6,38.77
1542222914362931966,503,0,/imu_data_acquisition2,49160.0,-0.340515136719,0.319580078125,0.51416015625,0.719421386719,-8.75,77.4375,-126.3125,-6.13,-0.52,38.59
1542222914373536109,504,0,/imu_data_acquisition2,49170.0,-0.341674804688,0.318176269531,0.505920410156,0.725280761719,36.3125,6.0,-115.5625,4.18,4.51,13.51
1542222914383364915,505,0,/imu_data_acquisition2,49180.0,-0.342224121094,0.314514160156,0.498657226562,0.731628417969,26.5,-0.0625,-0.0625,5.49,5.14,7.28
1542222914393572092,506,0,/imu_data_acquisition2,49190.0,-0.344116210938,0.309265136719,0.492126464844,0.737426757812,-0.4375,-29.3125,-119.0625,4.6,5.73,5.84
1542222914402981042,507,0,/imu_data_acquisition2,49200.0,-0.346923828125,0.302795410156,0.486633300781,0.742370605469,-21.5625,-35.6875,-113.375,2.73,4.86,7.96
1542222914413028955,508,0,/imu_data_acquisition2,49210.0,-0.348937988281,0.295776367188,0.482482910156,0.747009277344,-24.1875,-50.0625,-99.3125,2.2,4.72,9.04
1542222914423125028,509,0,/imu_data_acquisition2,49220.0,-0.348815917969,0.288391113281,0.479858398438,0.751586914062,-13.25,-70.875,-79.5625,2.11,4.88,9.47
1542222914433078050,510,0,/imu_data_acquisition2,49230.0,-0.346313476562,0.280883789062,0.478881835938,0.756164550781,1.6875,-93.0625,-57.25,2.71,5.11,9.17
1542222914443783998,511,0,/imu_data_acquisition2,49240.0,-0.341674804688,0.273193359375,0.479614257812,0.760681152344,14.4375,-113.1875,-35.0625,2.83,4.83,9.17
1542222914453255891,512,0,/imu_data_acquisition2,49250.0,-0.335021972656,0.265319824219,0.481872558594,0.764953613281,25.1875,-131.625,-14.4375,2.73,4.28,9.38
1542222914463968038,513,0,/imu_data_acquisition2,49260.0,-0.326416015625,0.257202148438,0.485473632812,0.769165039062,36.625,-149.6875,3.5625,2.47,3.42,9.67
1542222914473292112,514,0,/imu_data_acquisition2,49270.0,-0.31591796875,0.248840332031,0.490112304688,0.773315429688,49.75,-167.375,18.25,1.66,1.76,10.15
1542222914483450889,515,0,/imu_data_acquisition2,49280.0,-0.303466796875,0.240112304688,0.495666503906,0.777526855469,62.75,-184.75,30.125,1.02,1.21,10.64
1542222914493340969,516,0,/imu_data_acquisition2,49290.0,-0.28955078125,0.230834960938,0.501831054688,0.781677246094,71.25,-201.1875,38.6875,0.46,0.79,11.05
1542222914503504037,517,0,/imu_data_acquisition2,49300.0,-0.274597167969,0.220642089844,0.508544921875,0.785705566406,73.125,-217.5,44.1875,-0.69,-0.25,11.95
1542222914513525009,518,0,/imu_data_acquisition2,49310.0,-0.258972167969,0.209228515625,0.515563964844,0.78955078125,70.375,-232.6875,45.6875,-1.41,-1.31,12.51
1542222914523132085,519,0,/imu_data_acquisition2,49320.0,-0.242858886719,0.196655273438,0.522399902344,0.793395996094,68.5625,-246.875,42.1875,-2.28,-2.53,13.12
1542222914533778905,520,0,/imu_data_acquisition2,49330.0,-0.225891113281,0.18310546875,0.528686523438,0.797485351562,73.25,-259.75,34.0,-3.71,-3.01,13.29
1542222914542968034,521,0,/imu_data_acquisition2,49340.0,-0.208068847656,0.169006347656,0.533996582031,0.801879882812,80.0625,-268.6875,23.875,-3.82,-2.19,12.39
1542222914554111957,522,0,/imu_data_acquisition2,49350.0,-0.189880371094,0.154724121094,0.538513183594,0.806274414062,84.125,-270.4375,15.875,-3.9,-1.54,11.26
1542222914564311027,523,0,/imu_data_acquisition2,49360.0,-0.171630859375,0.140930175781,0.542175292969,0.810363769531,88.75,-0.0625,-0.0625,-4.82,-0.5,11.63
1542222914573788881,524,0,/imu_data_acquisition2,49370.0,-0.153137207031,0.12841796875,0.54541015625,0.814025878906,99.3125,-251.6875,13.0625,-6.02,0.65,13.55
1542222914582938909,525,0,/imu_data_acquisition2,49380.0,-0.133911132812,0.116943359375,0.548828125,0.816833496094,110.8125,-245.375,22.875,-7.28,2.41,16.11
1542222914594955921,526,0,/imu_data_acquisition2,49390.0,-0.114196777344,0.10546875,0.553161621094,0.818481445312,113.0625,-247.75,40.4375,-7.76,4.15,17.54
1542222914603245019,527,0,/imu_data_acquisition2,49400.0,-0.0946655273438,0.0938720703125,0.558837890625,0.818481445312,106.125,-248.625,64.125,-8.64,4.73,18.05
1542222914613029956,528,0,/imu_data_acquisition2,49410.0,-0.07568359375,0.0819091796875,0.566040039062,0.816772460938,94.9375,-247.8125,88.25,-9.78,3.97,19.44
1542222914627685070,529,0,/imu_data_acquisition2,49420.0,-0.0568237304688,0.0695190429688,0.574523925781,0.813537597656,88.4375,-250.4375,110.9375,-11.26,3.21,21.28
1542222914633203983,530,0,/imu_data_acquisition2,49430.0,-0.0374755859375,0.0565795898438,0.584106445312,0.808837890625,87.0625,-259.0625,131.8125,-13.42,0.99,22.02
1542222914643860101,531,0,/imu_data_acquisition2,49440.0,-0.017333984375,0.04296875,0.594482421875,0.802795410156,88.9375,-269.625,148.25,-13.92,-0.81,19.51
1542222914652925014,532,0,/imu_data_acquisition2,49450.0,0.00262451171875,0.0291748046875,0.604919433594,0.795715332031,85.875,-270.875,156.5,-14.78,-1.22,14.21
1542222914663963079,533,0,/imu_data_acquisition2,49460.0,0.0203247070312,0.01513671875,0.61474609375,0.788330078125,62.75,-256.0625,152.5,-17.1,-7.35,12.09
1542222914673126935,534,0,/imu_data_acquisition2,49470.0,0.0365600585938,0.0015869140625,0.623352050781,0.781066894531,53.5625,-0.0625,-0.0625,-17.24,-7.7,10.96
1542222914683001995,535,0,/imu_data_acquisition2,49480.0,0.0519409179688,-0.0107421875,0.630493164062,0.774353027344,53.5,-224.0625,120.875,-16.85,-5.86,8.48
1542222914693695068,536,0,/imu_data_acquisition2,49490.0,0.0653076171875,-0.02197265625,0.636291503906,0.768371582031,43.25,-200.1875,102.75,-16.29,-4.36,5.75
1542222914703255891,537,0,/imu_data_acquisition2,49500.0,0.0760498046875,-0.0320434570312,0.641052246094,0.763061523438,27.375,-169.625,88.6875,-16.46,-2.97,2.19
1542222914714200973,538,0,/imu_data_acquisition2,49510.0,0.0842895507812,-0.0403442382812,0.645324707031,0.758178710938,17.4375,-135.9375,79.625,-16.91,-3.2,1.08
1542222914722982883,539,0,/imu_data_acquisition2,49520.0,0.0907592773438,-0.0464477539062,0.649230957031,0.753723144531,17.75,-102.75,72.6875,-17.66,-3.53,0.42
1542222914733792066,540,0,/imu_data_acquisition2,49530.0,0.0956420898438,-0.0501708984375,0.652954101562,0.749633789062,21.75,-4.5625,-0.0625,-18.25,-3.31,-1.86
1542222914744196891,541,0,/imu_data_acquisition2,49540.0,0.0982666015625,-0.051513671875,0.656555175781,0.74609375,18.5625,-30.6875,59.0,-18.12,-2.82,-2.92
1542222914753583908,542,0,/imu_data_acquisition2,49550.0,0.0966796875,-0.05078125,0.660339355469,0.742980957031,-2.25,21.5625,57.875,-18.68,1.67,-8.97
1542222914764646053,543,0,/imu_data_acquisition2,49561.0,0.087158203125,-0.0491943359375,0.664794921875,0.740295410156,-65.625,91.625,64.0,-19.03,-6.47,-7.22
1542222914784086942,544,0,/imu_data_acquisition2,49577.0,0.072998046875,-0.047119140625,0.669311523438,0.737915039062,-102.5625,133.5625,64.6875,-5.02,-9.54,11.96
1542222914795559883,545,0,/imu_data_acquisition2,49589.0,0.0609130859375,-0.0449829101562,0.672668457031,0.736022949219,-85.0,116.1875,49.0,6.05,-13.54,16.99
1542222914805046081,546,0,/imu_data_acquisition2,49602.0,0.0394897460938,-0.0345458984375,0.676025390625,0.734985351562,-48.5,143.25,2.875,0.32,-9.18,4.69
1542222914833976984,550,0,/imu_data_acquisition2,49630.0,0.0101928710938,-0.0076904296875,0.673156738281,0.739379882812,14.25,143.75,-10.125,-1.66,0.96,11.47
1542222914844688892,551,0,/imu_data_acquisition2,49641.0,0.0035400390625,0.002197265625,0.673095703125,0.739562988281,20.6875,139.8125,-2.625,-2.2,0.41,14.15
1542222914858577966,552,0,/imu_data_acquisition2,49655.0,-6.103515625e-05,-6.103515625e-05,-6.103515625e-05,0.739379882812,20.6875,136.125,1.6875,-2.81,-0.28,15.75
1542222914866106986,553,0,/imu_data_acquisition2,49662.0,-0.009033203125,0.02099609375,0.673400878906,0.738952636719,19.0,128.6875,4.4375,-2.39,1.68,15.24
