%time,field.header.seq,field.header.stamp,field.header.frame_id,field.time_stamp,field.quat_x,field.quat_y,field.quat_z,field.quat_w,field.gyro_x,field.gyro_y,field.gyro_z,field.accel_x,field.accel_y,field.accel_z
1542386892149779081,236,0,/imu_data_acquisition2,42660.0,-0.242797851562,0.101501464844,0.669982910156,0.694213867188,82.4375,-317.3125,-16.375,-1.17,-2.32,-0.68
1542386892159770011,237,0,/imu_data_acquisition2,42670.0,-0.221313476562,0.0897216796875,0.673583984375,0.699462890625,94.0,-283.5,-20.4375,-1.26,-2.85,-2.5
1542386892169574022,238,0,/imu_data_acquisition2,42680.0,-0.201965332031,0.0806274414062,0.675659179688,0.704406738281,98.625,-240.625,-25.4375,-2.65,-4.13,6.11
1542386892181359052,239,0,/imu_data_acquisition2,42690.0,-0.183898925781,0.0726318359375,0.676635742188,0.709228515625,97.25,-217.9375,-15.875,-3.09,-3.87,11.85
1542386892189726114,240,0,/imu_data_acquisition2,42700.0,-0.165954589844,0.0639038085938,0.677124023438,0.714050292969,90.5,-222.625,-37.75,-2.87,-2.96,13.48
1542386892198642015,241,0,/imu_data_acquisition2,42710.0,-0.148193359375,0.053955078125,0.677490234375,0.718444824219,78.875,-229.9375,-38.625,-2.5,-2.01,10.87
1542386892208427906,242,0,/imu_data_acquisition2,42719.0,-0.148193359375,0.053955078125,0.677490234375,0.718444824219,67.1875,-0.0625,-0.0625,-2.98,-2.5,11.5
1542386892218301057,243,0,/imu_data_acquisition2,42729.0,-0.131408691406,0.0437622070312,0.677673339844,0.722229003906,62.5625,-216.25,-36.3125,-3.58,-3.29,13.83
1542386892228763103,244,0,/imu_data_acquisition2,42740.0,-0.115356445312,0.03369140625,0.677490234375,0.725646972656,69.125,-215.625,-41.0625,-4.13,-3.88,16.71
1542386892238256931,245,0,/imu_data_acquisition2,42749.0,-0.098876953125,0.0240478515625,0.6767578125,0.729187011719,82.75,-225.5625,-46.75,-4.73,-2.05,18.84
1542386892248147010,246,0,/imu_data_acquisition2,42759.0,-0.0809326171875,0.0144653320312,0.675415039062,0.732849121094,95.9375,-238.25,-45.0625,-4.52,0.09,14.76
1542386892258569955,247,0,/imu_data_acquisition2,42770.0,-0.0614624023438,0.00494384765625,0.673950195312,0.736206054688,92.375,-232.4375,-32.5625,-4.53,1.77,-0.01
1542386892268527984,248,0,/imu_data_acquisition2,42779.0,-0.04248046875,-0.00445556640625,0.672973632812,0.738464355469,73.4375,-216.0,-12.75,-5.0,3.07,12.93
1542386892283025026,249,0,/imu_data_acquisition2,42792.0,-0.0109252929688,-0.0233154296875,0.673767089844,0.738464355469,52.5625,-200.5,8.9375,-4.86,2.93,11.82
1542386892289290904,250,0,/imu_data_acquisition2,42800.0,0.0015869140625,-0.0322265625,0.67578125,0.736389160156,38.4375,-179.0625,29.625,-4.92,2.12,12.07
1542386892300976037,251,0,/imu_data_acquisition2,42811.0,0.0130615234375,-0.0396728515625,0.678649902344,0.733276367188,41.5,-157.75,45.0,-6.92,-1.56,19.71
1542386892309838056,252,0,/imu_data_acquisition2,42821.0,0.026123046875,-0.0452270507812,0.681884765625,0.729614257812,71.0625,-154.3125,52.75,-7.65,-1.76,20.37
1542386892318713903,253,0,/imu_data_acquisition2,42830.0,0.026123046875,-0.0452270507812,0.681884765625,0.729614257812,114.0,-159.6875,59.1875,-8.19,-0.26,19.36
1542386892328953981,254,0,/imu_data_acquisition2,42840.0,0.0421142578125,-0.0486450195312,0.685485839844,0.725219726562,147.5,-161.8125,71.125,-12.01,2.55,24.25
1542386892338557958,255,0,/imu_data_acquisition2,42849.0,0.0602416992188,-0.0502319335938,0.689758300781,0.719787597656,162.0,-0.0625,-0.0625,-13.61,3.38,26.25
1542386892354445934,256,0,/imu_data_acquisition2,42859.0,0.0800170898438,-0.005126953125,-6.103515625e-05,0.712707519531,160.0625,-207.1875,114.375,-14.9,3.35,25.01
1542386892364435911,257,0,/imu_data_acquisition2,42870.0,0.101257324219,-0.0558471679688,0.700927734375,0.703796386719,148.0625,-238.0625,138.0,-15.69,1.47,21.77
1542386892371225118,258,0,/imu_data_acquisition2,42880.0,0.123474121094,-0.0623779296875,0.70751953125,0.692993164062,136.25,-254.4375,155.875,-14.34,-1.46,9.11
1542386892382379055,259,0,/imu_data_acquisition2,42892.0,0.145751953125,-0.0707397460938,0.714477539062,0.6806640625,121.5625,-241.3125,166.0625,-13.86,-3.56,4.3
1542386892390628099,260,0,/imu_data_acquisition2,42900.0,0.166259765625,-0.0792846679688,0.721496582031,0.66748046875,106.5,-205.0,165.5625,-14.32,-4.98,2.29
1542386892399847030,261,0,/imu_data_acquisition2,42910.0,0.18359375,-0.086669921875,0.728454589844,0.654296875,86.375,-163.6875,152.75,-16.62,-8.33,1.57
1542386892411041975,262,0,/imu_data_acquisition2,42920.0,-6.103515625e-05,-6.103515625e-05,-6.103515625e-05,0.642211914062,63.5,-126.8125,126.3125,-16.87,-10.76,0.81
1542386892421001911,263,0,/imu_data_acquisition2,42930.0,0.207580566406,-0.0977783203125,0.739990234375,0.632263183594,52.125,-91.0,86.9375,-16.72,-12.88,0.42
1542386892431221008,264,0,/imu_data_acquisition2,42941.0,0.21533203125,-0.100891113281,0.743408203125,0.625122070312,58.625,-54.8125,40.0,-15.4,-9.84,-2.93
1542386892438666105,265,0,/imu_data_acquisition2,42949.0,0.221557617188,-0.100830078125,0.744995117188,0.621032714844,58.625,-54.8125,40.0,-14.73,-3.76,-5.54
1542386892450129032,266,0,/imu_data_acquisition2,42960.0,0.225219726562,-0.097900390625,0.745300292969,0.619812011719,2.875,50.1875,-6.375,-3.96,3.3,-15.34
1542386892461412906,267,0,/imu_data_acquisition2,42971.0,0.222290039062,-0.094970703125,0.745971679688,0.62060546875,-83.75,132.8125,-0.9375,10.69,-5.11,13.42
1542386892469466924,268,0,/imu_data_acquisition2,42980.0,0.20947265625,-0.09326171875,0.747680664062,0.623229980469,-94.0625,122.8125,-22.3125,4.35,2.55,0.72
1542386892481539964,269,0,/imu_data_acquisition2,42992.0,0.196960449219,-0.09228515625,0.747863769531,0.627197265625,-131.1875,140.3125,-34.4375,2.7,-0.67,-3.65
1542386892491086959,270,0,/imu_data_acquisition2,43000.0,0.181396484375,-0.0925903320312,0.747253417969,0.632568359375,-131.1875,140.3125,-34.4375,2.67,-1.48,11.03
1542386892498876094,271,0,/imu_data_acquisition2,43010.0,0.161560058594,-0.0923461914062,0.74658203125,0.638732910156,-160.0625,182.375,-38.375,-0.48,2.12,14.5
1542386892511785984,272,0,/imu_data_acquisition2,43021.0,0.143920898438,-0.0896606445312,0.746154785156,0.643798828125,-77.125,164.625,-23.5625,0.04,3.77,13.68
1542386892521934986,273,0,/imu_data_acquisition2,43032.0,0.129516601562,-0.0852661132812,0.746215820312,0.647399902344,-61.125,156.125,-9.1875,-0.01,2.38,13.28
1542386892529995918,274,0,/imu_data_acquisition2,43041.0,0.116394042969,-0.0804443359375,0.746887207031,0.649719238281,-38.5625,151.0,8.5,0.0,-2.85,13.62
1542386892540800094,275,0,/imu_data_acquisition2,43051.0,0.104675292969,-0.07470703125,0.74853515625,0.650512695312,-37.0,145.5,12.5625,0.05,-6.5,16.85
1542386892555919885,276,0,/imu_data_acquisition2,43060.0,0.0933837890625,-0.0691528320312,0.750183105469,0.650939941406,-37.0,145.5,12.5625,-0.73,-5.84,18.0
1542386892560004949,277,0,/imu_data_acquisition2,43071.0,0.083251953125,-0.064208984375,0.751159667969,0.651733398438,-21.0625,107.375,-4.125,-1.38,-2.49,18.12
1542386892571856021,278,0,/imu_data_acquisition2,43081.0,0.0753173828125,-0.0596313476562,0.751525878906,0.652709960938,-12.6875,84.0625,-0.4375,-0.05,1.06,13.63
1542386892583652019,279,0,/imu_data_acquisition2,43092.0,0.0692749023438,-0.0557861328125,0.751953125,0.653137207031,-10.5,71.1875,7.3125,0.37,-0.62,12.8
1542386892589013099,280,0,/imu_data_acquisition2,43100.0,0.0641479492188,-0.0525512695312,0.752746582031,0.653076171875,-10.5,71.1875,7.3125,0.37,-0.62,12.8
1542386892601008892,281,0,/imu_data_acquisition2,43111.0,0.0592041015625,-0.0501708984375,0.753601074219,0.652770996094,-16.25,62.8125,10.625,1.26,1.51,9.82
1542386892613328933,282,0,/imu_data_acquisition2,43121.0,0.05517578125,-0.0492553710938,0.75439453125,0.652221679688,-24.625,41.5625,17.8125,0.58,-0.86,13.75
1542386892620320081,283,0,/imu_data_acquisition2,43131.0,0.0510864257812,-0.0486450195312,0.755493164062,0.6513671875,-24.5,34.875,17.5625,-0.09,-1.72,12.89
1542386892632438898,284,0,/imu_data_acquisition2,43142.0,0.0474853515625,-0.04833984375,0.756469726562,0.650451660156,-20.5625,24.75,14.5,-0.11,0.27,12.44
1542386892640026092,285,0,/imu_data_acquisition2,43150.0,0.044677734375,-0.04833984375,0.75732421875,0.649719238281,-20.5625,24.75,-0.0625,0.67,-0.33,11.42
1542386892649152040,286,0,/imu_data_acquisition2,43160.0,0.04248046875,-0.048828125,0.757995605469,0.649047851562,-20.1875,16.0625,12.6875,1.2,-0.22,9.9
1542386892662378072,287,0,/imu_data_acquisition2,43172.0,0.040771484375,-0.0494995117188,0.758544921875,0.648498535156,-19.0,10.125,9.0625,1.08,-0.63,10.24
1542386892672370910,288,0,/imu_data_acquisition2,43181.0,0.0390014648438,-0.0501708984375,0.758972167969,0.648010253906,-18.0,9.8125,8.5,0.6,-0.86,11.1
1542386892680890083,289,0,/imu_data_acquisition2,43191.0,0.037353515625,-0.0508422851562,0.759399414062,0.647583007812,-14.625,7.0625,6.875,0.79,-1.01,10.35
1542386892691853046,290,0,/imu_data_acquisition2,43201.0,0.0360717773438,-0.0513916015625,0.759704589844,0.647216796875,-14.625,7.0625,6.875,1.09,-1.41,10.65
1542386892700702905,291,0,/imu_data_acquisition2,43210.0,0.0350952148438,-0.0519409179688,0.760009765625,0.646911621094,-11.875,4.375,5.75,1.09,-1.41,10.65
1542386892710407018,292,0,/imu_data_acquisition2,43221.0,0.0343627929688,-0.0523681640625,0.760192871094,0.646667480469,-8.9375,3.125,4.0625,1.41,-0.66,10.4
1542386892722218036,293,0,/imu_data_acquisition2,43232.0,0.0336303710938,-0.052734375,0.760437011719,0.646423339844,-8.5625,2.375,3.5625,1.06,-0.33,10.2
1542386892732943058,294,0,/imu_data_acquisition2,43242.0,0.0330200195312,-0.0531616210938,0.760559082031,0.646240234375,-10.0625,1.5625,3.8125,1.03,-0.29,10.16
1542386892739526987,295,0,/imu_data_acquisition2,43250.0,0.0323486328125,-0.0537719726562,0.7607421875,0.64599609375,-10.0625,1.5625,3.8125,1.03,-0.29,10.16
1542386892750489950,296,0,/imu_data_acquisition2,43261.0,0.03173828125,-0.054443359375,0.760864257812,0.645874023438,-10.6875,0.125,3.3125,0.94,-0.38,9.96
1542386892762101888,297,0,/imu_data_acquisition2,43271.0,0.0310668945312,-0.0552978515625,0.760986328125,0.645690917969,-12.5,-0.375,3.1875,0.95,-0.05,9.74
1542386892770421028,298,0,/imu_data_acquisition2,43281.0,0.0303344726562,-0.0562744140625,0.761047363281,0.6455078125,-16.6875,-0.75,2.6875,1.23,-0.98,11.0
1542386892782079935,299,0,/imu_data_acquisition2,43292.0,0.0294799804688,-0.057373046875,0.761108398438,0.645385742188,-16.0,-2.25,1.0625,0.96,-0.28,10.09
1542386892791491985,300,0,/imu_data_acquisition2,43301.0,0.0287475585938,-0.0585327148438,0.761108398438,0.645324707031,-16.0,-2.25,1.0625,1.02,-0.41,10.73
1542386892801964998,301,0,/imu_data_acquisition2,43311.0,0.0279541015625,-0.0596923828125,0.760986328125,0.645385742188,-15.375,-0.9375,-0.75,1.0,-0.55,10.41
1542386892811480045,302,0,/imu_data_acquisition2,43322.0,0.0272216796875,-0.0607299804688,0.760864257812,0.645446777344,-13.25,1.1875,-2.125,1.01,-0.16,10.1
1542386892821790933,303,0,/imu_data_acquisition2,43332.0,0.0264282226562,-0.0614624023438,0.760681152344,0.645629882812,-11.0625,2.9375,-2.4375,0.69,-0.74,10.18
1542386892831877946,304,0,/imu_data_acquisition2,43341.0,0.025634765625,-0.06201171875,0.760498046875,0.645874023438,-11.0625,2.9375,-2.4375,1.04,-0.01,-0.01
1542386892841006994,305,0,/imu_data_acquisition2,43351.0,0.025390625,-0.06201171875,0.760437011719,0.645935058594,-1.5,2.125,-1.375,0.76,-1.58,10.47
1542386892850677967,306,0,/imu_data_acquisition2,43361.0,0.0250244140625,-0.0621337890625,0.760314941406,0.646118164062,-4.0625,2.3125,-1.9375,0.76,-1.58,10.47
1542386892862258911,307,0,/imu_data_acquisition2,43371.0,0.0248413085938,-0.0620727539062,0.76025390625,0.646179199219,-1.0625,2.5625,-1.3125,1.12,-0.78,9.66
1542386892871474027,308,0,/imu_data_acquisition2,43382.0,0.0247802734375,-0.0618286132812,0.760192871094,0.646240234375,4.0625,2.4375,-1.0,0.58,-0.81,10.38
1542386892882040977,309,0,/imu_data_acquisition2,43392.0,0.0248413085938,-0.0614013671875,0.760192871094,0.646301269531,4.9375,2.5625,-1.1875,0.83,-0.51,9.96
1542386892889050960,310,0,/imu_data_acquisition2,43399.0,0.0249633789062,-0.0609741210938,0.760131835938,0.646423339844,4.9375,2.5625,-1.1875,0.83,-0.51,9.96
1542386892900154113,311,0,/imu_data_acquisition2,43410.0,0.025146484375,-0.0604858398438,0.760131835938,0.646484375,5.5,2.5625,-1.375,0.61,-0.54,9.94
1542386892911180019,312,0,/imu_data_acquisition2,43421.0,0.0252685546875,-0.0599365234375,0.760070800781,0.646545410156,5.75,2.875,-1.5,0.72,-0.49,9.88
1542386892923522949,313,0,/imu_data_acquisition2,43432.0,0.0254516601562,-0.0594482421875,0.760009765625,0.646667480469,5.6875,1.625,-1.6875,0.5,-0.5,10.4
1542386892931870937,314,0,/imu_data_acquisition2,43442.0,0.0256958007812,-0.05908203125,0.759948730469,0.646789550781,4.5625,-0.1875,-1.875,0.57,-0.56,10.31
1542386892940754890,315,0,/imu_data_acquisition2,43451.0,0.0259399414062,-0.0587768554688,0.759887695312,0.646911621094,4.5625,-0.1875,-1.875,0.57,-0.56,10.31
1542386892953640937,316,0,/imu_data_acquisition2,43462.0,0.0259399414062,-0.0582885742188,0.759948730469,0.646850585938,4.0625,-0.0625,-1.8125,0.98,-0.69,10.02
1542386892961786985,317,0,/imu_data_acquisition2,43472.0,-6.103515625e-05,-6.103515625e-05,-6.103515625e-05,0.64697265625,4.25,0.0625,-1.6875,0.82,-0.53,10.03
1542386892971812009,318,0,/imu_data_acquisition2,43482.0,0.0260009765625,-0.0574951171875,0.759826660156,0.647094726562,4.3125,0.75,-1.875,0.94,-0.52,9.85
1542386892984122991,319,0,/imu_data_acquisition2,43493.0,0.0262451171875,-0.05712890625,0.759704589844,0.647216796875,4.4375,0.625,-2.0,0.57,-0.57,10.02
1542386892990860939,320,0,/imu_data_acquisition2,43501.0,0.0264282226562,-0.0567626953125,0.759643554688,0.647338867188,4.5,1.375,-2.0,0.57,-0.57,10.02
1542386893000482082,321,0,/imu_data_acquisition2,43511.0,0.0264892578125,-0.056396484375,0.759399414062,0.647583007812,4.125,2.125,-1.9375,0.92,-0.53,10.1
1542386893009799957,322,0,/imu_data_acquisition2,43519.0,0.0264282226562,-0.0558471679688,0.759338378906,0.647766113281,4.25,1.8125,-2.25,0.6,-0.55,9.99
1542386893022200107,323,0,/imu_data_acquisition2,43532.0,0.026123046875,-0.05517578125,0.75927734375,0.647888183594,4.375,2.875,-2.0625,0.68,-0.55,10.04
1542386893032035112,324,0,/imu_data_acquisition2,43542.0,0.0259399414062,-0.0545654296875,0.759216308594,0.648010253906,4.5625,2.75,-2.125,0.79,-0.38,10.02
1542386893039746999,325,0,/imu_data_acquisition2,43549.0,0.02587890625,-0.053955078125,0.759155273438,0.648193359375,4.6875,2.5625,-2.1875,0.79,-0.38,10.02
1542386893049936056,326,0,/imu_data_acquisition2,43560.0,0.0257568359375,-0.0534057617188,0.759033203125,0.648315429688,4.375,2.75,-2.125,0.69,-0.57,9.89
1542386893061028957,327,0,/imu_data_acquisition2,43571.0,0.0254516601562,-0.052734375,0.758972167969,0.648498535156,4.875,3.9375,-2.375,0.53,-0.68,10.17
1542386893073515892,328,0,/imu_data_acquisition2,43582.0,0.025146484375,-0.0519409179688,0.758911132812,0.648620605469,6.3125,4.6875,-2.25,1.0,-0.62,9.9
1542386893083093881,329,0,/imu_data_acquisition2,43593.0,0.025146484375,-0.0510864257812,0.758850097656,0.648803710938,8.25,5.6875,-2.4375,0.64,-0.58,10.18
1542386893090996980,330,0,/imu_data_acquisition2,43601.0,0.0249633789062,-0.0499877929688,0.758728027344,0.648986816406,9.5,7.25,-2.5625,0.64,-0.58,10.18
1542386893101525068,331,0,/imu_data_acquisition2,43610.0,-6.103515625e-05,-6.103515625e-05,-6.103515625e-05,0.649169921875,10.125,8.0,-2.4375,0.73,-0.52,10.1
1542386893111457109,332,0,/imu_data_acquisition2,43620.0,0.0247802734375,-0.0476684570312,0.758605957031,0.649291992188,10.75,8.3125,-0.0625,0.76,-0.55,10.0
1542386893121479034,333,0,/imu_data_acquisition2,43632.0,0.0247192382812,-0.04638671875,0.758544921875,0.649475097656,11.375,9.6875,-2.375,0.72,-0.27,10.07
1542386893132590055,334,0,/imu_data_acquisition2,43642.0,0.0245971679688,-0.0450439453125,0.758483886719,0.649658203125,11.3125,-0.0625,-0.0625,0.76,-0.32,10.25
1542386893140889883,335,0,/imu_data_acquisition2,43650.0,0.0244750976562,-0.0436401367188,0.758422851562,0.649841308594,11.125,11.5,-2.1875,0.76,-0.32,10.25
1542386893149959087,336,0,/imu_data_acquisition2,43660.0,0.0242309570312,-0.0422973632812,0.758422851562,0.649963378906,10.75,12.375,-2.0625,0.62,-0.01,-0.01
1542386893162488937,337,0,/imu_data_acquisition2,43672.0,0.02392578125,-0.0408935546875,0.758361816406,0.650146484375,10.0625,13.5,-1.9375,0.68,-0.11,10.33
1542386893172699928,338,0,/imu_data_acquisition2,43682.0,0.0234985351562,-0.0394897460938,0.75830078125,0.650329589844,9.1875,14.5625,-2.3125,1.07,0.29,8.93
1542386893182874917,339,0,/imu_data_acquisition2,43693.0,0.0228271484375,-0.0379028320312,0.758239746094,0.650512695312,8.6875,18.8125,-2.375,1.44,-0.01,-0.01
1542386893190807104,340,0,/imu_data_acquisition2,43699.0,0.0218505859375,-0.0361328125,0.758178710938,0.650695800781,8.375,22.5,-2.3125,1.44,-1.11,10.19
1542386893200608968,341,0,/imu_data_acquisition2,43710.0,0.0206298828125,-0.0341186523438,0.758056640625,0.651000976562,8.5625,25.9375,-3.625,1.04,0.42,9.84
1542386893211493968,342,0,/imu_data_acquisition2,43722.0,0.0193481445312,-0.0321044921875,0.7578125,0.6513671875,7.75,27.4375,-4.75,1.17,-0.45,9.55
1542386893222553014,343,0,/imu_data_acquisition2,43733.0,0.0174560546875,-0.0297241210938,0.757568359375,0.65185546875,6.6875,35.5,-6.375,2.52,0.33,7.52
1542386893234020948,344,0,/imu_data_acquisition2,43743.0,0.0151977539062,-0.02685546875,0.757080078125,0.652587890625,10.875,53.4375,-12.125,1.53,-1.66,8.85
1542386893240427970,345,0,/imu_data_acquisition2,43751.0,0.0123901367188,-0.023193359375,0.756530761719,0.653442382812,10.875,53.4375,-12.125,1.53,-1.66,8.85
1542386893249294996,346,0,/imu_data_acquisition2,43759.0,0.00860595703125,-0.0184326171875,0.756103515625,0.654174804688,12.625,70.5625,-9.3125,1.02,-2.08,9.98
1542386893261373043,347,0,/imu_data_acquisition2,43771.0,0.00433349609375,-0.0127563476562,-6.103515625e-05,0.655151367188,17.5,82.1875,-13.4375,1.33,-2.41,10.04
1542386893273509979,348,0,/imu_data_acquisition2,43784.0,-0.00030517578125,-0.00604248046875,0.75439453125,0.656372070312,25.375,107.5625,-12.0,0.6,-0.23,10.11
1542386893285590887,349,0,/imu_data_acquisition2,43795.0,-0.0057373046875,0.00152587890625,0.753723144531,0.657165527344,25.375,-0.0625,-0.0625,0.83,1.28,9.68
1542386893298697948,350,0,/imu_data_acquisition2,43802.0,-0.0118408203125,0.0101928710938,0.7529296875,0.657958984375,29.5625,122.3125,-12.875,0.83,1.28,9.68
1542386893303042888,351,0,/imu_data_acquisition2,43813.0,-0.018798828125,0.0194091796875,0.752136230469,0.658447265625,28.0625,133.1875,-10.375,1.89,0.0,9.49
1542386893313267946,352,0,/imu_data_acquisition2,43822.0,-0.026611328125,0.029296875,0.751220703125,0.658874511719,27.25,147.3125,-9.9375,1.89,0.0,9.49
1542386893326508045,353,0,/imu_data_acquisition2,43835.0,-0.0361938476562,0.0396728515625,0.750305175781,0.658874511719,17.875,166.3125,-7.4375,0.01,1.11,10.33
1542386893334028959,354,0,/imu_data_acquisition2,43845.0,-0.0469360351562,0.050537109375,0.7490234375,0.658935546875,5.1875,185.5,-13.0,-0.41,1.52,10.58
1542386893342340946,355,0,/imu_data_acquisition2,43851.0,-0.0584106445312,0.0611572265625,0.747436523438,0.658935546875,5.1875,185.5,-13.0,-0.41,1.52,10.58
1542386893352144002,356,0,/imu_data_acquisition2,43861.0,-0.0703735351562,0.071533203125,0.745666503906,0.658752441406,-0.25,188.4375,-13.625,0.65,1.25,12.08
1542386893363547086,357,0,/imu_data_acquisition2,43874.0,-0.0838012695312,0.0827026367188,0.74365234375,0.658081054688,-14.125,231.375,-15.5625,-1.25,-1.56,13.65
1542386893374044895,358,0,/imu_data_acquisition2,43884.0,-0.0054931640625,-6.103515625e-05,-6.103515625e-05,0.6572265625,-14.125,231.375,-15.5625,-1.25,-1.56,13.65
1542386893386707067,359,0,/imu_data_acquisition2,43895.0,-0.116577148438,0.108093261719,0.737426757812,0.656494140625,-13.0,263.3125,-25.5625,-1.29,1.02,12.41
1542386893392837047,360,0,/imu_data_acquisition2,43903.0,-0.136657714844,0.124084472656,0.73193359375,0.655883789062,-10.625,307.625,-40.625,-1.29,1.02,12.41
1542386893401746988,361,0,/imu_data_acquisition2,43911.0,-0.160278320312,0.141479492188,0.724914550781,0.65478515625,-23.625,352.5625,-51.8125,-2.49,0.67,13.14
1542386893415302038,362,0,/imu_data_acquisition2,43924.0,-0.186340332031,0.161193847656,0.716247558594,0.652954101562,-22.0625,396.125,-57.75,-3.16,2.28,11.06
1542386893423644065,363,0,/imu_data_acquisition2,43934.0,-0.214538574219,0.181213378906,0.706298828125,0.649841308594,-56.3125,435.0,-62.5,-4.78,0.51,10.84
1542386893435725927,364,0,/imu_data_acquisition2,43945.0,-0.244323730469,0.200439453125,0.695373535156,0.645385742188,-61.6875,431.0625,-69.4375,-5.12,0.92,9.84
1542386893440716981,365,0,/imu_data_acquisition2,43951.0,-0.274047851562,0.21875,0.683288574219,0.640502929688,-61.6875,431.0625,-69.4375,-5.12,0.92,9.84
1542386893452903985,366,0,/imu_data_acquisition2,43962.0,-0.302429199219,0.235473632812,0.670471191406,0.63525390625,-63.9375,411.6875,-74.0,-6.22,0.95,11.0
1542386893461281061,367,0,/imu_data_acquisition2,43970.0,-0.328857421875,0.24853515625,0.658142089844,0.630065917969,-79.1875,366.9375,-78.5,-2.36,-6.22,39.99
1542386893474765062,368,0,/imu_data_acquisition2,43984.0,-0.349975585938,0.255615234375,0.647766113281,0.626586914062,-85.8125,268.25,-85.25,3.34,4.16,34.67
1542386893484153032,369,0,/imu_data_acquisition2,43995.0,-0.359558105469,0.256103515625,0.640502929688,0.62841796875,-36.9375,101.5625,-94.75,3.33,3.82,24.94
1542386893489218950,370,0,/imu_data_acquisition2,44000.0,-0.361755371094,0.249938964844,0.637573242188,0.632568359375,-36.8125,-29.125,-86.25,3.33,3.82,24.94
1542386893501059055,371,0,/imu_data_acquisition2,44012.0,-0.359558105469,0.239318847656,0.638061523438,0.637451171875,-44.125,-112.6875,-72.0625,3.77,2.82,8.26
1542386893513605117,372,0,/imu_data_acquisition2,44024.0,-0.354919433594,0.227416992188,0.640075683594,0.642395019531,-39.9375,-147.875,-59.3125,3.33,2.69,4.65
1542386893524794101,373,0,/imu_data_acquisition2,44034.0,-0.00543212890625,-6.103515625e-05,-6.103515625e-05,0.646911621094,-31.875,-154.0625,-47.625,2.79,2.66,3.26
1542386893534821987,374,0,/imu_data_acquisition2,44045.0,-0.342895507812,0.205322265625,0.6455078125,0.65087890625,-13.75,-146.375,-22.5,1.64,2.77,6.92
1542386893543950080,375,0,/imu_data_acquisition2,44052.0,-0.335998535156,0.195861816406,0.648681640625,0.654174804688,-13.75,-146.375,-22.5,1.64,2.77,6.92
1542386893549364089,376,0,/imu_data_acquisition2,44060.0,-0.328308105469,0.187072753906,0.652526855469,0.656799316406,-5.875,-148.875,-7.625,1.36,2.4,9.6
1542386893562896966,377,0,/imu_data_acquisition2,44072.0,-0.319152832031,0.178344726562,0.657348632812,0.658996582031,1.1875,-161.625,6.8125,-0.18,1.44,16.63
1542386893574878931,378,0,/imu_data_acquisition2,44085.0,-0.307861328125,0.168701171875,0.663391113281,0.660827636719,7.0625,-190.0,20.25,-0.72,-0.15,15.97
1542386893585993051,379,0,/imu_data_acquisition2,44094.0,-0.293823242188,0.156860351562,0.670959472656,0.662475585938,8.125,-233.75,31.125,-0.72,-0.15,15.97
1542386893592603921,380,0,/imu_data_acquisition2,44102.0,-0.277221679688,0.142761230469,0.679565429688,0.664001464844,7.4375,-275.3125,37.25,-1.21,-1.7,13.95
1542386893605102062,381,0,/imu_data_acquisition2,44115.0,-0.25830078125,0.127258300781,0.688354492188,0.665771484375,14.5,-306.5,36.0,-2.45,-5.37,2.92
1542386893609205961,382,0,/imu_data_acquisition2,44120.0,-0.237670898438,0.111572265625,0.6962890625,0.66796875,30.125,-319.1875,27.5,-2.45,-5.37,2.92
1542386893623698949,383,0,/imu_data_acquisition2,44134.0,-0.216430664062,0.097412109375,0.702453613281,0.671020507812,51.5,-308.3125,11.625,-2.86,-5.17,1.47
1542386893639554977,385,0,/imu_data_acquisition2,44150.0,-0.178283691406,0.0773315429688,0.707275390625,0.679748535156,79.6875,-225.5625,-32.125,-3.3,-4.55,7.63
1542386893651624917,386,0,/imu_data_acquisition2,44161.0,-0.162780761719,0.0699462890625,0.706481933594,0.685180664062,74.8125,-193.0625,-53.1875,-3.16,-0.85,-0.01
1542386893660439014,387,0,/imu_data_acquisition2,44170.0,-0.14794921875,0.0621948242188,0.70458984375,0.691223144531,68.6875,-188.125,-68.9375,-3.8,-1.05,17.41
1542386893670084953,388,0,/imu_data_acquisition2,44180.0,-0.132690429688,0.0535888671875,0.7021484375,0.697509765625,65.625,-197.6875,-75.6875,-4.43,-0.16,17.98
1542386893685237884,389,0,/imu_data_acquisition2,44192.0,-0.116333007812,0.0440063476562,0.699768066406,0.703430175781,66.25,-215.3125,-73.875,-4.73,-0.43,16.83
1542386893694124937,390,0,/imu_data_acquisition2,44201.0,-0.0988159179688,0.0338134765625,0.697509765625,0.708923339844,70.625,-229.9375,-69.25,-5.83,-1.97,15.13
1542386893699109077,391,0,/imu_data_acquisition2,44210.0,-6.103515625e-05,-6.103515625e-05,-6.103515625e-05,0.714172363281,84.1875,-234.3125,-4.0625,-1.12,-0.01,-0.01
1542386893713742017,392,0,/imu_data_acquisition2,44223.0,-0.0601806640625,0.015869140625,0.692016601562,0.719177246094,105.5625,-233.0625,-68.5,-6.6,0.3,15.21
1542386893724092960,393,0,/imu_data_acquisition2,44231.0,-0.0397338867188,0.00848388671875,0.689025878906,0.723571777344,117.9375,-228.9375,-63.125,-6.8,2.18,15.04
1542386893744410991,395,0,/imu_data_acquisition2,44253.0,-0.00128173828125,-0.006591796875,0.684997558594,0.728515625,96.875,-217.0625,-12.875,-6.97,4.09,14.67
1542386893760282993,396,0,/imu_data_acquisition2,44259.0,0.0156860351562,-0.0145874023438,-6.103515625e-05,0.728698730469,81.3125,-207.0,-7.0625,-2.5,-0.01,-0.01
1542386893762554883,397,0,/imu_data_acquisition2,44270.0,0.0316772460938,-0.0228271484375,0.68505859375,0.727416992188,71.625,-200.875,14.1875,-8.55,3.27,18.18
1542386893775361061,398,0,/imu_data_acquisition2,44283.0,0.047607421875,-0.031494140625,0.686645507812,0.724731445312,68.1875,-204.0625,34.3125,-8.8,2.49,16.59
1542386893782982110,399,0,/imu_data_acquisition2,44292.0,0.063720703125,-0.0402221679688,0.689208984375,0.720642089844,70.375,-205.375,53.875,-9.16,0.93,16.17
1542386893791405916,400,0,/imu_data_acquisition2,44302.0,0.0801391601562,-0.0480346679688,0.692565917969,0.715270996094,82.125,-200.625,71.0,-11.16,-0.88,20.25
1542386893801397085,401,0,/imu_data_acquisition2,44311.0,0.0980224609375,-0.0545654296875,0.696533203125,0.708679199219,106.75,-202.1875,83.3125,-11.86,0.47,18.63
1542386893814538955,402,0,/imu_data_acquisition2,44324.0,0.117614746094,-0.0608520507812,0.700866699219,0.700866699219,124.3125,-214.1875,95.4375,-12.47,0.87,15.24
1542386893822695970,403,0,/imu_data_acquisition2,44332.0,0.137084960938,-0.0677490234375,0.705810546875,0.691711425781,120.125,-218.625,112.625,-12.86,0.93,11.71
1542386893832611083,404,0,/imu_data_acquisition2,44342.0,0.154602050781,-0.0753784179688,0.711364746094,0.681457519531,101.0625,-208.3125,129.625,-0.76,-0.01,-0.01
1542386893841592073,405,0,/imu_data_acquisition2,44351.0,0.169250488281,-0.0833740234375,0.71728515625,0.670776367188,75.5,-186.4375,139.1875,-14.0,-4.16,5.63
1542386893850212097,406,0,/imu_data_acquisition2,44360.0,0.181213378906,-0.0907592773438,0.723022460938,0.660400390625,58.75,-159.25,136.875,-14.64,-6.23,5.1
1542386893860465049,407,0,/imu_data_acquisition2,44370.0,0.191528320312,-0.0966186523438,0.72802734375,0.651123046875,55.875,-132.75,120.25,-15.99,-9.64,0.99
1542386893872139930,408,0,/imu_data_acquisition2,44382.0,0.200866699219,-0.099853515625,0.731872558594,0.643432617188,65.75,-106.125,92.1875,-16.36,-8.95,-2.74
1542386893881954908,409,0,/imu_data_acquisition2,44393.0,0.208374023438,-0.0999145507812,0.734680175781,0.637878417969,73.375,-65.0,60.5,-16.42,-7.19,-4.45
1542386893889900922,410,0,/imu_data_acquisition2,44399.0,0.211853027344,-0.0973510742188,0.736938476562,0.634460449219,59.75,-9.4375,36.5,-13.17,-2.8,-16.36
1542386893900074005,411,0,/imu_data_acquisition2,44411.0,0.205688476562,-0.09326171875,0.740600585938,0.632873535156,-2.875,91.75,38.625,9.28,-7.88,17.0
1542386893910449028,412,0,/imu_data_acquisition2,44421.0,0.191162109375,-0.0906372070312,0.744201660156,0.633605957031,-83.0625,156.5625,29.6875,11.74,0.07,26.06
1542386893919657945,413,0,/imu_data_acquisition2,44429.0,0.178527832031,-0.0885620117188,0.745971679688,0.635437011719,-79.0,132.625,5.875,3.1,-0.16,4.37
1542386893934469938,414,0,/imu_data_acquisition2,44445.0,0.16455078125,-0.0880126953125,0.746520996094,0.638671875,-106.5,132.6875,-10.6875,3.08,-0.78,10.16
1542386893941549062,415,0,/imu_data_acquisition2,44452.0,0.145690917969,-0.0867309570312,0.7470703125,0.642761230469,-138.625,181.375,-15.125,-0.41,-1.35,20.08
1542386893948156118,416,0,/imu_data_acquisition2,44459.0,0.12841796875,-0.0828857421875,0.747863769531,0.64599609375,-102.375,187.0625,-11.125,-2.02,2.58,-0.01
1542386893960061073,417,0,/imu_data_acquisition2,44471.0,0.114379882812,-0.0786743164062,0.748779296875,0.648132324219,-71.9375,159.8125,-4.25,0.11,-0.55,12.53
1542386893978339910,419,0,/imu_data_acquisition2,44489.0,0.0908813476562,-0.0692749023438,0.751892089844,0.649353027344,-39.1875,140.3125,15.625,-0.14,-6.49,15.21
1542386893990010976,420,0,/imu_data_acquisition2,44500.0,0.0802001953125,-0.0648193359375,0.753173828125,0.649658203125,-41.25,130.625,11.1875,-1.02,-4.37,16.43
1542386894000838994,421,0,/imu_data_acquisition2,44510.0,0.0714721679688,-0.0606079101562,0.753845214844,0.650390625,-29.875,111.375,1.375,-1.12,-1.57,16.41
1542386894008790969,422,0,/imu_data_acquisition2,44519.0,0.0648193359375,-0.0562744140625,0.754272460938,0.65087890625,-12.875,92.9375,-0.4375,-0.54,-0.81,15.52
1542386894019978046,423,0,/imu_data_acquisition2,44530.0,0.0598754882812,-0.0523071289062,0.754821777344,0.651123046875,-2.5,75.875,2.5,-0.6,1.18,16.05
1542386894029195070,424,0,/imu_data_acquisition2,44539.0,0.0555419921875,-0.0488891601562,0.755432128906,0.651000976562,-2.0625,65.1875,5.5625,-1.11,1.15,14.32
1542386894039700984,425,0,/imu_data_acquisition2,44549.0,0.0519409179688,-0.0470581054688,0.756042480469,0.650756835938,-11.5,46.5625,8.0,0.77,0.94,9.62
1542386894048214912,426,0,/imu_data_acquisition2,44559.0,0.0488891601562,-0.0460815429688,0.756774902344,0.650207519531,-13.3125,35.125,11.375,1.3,-0.18,11.9
1542386894059195995,427,0,/imu_data_acquisition2,44569.0,0.045654296875,-0.0140991210938,-6.103515625e-05,0.649658203125,-17.6875,34.75,11.875,-0.84,0.45,14.5
1542386894068497896,428,0,/imu_data_acquisition2,44579.0,0.0425415039062,-0.045166015625,0.758117675781,0.649169921875,-5.5,-0.0625,-0.0625,0.32,-0.28,11.14
1542386894078474044,429,0,/imu_data_acquisition2,44589.0,0.040283203125,-0.0457763671875,0.758666992188,0.648620605469,-22.3125,15.625,10.3125,0.9,-0.23,10.23
1542386894088257074,430,0,/imu_data_acquisition2,44599.0,0.0382690429688,-0.0464477539062,0.759094238281,0.648193359375,-21.6875,12.875,8.625,0.72,-0.81,11.76
1542386894098629951,431,0,/imu_data_acquisition2,44609.0,0.0368041992188,-0.0473022460938,0.759338378906,0.64794921875,-18.125,6.3125,5.5,1.07,-1.0,10.5
1542386894108635902,432,0,/imu_data_acquisition2,44619.0,0.035400390625,-0.0481567382812,0.759582519531,0.647644042969,-18.125,6.3125,5.5,1.4,-0.5,10.42
1542386894118679046,433,0,/imu_data_acquisition2,44629.0,0.0341796875,-6.103515625e-05,-6.103515625e-05,0.647399902344,-14.0625,7.0,4.875,0.58,-0.83,10.75
1542386894131123065,434,0,/imu_data_acquisition2,44641.0,0.0335083007812,-0.048828125,0.760009765625,0.647216796875,-5.875,4.8125,3.5,1.06,-0.86,10.41
1542386894141494989,435,0,/imu_data_acquisition2,44650.0,0.0330200195312,-0.0488891601562,0.760192871094,0.647033691406,-4.75,3.625,3.0625,1.22,-0.54,10.74
1542386894150438070,436,0,/imu_data_acquisition2,44660.0,0.032470703125,-0.0491333007812,0.760375976562,0.646850585938,-5.8125,2.875,3.5625,0.82,0.01,10.31
1542386894159939050,437,0,/imu_data_acquisition2,44670.0,0.0320434570312,-0.0494995117188,0.760498046875,0.646606445312,-6.625,1.3125,3.5625,0.86,-0.47,9.82
1542386894170639991,438,0,/imu_data_acquisition2,44680.0,0.0316162109375,-0.0499877929688,0.760681152344,0.646423339844,-7.3125,0.0,3.4375,0.9,-0.17,10.3
1542386894178800106,439,0,/imu_data_acquisition2,44689.0,0.0311279296875,-0.050537109375,0.760803222656,0.646240234375,-8.75,-0.0625,3.0625,1.14,-0.29,10.14
1542386894190192937,440,0,/imu_data_acquisition2,44700.0,0.0305786132812,-0.0512084960938,0.760925292969,0.646118164062,-9.5,-0.125,2.75,0.91,0.02,10.41
1542386894199954032,441,0,/imu_data_acquisition2,44710.0,0.0299682617188,-0.0518798828125,0.760986328125,0.64599609375,-10.5,-0.375,2.375,1.38,-0.27,10.24
1542386894212694883,442,0,/imu_data_acquisition2,44720.0,0.0292358398438,-0.005615234375,-6.103515625e-05,0.645874023438,-11.0625,2.0625,2.0625,1.1,0.21,9.91
1542386894221801042,443,0,/imu_data_acquisition2,44731.0,0.0285034179688,-0.0530395507812,0.761108398438,0.645812988281,-10.5,2.3125,1.5625,0.83,-0.44,10.55
1542386894229893922,444,0,/imu_data_acquisition2,44740.0,0.0278930664062,-0.053466796875,0.761108398438,0.645812988281,-8.8125,2.25,0.8125,0.9,-0.76,10.5
1542386894242022037,445,0,/imu_data_acquisition2,44751.0,0.0274047851562,-0.0537719726562,0.761108398438,0.645812988281,-6.5625,1.75,0.3125,0.93,-0.65,10.54
1542386894250058889,446,0,/imu_data_acquisition2,44760.0,0.0270385742188,-0.0540161132812,0.761108398438,0.645812988281,-4.5625,1.875,0.0,0.79,-0.01,-0.01
1542386894258840084,447,0,/imu_data_acquisition2,44769.0,0.0267944335938,-0.0540771484375,0.761108398438,0.645812988281,-2.5625,1.625,0.0,0.98,-1.03,10.32
1542386894273355007,448,0,/imu_data_acquisition2,44780.0,0.0266723632812,-0.0540161132812,0.761108398438,0.645874023438,-0.6875,1.5,-0.3125,0.71,-0.89,10.05
1542386894281347036,449,0,/imu_data_acquisition2,44790.0,0.026611328125,-0.0538940429688,0.761108398438,0.645874023438,0.9375,1.125,-0.25,0.88,-0.88,10.15
1542386894288814067,450,0,/imu_data_acquisition2,44800.0,0.026611328125,-0.0536499023438,0.761108398438,0.645874023438,2.0625,1.8125,-0.25,0.44,-0.57,10.13
1542386894302256107,451,0,/imu_data_acquisition2,44810.0,0.0266723632812,-0.00653076171875,-6.103515625e-05,0.645874023438,2.8125,1.875,-0.5625,0.55,-0.4,9.94
1542386894310796022,452,0,/imu_data_acquisition2,44820.0,0.0266723632812,-0.0530395507812,0.761108398438,0.645935058594,3.0,2.3125,-0.8125,0.61,-0.5,10.04
1542386894320311069,453,0,/imu_data_acquisition2,44830.0,0.0266723632812,-0.052734375,0.761047363281,0.64599609375,2.875,2.3125,-1.1875,0.39,-0.44,10.22
1542386894335073947,454,0,/imu_data_acquisition2,44845.0,0.0267944335938,-0.052490234375,0.760986328125,0.646118164062,2.9375,1.25,-1.6875,0.64,-0.27,9.89
1542386894344175100,455,0,/imu_data_acquisition2,44852.0,0.02685546875,-0.05224609375,0.760864257812,0.646240234375,2.375,0.9375,-1.6875,0.52,-0.4,10.28
1542386894349212884,456,0,/imu_data_acquisition2,44860.0,0.0269775390625,-0.0521240234375,0.760803222656,0.646301269531,2.4375,0.25,-0.0625,0.54,-0.57,10.22
1542386894362853050,457,0,/imu_data_acquisition2,44872.0,0.0269165039062,-6.103515625e-05,-6.103515625e-05,0.646423339844,2.5625,0.625,-1.875,0.94,-0.59,10.08
1542386894369215011,458,0,/imu_data_acquisition2,44879.0,0.0266723632812,-0.0513916015625,0.760620117188,0.646606445312,2.5625,1.25,-2.0625,0.54,-0.52,10.02
1542386894378823995,459,0,/imu_data_acquisition2,44890.0,0.0264892578125,-0.0509643554688,0.760559082031,0.646728515625,2.5625,1.125,-1.875,0.54,-0.46,10.08
1542386894392287015,460,0,/imu_data_acquisition2,44901.0,0.0262451171875,-0.050537109375,0.760498046875,0.646850585938,2.8125,1.625,-2.0,0.68,-0.52,10.1
1542386894400645017,461,0,/imu_data_acquisition2,44910.0,0.0260009765625,-0.050048828125,0.760437011719,0.64697265625,3.375,2.1875,-1.9375,0.62,-0.62,10.16
1542386894408987998,462,0,/imu_data_acquisition2,44920.0,0.02587890625,-0.049560546875,0.760375976562,0.647094726562,4.4375,2.75,-1.875,0.84,-0.64,10.11
1542386894420726060,463,0,/imu_data_acquisition2,44931.0,0.0254516601562,-0.0488891601562,0.760314941406,0.647216796875,5.3125,3.875,-2.0,0.4,-0.69,10.06
1542386894433590888,464,0,/imu_data_acquisition2,44942.0,0.0252075195312,-0.0482177734375,0.76025390625,0.647338867188,6.25,3.9375,-2.0625,0.65,-0.62,10.22
1542386894438956022,465,0,/imu_data_acquisition2,44950.0,0.0249633789062,-0.0474243164062,0.760192871094,0.647521972656,6.8125,4.375,-2.1875,0.62,-0.57,10.17
1542386894450485944,466,0,/imu_data_acquisition2,44961.0,0.0247802734375,-0.0465698242188,0.760131835938,0.647644042969,7.6875,3.8125,-2.375,0.44,-0.56,9.86
1542386894459889888,467,0,/imu_data_acquisition2,44970.0,0.0245361328125,-0.0457153320312,0.760009765625,0.647827148438,8.1875,4.625,-2.5625,0.5,-0.59,10.29
1542386894469173908,468,0,/imu_data_acquisition2,44980.0,0.0244750976562,-0.0447998046875,0.759948730469,0.648010253906,9.1875,4.3125,-2.6875,0.75,-0.5,9.79
1542386894482105016,469,0,/imu_data_acquisition2,44990.0,0.0244140625,-0.0438232421875,0.759826660156,0.648193359375,9.625,4.9375,-2.875,0.48,-0.54,10.07
1542386894489784002,470,0,/imu_data_acquisition2,45000.0,0.0242309570312,-0.0427856445312,0.759765625,0.648315429688,9.75,5.25,-2.75,0.33,-0.47,10.24
1542386894499321937,471,0,/imu_data_acquisition2,45010.0,0.0242309570312,-0.041748046875,0.759643554688,0.648559570312,10.0625,5.0,-3.0625,0.7,-0.26,9.98
1542386894512648105,472,0,/imu_data_acquisition2,45021.0,0.0244750976562,-0.0407104492188,0.759521484375,0.648742675781,10.625,5.625,-3.1875,0.85,-0.14,10.08
1542386894527000904,473,0,/imu_data_acquisition2,45029.0,0.024658203125,-0.0397338867188,0.759399414062,0.64892578125,10.375,6.375,-3.1875,1.01,-0.16,9.82
1542386894530014038,474,0,/imu_data_acquisition2,45041.0,0.0247192382812,-0.0386962890625,0.75927734375,0.649169921875,9.75,7.375,-3.1875,0.83,-0.27,10.18
1542386894542212009,475,0,/imu_data_acquisition2,45052.0,0.024658203125,-0.0376586914062,0.759155273438,0.649353027344,8.625,8.5625,-3.1875,0.44,-0.14,9.99
1542386894553122997,476,0,/imu_data_acquisition2,45060.0,0.0245361328125,-0.03662109375,0.759033203125,0.649597167969,8.1875,8.875,-2.8125,1.01,-0.06,10.19
1542386894559999942,477,0,/imu_data_acquisition2,45071.0,0.0243530273438,-0.0355834960938,0.758911132812,0.649780273438,7.5,9.4375,-2.625,0.87,-0.18,10.13
1542386894572544097,478,0,/imu_data_acquisition2,45081.0,0.0241088867188,-0.0345458984375,0.7587890625,0.649963378906,6.5,11.0,-2.75,1.09,0.02,9.68
1542386894580890893,479,0,/imu_data_acquisition2,45089.0,0.0234985351562,-0.033447265625,0.758666992188,0.650146484375,5.5625,14.3125,-2.875,1.07,0.27,8.91
1542386894591100931,480,0,/imu_data_acquisition2,45102.0,0.0225830078125,-0.0321044921875,0.758544921875,0.650390625,4.875,18.25,-3.3125,2.01,0.11,9.54
1542386894604664087,481,0,/imu_data_acquisition2,45112.0,0.021484375,-0.0304565429688,0.758422851562,0.650695800781,5.5,22.875,-3.875,1.31,-0.44,10.29
1542386894621124029,482,0,/imu_data_acquisition2,45125.0,0.0202026367188,-0.0286865234375,0.758178710938,0.651123046875,5.875,25.125,-5.0625,0.91,0.32,11.72
1542386894622695922,483,0,/imu_data_acquisition2,45132.0,0.0185546875,-0.0266723632812,0.757873535156,0.651550292969,5.375,30.0,-6.1875,0.42,-0.61,10.51
1542386894631640911,484,0,/imu_data_acquisition2,45141.0,0.0165405273438,-0.0242919921875,0.757507324219,0.652221679688,5.6875,36.875,-8.75,1.29,-0.62,9.18
1542386894646289110,485,0,/imu_data_acquisition2,45155.0,0.0140991210938,-0.0211791992188,0.7568359375,0.653076171875,8.1875,46.125,-12.75,2.44,-0.6,8.49
1542386894652419090,486,0,/imu_data_acquisition2,45163.0,0.0107421875,-0.0172729492188,0.75634765625,0.653869628906,9.4375,60.25,-11.0625,1.22,-2.09,9.28
1542386894660474061,487,0,/imu_data_acquisition2,45170.0,0.0107421875,-0.0172729492188,0.75634765625,0.653869628906,11.5625,72.5625,-10.5625,1.16,-2.33,10.25
1542386894669538021,488,0,/imu_data_acquisition2,45180.0,0.00250244140625,-6.103515625e-05,-6.103515625e-05,0.65576171875,19.0,83.5,-16.4375,1.58,-1.27,9.37
1542386894681324958,489,0,/imu_data_acquisition2,45191.0,-0.0023193359375,0.00030517578125,0.753967285156,0.656921386719,24.75,97.0625,-17.5625,1.52,-0.14,8.84
1542386894690571069,490,0,/imu_data_acquisition2,45200.0,-0.0023193359375,0.00030517578125,0.753967285156,0.656921386719,26.4375,112.5625,-12.5625,0.79,-0.53,10.08
1542386894702770948,491,0,/imu_data_acquisition2,45210.0,-0.014404296875,0.0171508789062,0.752258300781,0.658508300781,29.875,126.6875,-14.8125,1.12,1.31,9.63
1542386894714272022,492,0,/imu_data_acquisition2,45224.0,-0.0059814453125,-6.103515625e-05,-6.103515625e-05,0.659057617188,28.5,137.625,-11.75,0.18,-0.01,-0.01
1542386894720577001,493,0,/imu_data_acquisition2,45230.0,-0.0216064453125,0.026611328125,0.751342773438,0.659057617188,27.875,147.625,-11.8125,0.51,0.37,9.72
1542386894734867095,494,0,/imu_data_acquisition2,45245.0,-0.0384521484375,0.0470581054688,0.749206542969,0.659545898438,22.6875,162.0625,-9.6875,0.89,0.47,10.32
1542386894745182037,495,0,/imu_data_acquisition2,45256.0,-0.0384521484375,0.0470581054688,-6.103515625e-05,0.659545898438,19.3125,175.75,-11.4375,1.17,0.73,9.39
1542386894749367952,496,0,/imu_data_acquisition2,45260.0,-0.0485229492188,0.0579833984375,0.747802734375,0.659606933594,10.6875,182.5,-13.5,-0.28,2.42,10.16
1542386894761960983,497,0,/imu_data_acquisition2,45272.0,-0.0595092773438,0.0687866210938,0.746154785156,0.659545898438,-0.625,186.625,-12.8125,0.65,1.05,11.26
1542386894781075000,498,0,/imu_data_acquisition2,45290.0,-0.08447265625,0.0905151367188,0.742431640625,0.658325195312,-0.5625,207.3125,-10.6875,-1.0,-0.35,13.36
1542386894792646884,500,0,/imu_data_acquisition2,45303.0,-0.1171875,0.117736816406,0.735656738281,0.656677246094,-4.0625,271.0,-29.0,-2.12,0.41,13.08
1542386894799710988,501,0,/imu_data_acquisition2,45310.0,-0.1171875,0.117736816406,0.735656738281,0.656677246094,-5.75,314.3125,-41.8125,-1.09,0.92,12.3
1542386894808954000,502,0,/imu_data_acquisition2,45320.0,-0.137390136719,0.134338378906,0.72998046875,0.655883789062,-18.25,366.0,-0.0625,-0.83,-0.61,13.97
1542386894820951938,503,0,/imu_data_acquisition2,45330.0,-0.161499023438,0.15283203125,0.72265625,0.654479980469,-15.125,411.8125,-59.8125,-2.92,1.77,11.42
1542386894831007957,504,0,/imu_data_acquisition2,45341.0,-0.216674804688,0.195129394531,0.703063964844,0.648620605469,-26.625,437.375,-61.1875,-3.35,1.95,9.67
1542386894841218948,505,0,/imu_data_acquisition2,45351.0,-0.216674804688,0.195129394531,0.703063964844,0.648620605469,-41.6875,451.3125,-64.75,-3.53,1.52,9.9
1542386894848555088,506,0,/imu_data_acquisition2,45359.0,-0.246643066406,0.216003417969,0.69140625,0.643798828125,-39.9375,447.125,-71.875,-4.38,0.32,10.77
1542386894860110998,507,0,/imu_data_acquisition2,45370.0,-0.276062011719,0.236328125,0.678405761719,0.638549804688,-32.625,430.5,-79.5625,-6.56,0.58,11.48
1542386894872129917,508,0,/imu_data_acquisition2,45380.0,-0.303894042969,0.255615234375,0.664245605469,0.63330078125,-39.0625,383.6875,-89.125,-0.78,-0.39,20.87
1542386894879606008,509,0,/imu_data_acquisition2,45390.0,-0.329223632812,0.271545410156,0.650146484375,0.628662109375,-48.5,265.375,-93.0625,0.05,-0.01,-0.01
1542386894891426086,510,0,/imu_data_acquisition2,45401.0,-6.103515625e-05,-6.103515625e-05,-6.103515625e-05,0.626159667969,-13.1875,77.1875,-97.6875,3.55,5.53,38.04
1542386894901448011,511,0,/imu_data_acquisition2,45410.0,-0.355590820312,0.28076171875,0.631591796875,0.629150390625,-28.375,-63.0625,-82.8125,4.1,5.42,27.78
1542386894910007953,512,0,/imu_data_acquisition2,45420.0,-0.355712890625,0.273376464844,0.629699707031,0.634216308594,-46.5,-146.3125,-65.25,4.49,4.16,16.58
1542386894921485900,513,0,/imu_data_acquisition2,45430.0,-0.351867675781,0.261108398438,0.631591796875,0.639587402344,-53.3125,-175.4375,-52.125,4.18,2.71,3.41
1542386894931260108,514,0,/imu_data_acquisition2,45442.0,-0.346496582031,0.247192382812,0.635131835938,0.644592285156,-55.3125,-175.4375,-43.4375,3.47,2.25,2.3
1542386894941818952,515,0,/imu_data_acquisition2,45452.0,-0.340942382812,0.233337402344,0.638977050781,0.648864746094,-52.1875,-168.9375,-37.0,2.86,2.11,3.17
1542386894950715065,516,0,/imu_data_acquisition2,45460.0,-0.00726318359375,-6.103515625e-05,-6.103515625e-05,0.652587890625,-52.1875,-168.9375,-37.0,1.51,-0.01,-0.01
1542386894961652040,517,0,/imu_data_acquisition2,45470.0,-0.329284667969,0.207580566406,0.646606445312,0.656005859375,-45.25,-168.0625,-13.9375,1.17,2.7,11.32
1542386894970340967,518,0,/imu_data_acquisition2,45481.0,-0.32177734375,0.195007324219,0.651062011719,0.6591796875,-29.75,-205.625,-9.5,0.61,2.73,13.46
1542386894982656955,519,0,/imu_data_acquisition2,45492.0,-0.312255859375,0.181579589844,0.656494140625,0.662170410156,-23.75,-240.875,2.25,-0.64,2.02,15.31
1542386894991347074,520,0,/imu_data_acquisition2,45501.0,-0.300109863281,0.166809082031,0.663208007812,0.664978027344,-17.875,-280.4375,12.1875,-1.17,0.81,14.31
1542386894999378919,521,0,/imu_data_acquisition2,45510.0,-0.28515625,0.150329589844,-6.103515625e-05,0.667602539062,-17.875,-280.4375,12.1875,-1.82,-0.88,11.84
1542386895011560916,522,0,/imu_data_acquisition2,45521.0,-0.267395019531,0.132568359375,0.679443359375,0.670288085938,15.75,-334.5625,13.0625,-2.5,-3.33,4.04
1542386895022015094,523,0,/imu_data_acquisition2,45531.0,-0.2470703125,0.114807128906,0.687316894531,0.67333984375,47.0625,-330.9375,3.5625,-2.73,-4.11,0.01
1542386895029932975,524,0,/imu_data_acquisition2,45541.0,-0.225036621094,0.0987548828125,0.693664550781,0.677062988281,78.5,-302.5625,-8.75,-2.68,-4.01,-2.11
1542386895043227910,525,0,/imu_data_acquisition2,45552.0,-0.202819824219,0.0858764648438,0.698059082031,0.681335449219,92.0,-255.5,-20.75,-3.06,-4.03,1.56
1542386895052153110,526,0,/imu_data_acquisition2,45561.0,-0.182556152344,0.076171875,0.700378417969,0.685852050781,91.3125,-224.25,-33.5625,-4.16,-2.5,13.51
1542386895059546947,527,0,/imu_data_acquisition2,45570.0,-0.164184570312,0.0680541992188,0.701110839844,0.690551757812,91.3125,-224.25,-33.5625,-3.83,-1.17,14.0
1542386895078035116,528,0,/imu_data_acquisition2,45588.0,-0.146423339844,0.05908203125,0.701110839844,0.695373535156,64.0625,-229.5,-46.3125,-3.67,-0.53,13.0
1542386895082634925,529,0,/imu_data_acquisition2,45593.0,-0.113098144531,0.0379638671875,0.7001953125,0.703918457031,50.9375,-0.0625,-0.0625,-5.0,-1.67,16.12
1542386895091408014,530,0,/imu_data_acquisition2,45602.0,-0.113098144531,0.0379638671875,0.7001953125,0.703918457031,48.0625,-15.0625,-0.0625,-5.74,-1.93,19.1
1542386895103050947,531,0,/imu_data_acquisition2,45612.0,-0.09716796875,0.027099609375,0.69921875,0.707763671875,57.75,-232.625,-51.0625,-6.11,-0.97,20.55
1542386895111877918,532,0,/imu_data_acquisition2,45621.0,-0.080078125,0.0161743164062,-6.103515625e-05,0.711669921875,57.75,-232.625,-51.0625,-5.66,2.42,14.11
1542386895121687889,533,0,/imu_data_acquisition2,45631.0,-0.061279296875,0.00506591796875,0.696228027344,0.715148925781,72.0,-249.5,-37.625,-5.74,3.23,12.45
1542386895131767988,534,0,/imu_data_acquisition2,45643.0,-0.0422973632812,-0.0059814453125,0.695068359375,0.717712402344,60.0,-233.0,-19.8125,-5.77,3.61,12.29
1542386895142674922,535,0,/imu_data_acquisition2,45652.0,-0.0249633789062,-0.0166625976562,0.694580078125,0.718811035156,41.1875,-213.25,-1.25,-5.43,3.36,11.45
1542386895148463964,536,0,/imu_data_acquisition2,45659.0,-0.00994873046875,-0.0271606445312,0.694885253906,0.718566894531,41.1875,-213.25,-1.25,-5.43,3.36,11.45
1542386895159931898,537,0,/imu_data_acquisition2,45670.0,0.00244140625,-0.037353515625,0.695861816406,0.717163085938,21.75,-189.25,14.5625,-5.54,1.85,13.03
1542386895171255111,538,0,/imu_data_acquisition2,45681.0,0.0125732421875,-0.047119140625,0.697326660156,0.715087890625,1.25,-149.8125,31.125,-6.75,-1.11,18.81
1542386895180330991,539,0,/imu_data_acquisition2,45691.0,0.0213623046875,-0.05615234375,0.699035644531,0.712585449219,21.5625,-152.625,28.9375,-9.67,-4.99,25.87
1542386895191613912,540,0,/imu_data_acquisition2,45702.0,0.031494140625,-0.0640869140625,0.700561523438,0.710021972656,68.75,-181.1875,22.9375,-9.87,-4.39,23.52
1542386895199803113,541,0,/imu_data_acquisition2,45710.0,0.0462646484375,-0.0709228515625,0.701721191406,0.707397460938,68.75,-181.1875,22.9375,-9.87,-4.39,23.52
1542386895209197998,542,0,/imu_data_acquisition2,45720.0,0.065673828125,-0.0762939453125,0.702697753906,0.704284667969,120.5,-208.375,21.0625,-10.59,-3.08,20.71
1542386895221333980,543,0,/imu_data_acquisition2,45731.0,0.0880126953125,-0.0803833007812,0.704040527344,0.700073242188,169.875,-224.4375,49.3125,-12.88,1.46,12.32
1542386895231812000,544,0,/imu_data_acquisition2,45742.0,0.111022949219,-0.0838623046875,0.706237792969,0.694152832031,160.9375,-215.0625,76.5625,-13.71,0.76,11.58
1542386895241044998,545,0,/imu_data_acquisition2,45752.0,0.132751464844,-0.0875854492188,0.709655761719,0.686340332031,141.375,-203.5,101.6875,-15.23,-3.93,8.51
1542386895250102996,546,0,/imu_data_acquisition2,45760.0,0.15234375,-0.092041015625,0.714172363281,0.677001953125,141.375,-203.5,101.6875,-15.23,-3.93,8.51
1542386895259340047,547,0,/imu_data_acquisition2,45769.0,0.170043945312,-0.096923828125,0.718994140625,0.666870117188,124.4375,-191.375,113.875,-16.06,-5.59,5.3
1542386895271486043,548,0,/imu_data_acquisition2,45782.0,0.185546875,-0.1015625,0.723510742188,0.657104492188,93.4375,-135.75,94.125,-17.03,-9.85,-1.46
1542386895282386064,549,0,/imu_data_acquisition2,45792.0,0.198181152344,-0.104858398438,0.727355957031,0.648620605469,93.4375,-135.75,94.125,-16.28,-11.01,-3.04
1542386895291788101,550,0,/imu_data_acquisition2,45802.0,0.207824707031,-0.105407714844,0.730285644531,0.642150878906,88.0,-88.5,67.375,-15.0,-9.3,-2.21
1542386895301539897,551,0,/imu_data_acquisition2,45811.0,0.214294433594,-0.102905273438,0.732299804688,0.638122558594,83.125,-36.8125,35.9375,-13.46,-3.1,-5.57
1542386895308494091,552,0,/imu_data_acquisition2,45819.0,0.216613769531,-0.0985717773438,0.733642578125,0.636474609375,60.75,14.375,-0.0625,-13.46,-3.1,-5.57
1542386895320941925,553,0,/imu_data_acquisition2,45831.0,0.211547851562,-0.0955810546875,0.735534667969,0.636474609375,-10.125,70.5,12.125,18.09,1.01,26.86
1542386895333137989,554,0,/imu_data_acquisition2,45843.0,0.200805664062,-0.0938110351562,0.737121582031,0.638366699219,-48.625,101.5625,-20.8125,6.47,-0.01,-0.01
1542386895340780019,555,0,/imu_data_acquisition2,45852.0,0.192016601562,-0.0910034179688,0.7373046875,0.641296386719,-48.625,101.5625,-20.8125,2.85,0.02,6.87
1542386895348709106,556,0,/imu_data_acquisition2,45859.0,0.178588867188,-0.0896606445312,0.73681640625,0.645874023438,-101.75,131.0625,-31.875,2.85,0.02,6.87
1542386895360286951,557,0,/imu_data_acquisition2,45870.0,0.160095214844,-0.0885009765625,0.736267089844,0.651489257812,-143.125,174.8125,-36.375,1.14,-0.86,18.34
1542386895370807886,558,0,/imu_data_acquisition2,45882.0,0.1435546875,-0.0858764648438,0.73583984375,0.656188964844,-79.8125,151.375,-21.25,0.43,4.68,9.8
1542386895382415056,559,0,/imu_data_acquisition2,45892.0,0.1298828125,-0.0821533203125,0.73583984375,0.659484863281,-79.8125,151.375,-21.25,-0.1,3.49,11.89
1542386895392297029,560,0,/imu_data_acquisition2,45902.0,0.1162109375,-0.0785522460938,0.736511230469,0.661743164062,-78.0625,150.8125,-6.4375,0.72,0.65,11.5
1542386895400085926,561,0,/imu_data_acquisition2,45911.0,0.102722167969,-0.0748901367188,0.737854003906,0.662902832031,-73.875,149.0625,8.0,0.72,0.65,11.5
1542386895408796072,562,0,/imu_data_acquisition2,45920.0,0.0902709960938,-0.070068359375,0.739807128906,0.663024902344,-54.0,149.0,19.5625,0.78,-2.45,13.16
1542386895421426057,563,0,/imu_data_acquisition2,45932.0,0.0789184570312,-0.064697265625,0.74169921875,0.662963867188,-40.4375,143.625,18.625,-1.6,-4.84,18.03
1542386895432223081,564,0,/imu_data_acquisition2,45943.0,0.06884765625,-0.0597534179688,0.74267578125,0.663391113281,-20.125,106.5625,1.5625,-1.73,-1.28,18.49
1542386895441737890,565,0,/imu_data_acquisition2,45952.0,0.0609741210938,-0.0550537109375,0.743286132812,0.663940429688,-20.125,106.5625,1.5625,0.58,1.32,11.45
1542386895451296091,566,0,/imu_data_acquisition2,45961.0,-6.103515625e-05,-6.103515625e-05,-6.103515625e-05,0.6640625,-10.6875,79.9375,3.875,0.58,1.32,11.45
1542386895460870981,567,0,/imu_data_acquisition2,45970.0,0.0501708984375,-0.0484008789062,0.74462890625,0.663818359375,-14.5,68.625,9.375,-0.88,0.21,18.21
1542386895473985910,568,0,/imu_data_acquisition2,45982.0,0.0452270507812,-0.0467529296875,0.745544433594,0.663269042969,-24.125,56.625,14.375,0.15,-0.86,12.28
1542386895482176065,569,0,/imu_data_acquisition2,45993.0,0.0410766601562,-0.0458374023438,0.746459960938,0.66259765625,-22.5,37.5625,13.125,-0.48,0.48,12.65
1542386895492604017,570,0,/imu_data_acquisition2,46002.0,0.0374145507812,-0.0139770507812,-6.103515625e-05,0.661987304688,-22.5,37.5625,13.125,-0.13,-0.32,13.47
1542386895498495101,571,0,/imu_data_acquisition2,46009.0,0.0340576171875,-0.045166015625,0.747924804688,0.661315917969,-25.25,30.0625,13.3125,-0.13,-0.32,13.47
1542386895510478973,572,0,/imu_data_acquisition2,46020.0,0.0314331054688,-0.0458984375,0.748596191406,0.660705566406,-26.1875,17.8125,12.125,0.92,-0.31,9.88
1542386895521423101,573,0,/imu_data_acquisition2,46032.0,0.02880859375,-0.0466918945312,0.749145507812,0.66015625,-27.125,16.8125,10.75,0.86,-0.58,10.79
1542386895535322904,574,0,/imu_data_acquisition2,46044.0,0.0265502929688,-0.047607421875,0.749572753906,0.659729003906,-23.0,7.625,6.5,0.85,-0.79,10.79
1542386895542910099,575,0,/imu_data_acquisition2,46053.0,0.0247802734375,-0.0486450195312,0.749816894531,0.659362792969,-20.4375,6.1875,4.75,0.77,-1.02,10.84
1542386895550939083,576,0,/imu_data_acquisition2,46060.0,0.023193359375,-0.0496215820312,0.75,0.659118652344,-20.4375,6.1875,4.75,0.77,-1.02,-0.01
1542386895560221910,577,0,/imu_data_acquisition2,46069.0,0.02197265625,-0.0504760742188,0.750183105469,0.658935546875,-17.0625,3.875,3.8125,1.0,-1.38,10.55
1542386895574187040,578,0,/imu_data_acquisition2,46084.0,0.0211181640625,-0.0512084960938,0.750305175781,0.658813476562,-10.125,0.375,2.0,1.16,-0.73,10.6
1542386895582293987,579,0,/imu_data_acquisition2,46093.0,0.0205078125,-0.0518798828125,0.750366210938,0.65869140625,-8.125,-1.625,1.5,1.07,-0.52,9.95
1542386895593919992,580,0,/imu_data_acquisition2,46103.0,0.0201416015625,-0.052490234375,0.750366210938,0.658569335938,-8.125,-1.625,1.5,0.74,-0.01,-0.01
1542386895600749969,581,0,/imu_data_acquisition2,46111.0,0.0198974609375,-0.0530395507812,0.750427246094,0.658508300781,-7.3125,-2.125,1.375,0.74,-0.94,10.42
1542386895611152887,582,0,/imu_data_acquisition2,46121.0,0.0196533203125,-0.0537109375,0.75048828125,0.658386230469,-7.5625,-2.6875,1.5625,0.72,-1.55,10.41
1542386895621300935,583,0,/imu_data_acquisition2,46130.0,0.01953125,-0.0543212890625,0.750549316406,0.658325195312,-6.25,-4.25,1.3125,1.04,-0.37,9.57
1542386895632879972,584,0,/imu_data_acquisition2,46143.0,0.019287109375,-0.0550537109375,0.750549316406,0.658203125,-9.875,-3.375,1.25,0.97,0.08,9.64
1542386895642344951,585,0,/imu_data_acquisition2,46153.0,0.0189208984375,-0.0558471679688,0.750610351562,0.658142089844,-9.875,-3.375,1.25,1.22,-0.2,9.86
1542386895650932073,586,0,/imu_data_acquisition2,46159.0,0.0183715820312,-0.0567016601562,0.750610351562,0.658081054688,-11.3125,-1.6875,0.9375,1.22,-0.2,9.86
1542386895660819053,587,0,/imu_data_acquisition2,46171.0,0.017822265625,-0.0575561523438,0.750549316406,0.658081054688,-12.125,-1.4375,0.25,0.89,-0.4,10.68
1542386895671333074,588,0,/imu_data_acquisition2,46182.0,0.0171508789062,-0.0582885742188,0.75048828125,0.658081054688,-12.1875,-0.3125,-0.4375,0.75,-0.32,10.02
1542386895682694911,589,0,/imu_data_acquisition2,46193.0,0.0164794921875,-0.0590209960938,0.750366210938,0.658203125,-11.5625,0.625,-1.125,0.79,-1.06,10.14
1542386895693005084,590,0,/imu_data_acquisition2,46203.0,0.0159301757812,-0.0596313476562,0.750244140625,0.658264160156,-9.5625,-0.0625,-1.125,0.42,-1.28,10.42
1542386895700300931,591,0,/imu_data_acquisition2,46211.0,0.0154418945312,-0.0599975585938,0.750122070312,0.658386230469,-7.25,1.0,-0.0625,0.42,-1.28,10.42
1542386895711374044,592,0,/imu_data_acquisition2,46221.0,0.0152587890625,-0.0133666992188,-6.103515625e-05,0.658447265625,-3.875,0.375,-1.0,0.77,-1.25,10.51
1542386895724339962,593,0,/imu_data_acquisition2,46232.0,0.0151977539062,-0.0603637695312,0.75,0.658447265625,-1.375,-0.5625,-0.75,0.84,-1.07,10.17
1542386895732867002,594,0,/imu_data_acquisition2,46243.0,0.0151977539062,-0.0603637695312,0.75,0.658508300781,0.9375,-0.1875,-0.375,0.84,-0.01,-0.01
1542386895743134021,595,0,/imu_data_acquisition2,46253.0,0.0152587890625,-0.060302734375,0.75,0.658508300781,0.9375,-0.1875,-0.375,0.84,-0.69,10.15
1542386895750180959,596,0,/imu_data_acquisition2,46260.0,0.0153198242188,-0.0601806640625,0.75,0.658508300781,1.625,0.5625,-0.5,0.84,-0.01,-0.01
1542386895759257078,597,0,/imu_data_acquisition2,46270.0,0.0154418945312,-0.0599975585938,0.749938964844,0.658569335938,2.3125,0.75,-0.875,1.09,-0.53,9.66
1542386895771812915,598,0,/imu_data_acquisition2,46282.0,0.0155029296875,-0.059814453125,0.749938964844,0.658630371094,2.375,1.125,-0.0625,0.9,-0.61,10.3
1542386895783166885,599,0,/imu_data_acquisition2,46293.0,0.0155639648438,-0.0596313476562,0.749816894531,0.658752441406,2.0,0.75,-1.625,0.83,-0.57,9.73
1542386895792454957,600,0,/imu_data_acquisition2,46303.0,0.0155029296875,-0.0593872070312,0.749755859375,0.658874511719,1.3125,2.1875,-0.0625,0.55,-0.78,10.26
1542386895800039052,601,0,/imu_data_acquisition2,46310.0,-6.103515625e-05,-6.103515625e-05,-6.103515625e-05,0.659057617188,1.8125,2.25,-2.3125,0.55,-0.78,10.26
1542386895810022115,602,0,/imu_data_acquisition2,46320.0,0.0154418945312,-0.058837890625,0.74951171875,0.6591796875,2.4375,2.6875,-2.375,1.0,-0.81,10.33
1542386895819026947,603,0,/imu_data_acquisition2,46330.0,0.0154418945312,-0.0585327148438,0.749389648438,0.659362792969,2.375,2.5,-2.3125,0.72,-0.69,9.78
1542386895834794998,604,0,/imu_data_acquisition2,46344.0,0.0153198242188,-0.0582275390625,0.749267578125,0.659484863281,2.4375,2.8125,-2.1875,0.8,-0.81,9.79
1542386895844558000,605,0,/imu_data_acquisition2,46353.0,0.0151977539062,-0.0578002929688,0.749206542969,0.65966796875,3.125,3.25,-2.0625,0.86,-0.67,9.98
1542386895850711107,606,0,/imu_data_acquisition2,46361.0,0.01513671875,-0.0573120117188,0.749084472656,0.659790039062,3.875,4.25,-2.25,0.86,-0.67,-0.01
1542386895861282110,607,0,/imu_data_acquisition2,46370.0,0.01513671875,-0.0567016601562,0.748962402344,0.660034179688,5.125,5.25,-2.8125,0.88,-0.67,10.14
1542386895870605945,608,0,/imu_data_acquisition2,46380.0,0.0150146484375,-0.0559692382812,0.748840332031,0.660217285156,5.875,6.4375,-3.0,0.54,-0.95,-0.01
1542386895882055044,609,0,/imu_data_acquisition2,46393.0,0.0147705078125,-0.0551147460938,0.748718261719,0.660461425781,6.5625,7.375,-2.9375,0.73,-0.9,9.96
1542386895892798900,610,0,/imu_data_acquisition2,46402.0,0.0146484375,-0.05419921875,0.748596191406,0.66064453125,7.9375,7.4375,-3.125,0.71,-0.71,-0.01
1542386895899503946,611,0,/imu_data_acquisition2,46410.0,0.0145263671875,-6.103515625e-05,-6.103515625e-05,0.660888671875,8.875,7.6875,-3.25,0.69,-0.65,9.8
1542386895910160064,612,0,/imu_data_acquisition2,46420.0,0.0143432617188,-0.052001953125,0.748352050781,0.6611328125,9.6875,8.5625,-3.5625,0.44,-0.73,10.13
1542386895921034097,613,0,/imu_data_acquisition2,46430.0,0.0142822265625,-0.0508422851562,0.748168945312,0.661376953125,10.4375,9.3125,-3.5,0.87,-0.67,10.08
1542386895932626008,614,0,/imu_data_acquisition2,46442.0,0.0142211914062,-0.049560546875,0.748046875,0.66162109375,10.875,-0.0625,-0.0625,0.54,-0.01,-0.01
1542386895943387031,615,0,/imu_data_acquisition2,46454.0,0.0139770507812,-6.103515625e-05,-6.103515625e-05,0.661926269531,11.125,10.3125,-3.6875,0.63,-0.64,10.21
1542386895950218915,616,0,/imu_data_acquisition2,46459.0,0.0137939453125,-0.0468139648438,0.747741699219,0.662170410156,11.5,10.75,-3.625,0.63,-0.64,10.21
1542386895959934949,617,0,/imu_data_acquisition2,46470.0,0.0137329101562,-0.0453491210938,0.747619628906,0.662414550781,11.75,12.3125,-3.4375,0.36,-0.48,10.24
1542386895971018075,618,0,/imu_data_acquisition2,46481.0,0.0136108398438,-0.0438842773438,0.747497558594,0.662658691406,11.9375,12.3125,-3.1875,0.79,-0.33,9.93
1542386895980384111,619,0,/imu_data_acquisition2,46490.0,-6.103515625e-05,-6.103515625e-05,-6.103515625e-05,0.662841796875,11.625,13.6875,-2.8125,0.45,-0.51,10.39
