%time,field.header.seq,field.header.stamp,field.header.frame_id,field.time_stamp,field.quat_x,field.quat_y,field.quat_z,field.quat_w,field.gyro_x,field.gyro_y,field.gyro_z,field.accel_x,field.accel_y,field.accel_z
1455209327240497112,1,0,/imu_data_acquisition2,30613.0,-0.102661132812,-0.11376953125,0.0057373046875,0.988159179688,-6.125,10.8125,2.125,2.29,-1.41,9.14
1455209327247081995,2,0,/imu_data_acquisition2,30624.0,-0.103088378906,-0.11279296875,0.0057373046875,0.988220214844,-6.3125,10.9375,2.125,1.98,-1.73,9.72
1455209327253187894,3,0,/imu_data_acquisition2,30630.0,-0.103576660156,-0.111694335938,0.0057373046875,0.988342285156,-7.125,12.0,2.0,1.98,-1.73,9.72
1455209327264564990,4,0,/imu_data_acquisition2,30641.0,-0.104064941406,-0.110473632812,0.00567626953125,0.988403320312,-7.0,14.0625,2.0,2.13,-1.87,9.61
1455209327273638010,5,0,/imu_data_acquisition2,30650.0,-0.104431152344,-0.109069824219,0.00555419921875,0.988525390625,-7.625,17.5625,1.4375,2.38,-1.4,9.33
1455209327287655115,6,0,/imu_data_acquisition2,30664.0,-0.105163574219,-0.0136108398438,-6.103515625e-05,0.988647460938,-8.125,20.375,1.1875,2.55,-1.92,9.12
1455209327300822019,7,0,/imu_data_acquisition2,30677.0,-0.105895996094,-0.105346679688,0.0052490234375,0.98876953125,-8.5625,23.6875,1.3125,2.38,-2.19,9.84
1455209327308547019,8,0,/imu_data_acquisition2,30682.0,-0.106567382812,-0.103088378906,0.0050048828125,0.988952636719,-7.6875,27.25,1.375,2.38,-2.19,9.84
1455209327317883014,9,0,/imu_data_acquisition2,30692.0,-0.107116699219,-0.100463867188,0.00482177734375,0.989135742188,-6.125,31.3125,1.875,1.54,-2.31,-0.01
1455209327326983928,10,0,/imu_data_acquisition2,30703.0,-0.107543945312,-0.0972900390625,0.0047607421875,0.989440917969,-4.75,37.625,3.25,2.59,-1.79,9.46
1455209327339319944,11,0,/imu_data_acquisition2,30715.0,-0.108093261719,-0.0933837890625,0.00482177734375,0.98974609375,-5.5,-0.0625,-0.0625,1.82,-3.15,10.29
1455209327349387884,12,0,/imu_data_acquisition2,30724.0,-0.108276367188,-0.0892333984375,0.00482177734375,0.990112304688,-1.4375,49.0,5.875,2.0,-2.7,10.01
1455209327355024099,13,0,/imu_data_acquisition2,30731.0,-0.108642578125,-0.08447265625,0.00506591796875,0.990478515625,-3.3125,55.8125,8.9375,2.0,-2.7,10.01
1455209327366544961,14,0,/imu_data_acquisition2,30743.0,-0.108703613281,-0.0792846679688,0.00543212890625,0.990905761719,-0.125,60.875,10.875,2.32,-2.49,10.12
1455209327378565073,15,0,/imu_data_acquisition2,30753.0,-0.108947753906,-0.0733032226562,0.0059814453125,0.991333007812,-0.8125,69.75,14.625,1.87,-2.58,9.44
1455209327387778997,16,0,/imu_data_acquisition2,30764.0,-0.109069824219,-0.0665893554688,0.0067138671875,0.991760253906,0.3125,78.375,17.375,2.78,-2.25,9.19
1455209327398468017,17,0,/imu_data_acquisition2,30774.0,-0.109436035156,-0.0590209960938,0.0076904296875,0.9921875,-2.5625,87.9375,21.1875,2.08,-2.68,10.44
1455209327406266927,18,0,/imu_data_acquisition2,30782.0,-0.110229492188,-0.0507202148438,0.00885009765625,0.992553710938,-6.875,96.4375,24.9375,2.08,-2.68,10.44
1455209327415399074,19,0,/imu_data_acquisition2,30792.0,-6.103515625e-05,-6.103515625e-05,-6.103515625e-05,0.992858886719,-8.75,104.1875,28.4375,2.63,-2.18,10.21
1455209327428061008,20,0,/imu_data_acquisition2,30803.0,-0.1123046875,-0.0319213867188,0.0117797851562,0.993103027344,-11.5,113.0,31.875,3.01,-0.97,8.67
1455209327439625024,21,0,/imu_data_acquisition2,30815.0,-0.114196777344,-0.0206909179688,0.0137939453125,0.9931640625,-19.8125,129.5625,39.5,1.97,-2.51,10.01
1455209327447938919,22,0,/imu_data_acquisition2,30824.0,-0.117553710938,-0.00726318359375,0.01708984375,0.992919921875,-36.5,154.5,57.25,1.97,-2.51,10.01
1455209327456569910,23,0,/imu_data_acquisition2,30831.0,-0.12158203125,0.00787353515625,0.0210571289062,0.992309570312,-44.625,172.5625,68.5,2.59,-2.82,10.76
1455209327467494964,24,0,/imu_data_acquisition2,30843.0,-0.124877929688,0.0227661132812,0.0255126953125,0.991577148438,-37.0,169.875,73.875,2.27,-2.15,11.39
1455209327477719068,25,0,/imu_data_acquisition2,30852.0,-0.127990722656,0.0389404296875,0.0300903320312,0.990539550781,-34.3125,184.1875,76.4375,-5.54,-0.78,-0.01
1455209327498116016,26,0,/imu_data_acquisition2,30864.0,-0.130249023438,0.0582275390625,0.0349731445312,0.989135742188,-24.125,220.0625,86.125,2.1,-4.88,20.59
1455209327503648996,27,0,/imu_data_acquisition2,30875.0,-0.130798339844,0.0798950195312,0.0401000976562,0.987365722656,-3.6875,247.5,94.25,2.09,-5.66,18.76
1455209327506458044,28,0,/imu_data_acquisition2,30882.0,-0.128967285156,0.1025390625,0.0444946289062,0.9853515625,24.8125,259.0,88.8125,2.44,-5.25,16.47
1455209327515819072,29,0,/imu_data_acquisition2,30891.0,-0.124816894531,0.124267578125,0.0474853515625,0.983215332031,53.1875,249.625,74.5,0.73,-1.55,19.9
1455209327527955055,30,0,/imu_data_acquisition2,30903.0,-0.120422363281,0.142272949219,0.0501098632812,0.981201171875,54.6875,205.75,64.6875,2.44,-6.14,19.61
1455209327538417100,31,0,/imu_data_acquisition2,30913.0,-0.114135742188,0.155090332031,0.0512084960938,0.979919433594,76.8125,146.0625,-0.0625,8.39,-5.01,15.35
1455209327548248052,32,0,/imu_data_acquisition2,30925.0,-0.105163574219,0.164978027344,0.051025390625,0.979370117188,109.375,110.6875,28.4375,-0.72,5.74,19.56
1455209327560313940,33,0,/imu_data_acquisition2,30934.0,-0.101989746094,0.173522949219,0.056396484375,0.977905273438,29.5625,92.9375,79.4375,11.88,-3.47,12.82
1455209327565197944,34,0,/imu_data_acquisition2,30941.0,-0.00531005859375,-6.103515625e-05,-6.103515625e-05,0.976745605469,22.9375,60.5,90.5,9.21,-1.06,11.11
1455209327574490070,35,0,/imu_data_acquisition2,30951.0,-0.0956420898438,0.184265136719,0.0698852539062,0.975708007812,27.75,48.0,93.6875,8.31,-2.5,9.37
1455209327588074922,36,0,/imu_data_acquisition2,30964.0,-0.0922241210938,0.188110351562,0.0769653320312,0.974792480469,25.75,35.625,-0.0625,8.38,-2.63,9.33
1455209327597860097,37,0,/imu_data_acquisition2,30974.0,-0.0891723632812,0.190368652344,0.0839233398438,0.974060058594,21.25,16.8125,90.0625,8.39,-2.53,9.18
1455209327605093002,38,0,/imu_data_acquisition2,30981.0,-0.0867919921875,0.190734863281,0.0907592773438,0.973571777344,11.5625,-4.0625,84.875,8.31,-2.76,8.64
1455209327617033958,39,0,/imu_data_acquisition2,30991.0,-0.0849609375,0.189392089844,0.0972900390625,0.973388671875,4.4375,-23.8125,78.3125,7.8,-2.51,6.77
1455209327626251935,40,0,/imu_data_acquisition2,31002.0,-0.0836791992188,0.186706542969,0.103515625,0.973388671875,-2.125,-38.75,72.0,7.55,-2.65,6.33
1455209327638720989,41,0,/imu_data_acquisition2,31015.0,-0.082763671875,0.182861328125,0.109252929688,0.973510742188,-6.6875,-51.3125,63.9375,6.94,-2.78,6.83
1455209327649456024,42,0,/imu_data_acquisition2,31023.0,-0.0822143554688,0.177856445312,0.1142578125,0.973937988281,-10.1875,-64.0,53.9375,6.94,-2.78,6.83
1455209327657051086,43,0,/imu_data_acquisition2,31033.0,-0.0819091796875,0.171630859375,0.118530273438,0.974548339844,-13.5625,-0.0625,-0.0625,6.6,-3.07,7.18
1455209327664917945,44,0,/imu_data_acquisition2,31042.0,-0.0818481445312,0.163940429688,-6.103515625e-05,0.975463867188,-15.6875,-93.6875,29.6875,6.46,-3.13,7.25
1455209327676465034,45,0,/imu_data_acquisition2,31051.0,-6.103515625e-05,-6.103515625e-05,-6.103515625e-05,0.976684570312,-16.6875,-107.9375,15.3125,6.13,-2.71,7.53
1455209327689038038,46,0,/imu_data_acquisition2,31064.0,-0.08203125,0.144836425781,0.125366210938,0.97802734375,-17.375,-120.9375,2.5,6.01,-2.2,7.97
1455209327698623895,47,0,/imu_data_acquisition2,31075.0,-0.0823364257812,0.133483886719,0.1259765625,0.979553222656,-20.125,-133.5625,-6.8125,5.83,-1.69,8.47
1455209327703460931,48,0,/imu_data_acquisition2,31080.0,-0.0828857421875,0.12109375,0.126220703125,0.981079101562,-7.875,-0.0625,-0.0625,5.58,-1.43,9.12
1455209327715107917,49,0,/imu_data_acquisition2,31091.0,-0.0836181640625,0.107421875,0.126342773438,0.982604980469,-27.5625,-159.5625,-15.25,5.1,-1.26,10.93
1455209327725934028,50,0,/imu_data_acquisition2,31102.0,-0.0845947265625,0.0924682617188,0.126525878906,0.984008789062,-32.0625,-174.6875,-16.125,4.72,-1.38,11.46
1455209327738477945,51,0,/imu_data_acquisition2,31111.0,-0.085693359375,0.076171875,0.126708984375,0.985290527344,-36.25,-189.6875,-17.0625,4.44,-1.85,11.71
1455209327748769998,52,0,/imu_data_acquisition2,31124.0,-0.0868530273438,0.0587768554688,0.126708984375,0.986389160156,-38.5625,-202.3125,-20.375,3.63,-3.22,12.56
1455209327755738019,53,0,/imu_data_acquisition2,31132.0,-0.087890625,0.040283203125,0.126159667969,0.9873046875,-38.5,-214.375,-27.625,3.22,-3.22,12.66
1455209327764779090,54,0,/imu_data_acquisition2,31140.0,-0.0888671875,0.02099609375,0.124938964844,0.987976074219,-39.125,-222.625,-35.1875,2.99,-3.11,12.9
1455209327775301933,55,0,/imu_data_acquisition2,31151.0,-0.0899047851562,0.00128173828125,0.123352050781,0.98828125,-40.5,-227.8125,-40.125,2.38,-0.01,-0.01
1455209327787189006,56,0,/imu_data_acquisition2,31163.0,-0.0908813476562,-0.0189208984375,0.121337890625,0.98828125,-40.5625,-233.0625,-45.125,2.15,-3.34,14.5
1455209327798383951,57,0,/imu_data_acquisition2,31172.0,-0.0917358398438,-0.03955078125,0.119018554688,0.987854003906,-40.5625,-237.75,-49.0625,1.98,-3.18,14.34
1455209327804538011,58,0,/imu_data_acquisition2,31181.0,-0.0923461914062,-0.060302734375,0.116455078125,0.987060546875,-38.5,-239.3125,-50.75,1.87,-2.62,14.49
1455209327817147016,59,0,/imu_data_acquisition2,31193.0,-0.0148315429688,-6.103515625e-05,-6.103515625e-05,0.985778808594,-38.125,-237.6875,-14.6875,1.47,-1.5,14.89
1455209327825902938,60,0,/imu_data_acquisition2,31201.0,-0.09375,-0.100891113281,0.112670898438,0.984069824219,-39.75,-232.5625,-36.5625,1.26,-1.77,15.99
1455209327837126970,61,0,/imu_data_acquisition2,31212.0,-0.0948486328125,-0.120544433594,0.112060546875,0.981811523438,-42.5625,-229.5,-24.5625,0.83,-2.65,17.76
1455209327848820924,62,0,/imu_data_acquisition2,31226.0,-0.0961303710938,-0.140380859375,0.111999511719,0.979064941406,-43.9375,-232.875,-17.3125,-0.63,-5.21,18.33
1455209327856800079,63,0,/imu_data_acquisition2,31232.0,-0.0971069335938,-0.160339355469,0.112060546875,0.975830078125,-42.0,-235.5625,-16.625,-1.69,-5.95,16.82
1455209327864069938,64,0,/imu_data_acquisition2,31241.0,-0.097900390625,-0.179931640625,0.111572265625,0.972412109375,-39.6875,-231.375,-5.6875,-2.48,-6.61,15.44
1455209327875638008,65,0,/imu_data_acquisition2,31252.0,-0.0986328125,-0.198547363281,0.1103515625,0.968872070312,-39.5625,-219.5,-29.9375,-3.98,-6.54,14.09
1455209327888204097,66,0,/imu_data_acquisition2,31264.0,-0.0994873046875,-0.215942382812,0.107971191406,0.96533203125,-42.3125,-204.3125,-40.6875,-4.92,-5.57,13.57
1455209327893606901,67,0,/imu_data_acquisition2,31270.0,-0.0068359375,-6.103515625e-05,-6.103515625e-05,0.961853027344,-46.1875,-187.1875,-50.875,-5.59,-4.28,13.44
1455209327905086994,68,0,/imu_data_acquisition2,31282.0,-0.101989746094,-0.246643066406,0.100341796875,0.95849609375,-49.5625,-168.8125,-57.0,-7.19,-3.34,17.69
1455209327916332006,69,0,/imu_data_acquisition2,31293.0,-0.103454589844,-0.260498046875,0.0955810546875,0.955139160156,-50.8125,-159.0625,-62.75,-8.28,-2.89,17.13
1455209327923469066,70,0,/imu_data_acquisition2,31300.0,-0.104431152344,-0.273803710938,0.0901489257812,0.951843261719,-47.25,-152.75,-70.625,-9.45,-2.19,-0.01
1455209327938339948,71,0,/imu_data_acquisition2,31315.0,-0.105041503906,-0.28564453125,0.0844116210938,0.948791503906,-41.75,-135.9375,-74.1875,-10.82,-1.89,12.72
1455209327948198080,72,0,/imu_data_acquisition2,31324.0,-0.105102539062,-0.295532226562,0.07861328125,0.9462890625,-33.3125,-112.4375,-74.8125,-13.66,-1.39,10.52
1455209327954005002,73,0,/imu_data_acquisition2,31331.0,-0.104919433594,-0.303283691406,0.072998046875,0.944274902344,-26.625,-87.0,-7.0625,-14.46,-0.86,10.43
1455209327967084884,74,0,/imu_data_acquisition2,31343.0,-0.10498046875,-0.309020996094,0.0679321289062,0.942810058594,-26.1875,-63.125,-62.5,-14.53,-0.26,10.64
1455209327983974933,76,0,/imu_data_acquisition2,31361.0,-0.106811523438,-0.315490722656,0.0582885742188,0.941101074219,-31.75,-22.25,-52.1875,-13.83,-0.48,8.26
1455209328000439882,77,0,/imu_data_acquisition2,31377.0,-0.107543945312,-0.315734863281,0.0534057617188,0.941223144531,-17.4375,33.125,-53.5625,-12.76,-0.8,8.49
1455209328005455970,78,0,/imu_data_acquisition2,31381.0,-0.0138549804688,-6.103515625e-05,-6.103515625e-05,0.942199707031,-17.4375,33.125,-53.5625,-12.76,-0.8,8.49
1455209328014684915,79,0,/imu_data_acquisition2,31391.0,-0.10693359375,-0.309265136719,0.0432739257812,0.943969726562,-6.125,61.6875,-55.0625,-11.42,-1.31,9.1
1455209328026035070,80,0,/imu_data_acquisition2,31402.0,-0.104797363281,-0.302185058594,0.037841796875,0.946716308594,10.625,95.1875,-60.5,-5.8,-1.43,-1.19
1455209328033292055,81,0,/imu_data_acquisition2,31410.0,-0.100341796875,-0.292663574219,0.031982421875,0.950378417969,37.75,124.6875,-71.5625,-3.64,-2.2,16.22
1455209328045439004,82,0,/imu_data_acquisition2,31421.0,-0.0966186523438,-0.285400390625,0.026123046875,0.953186035156,27.75,97.1875,-71.6875,15.55,3.5,0.65
1455209328056937932,83,0,/imu_data_acquisition2,31431.0,-0.095458984375,-0.273986816406,0.0219116210938,0.956726074219,6.3125,145.0,-39.125,9.85,6.06,-0.01
1455209328064888000,84,0,/imu_data_acquisition2,31442.0,-0.0953369140625,-0.256042480469,0.0201416015625,0.961730957031,6.3125,221.5,-1.6875,2.65,0.25,-0.52
1455209328076078891,85,0,/imu_data_acquisition2,31453.0,-0.0924072265625,-0.236328125,0.0186767578125,0.967102050781,39.75,241.625,-4.4375,-0.75,6.3,26.38
1455209328090573072,86,0,/imu_data_acquisition2,31466.0,-0.0907592773438,-0.22021484375,0.0173950195312,0.971069335938,22.875,197.1875,-2.5,1.87,6.4,23.56
1455209328094225883,87,0,/imu_data_acquisition2,31471.0,-0.0910034179688,-0.207214355469,0.0177612304688,0.973876953125,3.6875,156.125,18.0625,3.89,7.08,18.33
1455209328105375051,88,0,/imu_data_acquisition2,31481.0,-0.0927734375,-0.195556640625,0.0198364257812,0.97607421875,-10.125,137.6875,-0.0625,3.06,-1.87,13.89
1455209328115391969,89,0,/imu_data_acquisition2,31491.0,-0.0958862304688,-0.184753417969,0.022216796875,0.977844238281,-26.5625,127.5625,46.0625,1.68,-6.64,13.39
1455209328123586893,90,0,/imu_data_acquisition2,31500.0,-0.0989379882812,-0.175170898438,0.0235595703125,0.979248046875,-27.625,113.0625,32.5625,2.64,-0.71,-0.01
1455209328138410091,91,0,/imu_data_acquisition2,31514.0,-0.100341796875,-0.167358398438,0.0236206054688,0.98046875,-12.625,93.5625,-0.0625,4.25,-4.77,16.83
1455209328146925926,92,0,/imu_data_acquisition2,31521.0,-0.101013183594,-0.161315917969,0.0228271484375,0.9814453125,-6.25,73.125,-1.125,0.3,-2.62,18.03
1455209328154525995,93,0,/imu_data_acquisition2,31531.0,-0.102294921875,-0.157897949219,0.0220947265625,0.981872558594,-15.1875,41.8125,-2.0625,2.98,-3.56,10.19
1455209328165563106,94,0,/imu_data_acquisition2,31541.0,-0.102416992188,-0.154724121094,0.0211181640625,0.982421875,-1.5625,38.5,-7.5,4.77,-1.56,9.17
1455209328176637887,95,0,/imu_data_acquisition2,31551.0,-0.102966308594,-0.151489257812,0.0203857421875,0.982849121094,-6.625,39.8125,-3.75,2.85,-2.95,11.73
1455209328183739900,96,0,/imu_data_acquisition2,31561.0,-0.103515625,-0.148986816406,0.0198364257812,0.983215332031,-6.3125,30.375,-2.5625,3.6,-1.57,10.98
1455209328197154998,97,0,/imu_data_acquisition2,31573.0,-0.104125976562,-0.147155761719,0.0194091796875,0.983459472656,-6.75,22.75,-1.125,3.98,-0.63,10.0
1455209328208822011,98,0,/imu_data_acquisition2,31583.0,-0.105224609375,-0.145446777344,0.019287109375,0.983581542969,-12.3125,20.25,2.125,3.56,-2.07,9.93
1455209328214823961,99,0,/imu_data_acquisition2,31591.0,-0.106384277344,-0.143981933594,0.0191650390625,0.983642578125,-13.625,17.75,2.6875,3.41,-2.2,10.23
1455209328225594997,100,0,/imu_data_acquisition2,31601.0,-0.107543945312,-0.142761230469,0.01904296875,0.983703613281,-13.4375,14.25,2.0,3.99,-1.71,9.66
1455209328235029935,101,0,/imu_data_acquisition2,31610.0,-0.108825683594,-0.141784667969,0.0189208984375,0.983703613281,-14.5625,11.875,1.6875,3.12,-1.93,9.5
1455209328338383913,102,0,/imu_data_acquisition2,31621.0,-0.110290527344,-0.140747070312,0.018798828125,0.983703613281,-17.25,12.9375,2.625,3.31,-2.35,9.86
1455209328342330932,103,0,/imu_data_acquisition2,31631.0,-0.111572265625,-0.139953613281,0.0186157226562,0.983703613281,-15.125,9.375,1.1875,3.52,-1.05,8.88
1455209328344638109,104,0,/imu_data_acquisition2,31640.0,-0.113037109375,-0.139099121094,0.0185546875,0.983642578125,-17.1875,10.4375,2.3125,3.2,-2.48,9.7
1455209328345355987,105,0,/imu_data_acquisition2,31650.0,-0.114379882812,-0.138427734375,0.0184326171875,0.983581542969,-15.5625,7.875,1.625,3.22,-1.94,8.96
1455209328347862958,106,0,/imu_data_acquisition2,31661.0,-6.103515625e-05,-6.103515625e-05,-6.103515625e-05,0.983520507812,-13.125,8.25,1.3125,2.6,-2.73,9.61
1455209328349163055,107,0,/imu_data_acquisition2,31670.0,-0.116394042969,-0.0122680664062,-6.103515625e-05,0.983520507812,-10.5,6.1875,0.6875,3.06,-2.27,-0.01
1455209328353107929,108,0,/imu_data_acquisition2,31680.0,-0.1171875,-0.136901855469,0.0180053710938,0.983459472656,-9.125,4.6875,0.375,2.97,-2.25,9.39
1455209328355840921,109,0,/imu_data_acquisition2,31690.0,-0.117858886719,-0.136413574219,0.0179443359375,0.983459472656,-8.125,5.25,1.0625,2.83,-2.63,9.55
1455209328357429981,110,0,/imu_data_acquisition2,31700.0,-0.118286132812,-0.136047363281,0.017822265625,0.983459472656,-5.1875,4.5,0.4375,2.42,-1.69,9.32
1455209328359096050,111,0,/imu_data_acquisition2,31710.0,-0.118774414062,-0.135681152344,0.017822265625,0.983459472656,-5.0,4.75,0.8125,3.09,-1.89,9.07
1455209328363127946,112,0,/imu_data_acquisition2,31720.0,-0.118957519531,-0.135437011719,0.0177612304688,0.983459472656,-2.6875,2.75,-0.1875,2.39,-1.81,9.31
1455209328365689039,113,0,/imu_data_acquisition2,31730.0,-0.119262695312,-0.135131835938,0.0176391601562,0.983459472656,-3.0625,3.8125,0.125,2.46,-2.5,9.99
1455209328367476940,114,0,/imu_data_acquisition2,31740.0,-0.119445800781,-0.135009765625,0.0176391601562,0.983459472656,-2.3125,1.625,-0.5,2.12,-2.21,9.44
1455209328376048088,115,0,/imu_data_acquisition2,31751.0,-0.119689941406,-0.134765625,0.017578125,0.983459472656,-2.75,2.75,-0.0625,2.98,-2.58,9.6
1455209328383836984,116,0,/imu_data_acquisition2,31761.0,-0.11962890625,-0.134704589844,0.0173950195312,0.983459472656,-0.125,0.875,-1.6875,2.6,-1.29,9.01
1455209328399828910,117,0,/imu_data_acquisition2,31777.0,-0.119873046875,-0.134460449219,0.017333984375,0.983520507812,-2.5625,3.25,0.25,1.96,-2.81,9.67
1455209328403265953,118,0,/imu_data_acquisition2,31780.0,-0.119873046875,-0.134460449219,0.0172729492188,0.983520507812,0.1875,0.4375,-1.25,2.56,-1.97,8.87
1455209328415055990,119,0,/imu_data_acquisition2,31791.0,-0.119873046875,-0.134460449219,0.0172729492188,0.983520507812,-0.8125,2.9375,0.0,2.16,-2.48,9.76
1455209328423943042,120,0,/imu_data_acquisition2,31801.0,-0.119873046875,-0.134094238281,0.0171508789062,0.983520507812,0.75,1.5625,-0.75,2.62,-1.86,9.27
1455209328435566902,121,0,/imu_data_acquisition2,31812.0,-0.119873046875,-0.133911132812,0.01708984375,0.983581542969,0.3125,2.375,-0.25,2.19,-1.88,9.42
1455209328444638013,122,0,/imu_data_acquisition2,31821.0,-0.119750976562,-0.133728027344,0.0170288085938,0.983581542969,1.1875,1.9375,-0.75,2.44,-2.44,9.39
1455209328453896999,123,0,/imu_data_acquisition2,31831.0,-0.11962890625,-0.133544921875,0.0169677734375,0.983642578125,1.625,2.375,-0.75,2.65,-1.67,9.28
1455209328465034008,124,0,/imu_data_acquisition2,31841.0,-0.119506835938,-0.13330078125,0.0169677734375,0.983703613281,1.375,2.625,-0.375,2.85,-2.43,9.54
1455209328474612951,125,0,/imu_data_acquisition2,31851.0,-0.119506835938,-0.13330078125,0.0169677734375,0.983703613281,2.25,3.6875,-0.375,2.41,-1.71,8.82
1455209328483984947,126,0,/imu_data_acquisition2,31861.0,-0.119079589844,-0.132568359375,0.0169067382812,0.983825683594,3.0,5.4375,0.1875,2.46,-2.98,9.62
1455209328495204925,127,0,/imu_data_acquisition2,31872.0,-0.118591308594,-0.132141113281,0.0169067382812,0.983947753906,5.9375,4.875,-0.625,2.39,-2.38,8.97
1455209328504895925,128,0,/imu_data_acquisition2,31881.0,-0.118041992188,-0.131469726562,0.0169067382812,0.984130859375,6.25,7.5625,0.4375,2.2,-2.65,9.59
1455209328514421939,129,0,/imu_data_acquisition2,31891.0,-0.117370605469,-0.00579833984375,-6.103515625e-05,0.984313964844,8.6875,8.0625,0.375,2.64,-1.7,9.21
1455209328525293111,130,0,/imu_data_acquisition2,31902.0,-0.116516113281,-0.130065917969,0.0169067382812,0.984497070312,10.4375,9.0,0.375,2.24,-2.5,9.56
1455209328534209966,131,0,/imu_data_acquisition2,31911.0,-0.115478515625,-0.129333496094,0.0169677734375,0.984680175781,12.0625,8.5625,-0.25,2.11,-2.28,9.55
1455209328545289993,132,0,/imu_data_acquisition2,31921.0,-0.114685058594,-0.12841796875,0.01708984375,0.984924316406,10.25,10.3125,1.0625,2.06,-1.62,9.7
1455209328557173967,133,0,/imu_data_acquisition2,31933.0,-0.113891601562,-0.127685546875,0.01708984375,0.985107421875,9.9375,8.5625,0.5625,2.15,-1.88,9.96
1455209328565557003,134,0,/imu_data_acquisition2,31942.0,-0.113891601562,-0.127685546875,0.01708984375,0.985107421875,7.8125,8.125,0.75,2.33,-1.8,9.96
1455209328574949026,135,0,/imu_data_acquisition2,31951.0,-0.11279296875,-0.12646484375,0.0172729492188,0.985412597656,5.625,5.8125,1.3125,4.34,-1.0,6.92
1455209328586093902,136,0,/imu_data_acquisition2,31962.0,-0.112915039062,-0.125061035156,0.017822265625,0.985534667969,0.375,16.0625,8.0625,1.69,-2.65,10.51
1455209328595906972,137,0,/imu_data_acquisition2,31972.0,-0.112426757812,-0.124633789062,0.017822265625,0.985656738281,5.5,5.3125,0.4375,2.45,-1.61,9.47
1455209328605464935,138,0,/imu_data_acquisition2,31982.0,-0.112182617188,-0.124084472656,0.0178833007812,0.985717773438,3.3125,6.0,0.8125,1.97,-2.21,9.52
1455209328616249084,139,0,/imu_data_acquisition2,31992.0,-0.112182617188,-0.124084472656,0.0178833007812,0.985717773438,3.4375,6.6875,1.125,2.63,-1.65,9.46
1455209328626187086,140,0,/imu_data_acquisition2,32002.0,-0.111694335938,-0.122924804688,0.0180053710938,0.985961914062,2.875,7.0,1.0,2.2,-1.83,9.25
1455209328635507106,141,0,/imu_data_acquisition2,32012.0,-0.111511230469,-0.122314453125,0.01806640625,0.986022949219,2.375,7.4375,1.5625,2.27,-1.85,9.5
1455209328648571968,142,0,/imu_data_acquisition2,32022.0,-0.111511230469,-0.122314453125,0.01806640625,0.986022949219,2.75,7.4375,1.5,2.14,-1.85,9.41
1455209328654629945,143,0,/imu_data_acquisition2,32031.0,-0.111083984375,-0.12158203125,0.0181274414062,0.986206054688,2.875,8.5,1.75,2.09,-1.91,9.63
1455209328665441036,144,0,/imu_data_acquisition2,32042.0,-0.110900878906,-0.120849609375,0.0182495117188,0.986267089844,2.5,8.8125,2.1875,2.09,-1.99,9.51
1455209328678019046,145,0,/imu_data_acquisition2,32051.0,-0.110717773438,-0.1201171875,0.0183715820312,0.986389160156,2.5,-0.0625,-0.0625,2.1,-1.88,9.81
1455209328685149908,146,0,/imu_data_acquisition2,32062.0,-0.110473632812,-0.119262695312,0.0184936523438,0.986511230469,2.375,10.375,3.1875,1.86,-2.05,9.62
1455209328697510004,147,0,/imu_data_acquisition2,32073.0,-0.110168457031,-0.118103027344,0.0186767578125,0.986694335938,1.8125,10.75,3.5,2.87,-1.63,9.26
1455209328708199024,148,0,/imu_data_acquisition2,32083.0,-0.109802246094,-0.117248535156,0.0188598632812,0.98681640625,2.0,9.125,3.0625,2.09,-1.9,9.3
1455209328715233087,149,0,/imu_data_acquisition2,32092.0,-0.109558105469,-0.116455078125,0.01904296875,0.986938476562,0.0625,11.5625,4.9375,2.6,-2.16,9.62
1455209328726979017,150,0,/imu_data_acquisition2,32103.0,-0.109619140625,-0.115478515625,0.0193481445312,0.987060546875,1.1875,12.0,4.5,1.73,-2.21,9.78
1455209328738019943,151,0,/imu_data_acquisition2,32113.0,-0.109558105469,-0.114440917969,0.0195922851562,0.987182617188,-0.6875,15.5625,5.6875,2.93,-1.18,8.57
1455209328745085000,152,0,/imu_data_acquisition2,32122.0,-0.109802246094,-0.111633300781,0.0202026367188,0.987487792969,-0.125,16.5625,4.8125,0.79,-2.2,9.82
1455209328757533073,153,0,/imu_data_acquisition2,32133.0,-0.109802246094,-0.111633300781,0.0202026367188,0.987487792969,-1.25,20.75,6.5,2.58,-1.36,9.06
1455209328767573118,154,0,/imu_data_acquisition2,32141.0,-0.109985351562,-0.10986328125,0.0205688476562,0.987609863281,-1.25,20.75,6.5,2.9,-1.97,9.68
1455209328775131940,155,0,/imu_data_acquisition2,32151.0,-0.110168457031,-0.107482910156,0.0208740234375,0.987854003906,-2.0,33.9375,9.1875,2.92,-2.81,9.6
1455209328790049076,156,0,/imu_data_acquisition2,32167.0,-0.110473632812,-0.104553222656,0.0213012695312,0.988159179688,-0.75,40.375,10.5,2.49,-1.78,9.39
1455209328800004005,157,0,/imu_data_acquisition2,32174.0,-0.110717773438,-0.10107421875,0.0217895507812,0.988464355469,-0.375,49.3125,13.25,3.01,-2.2,8.62
1455209328807969093,158,0,/imu_data_acquisition2,32182.0,-6.103515625e-05,-6.103515625e-05,-6.103515625e-05,0.988830566406,2.8125,57.0625,15.25,2.63,-2.42,9.83
1455209328818480014,159,0,/imu_data_acquisition2,32192.0,-0.110900878906,-0.0919189453125,0.023193359375,0.989318847656,1.9375,66.4375,18.8125,3.26,-2.59,9.88
1455209328826658964,160,0,/imu_data_acquisition2,32202.0,-0.111206054688,-0.0797119140625,0.0252075195312,0.990295410156,1.1875,75.4375,21.0,2.67,-3.25,9.64
1455209328836997985,161,0,/imu_data_acquisition2,32212.0,-0.111206054688,-0.0797119140625,0.0252075195312,0.990295410156,-2.875,86.75,24.8125,3.34,-1.67,9.1
1455209328846076011,162,0,/imu_data_acquisition2,32222.0,-0.11181640625,-0.0722045898438,0.0264892578125,0.99072265625,-0.875,100.3125,28.375,2.35,-1.83,9.18
1455209328856798887,163,0,/imu_data_acquisition2,32232.0,-0.112243652344,-0.0635375976562,0.0278930664062,0.991271972656,-5.8125,116.625,35.5,2.64,-2.09,9.87
1455209328868127107,164,0,/imu_data_acquisition2,32242.0,-0.113220214844,-0.053466796875,0.0297241210938,0.99169921875,-4.6875,129.1875,39.1875,3.46,-2.9,10.05
1455209328875622987,165,0,/imu_data_acquisition2,32251.0,-0.114135742188,-0.042236328125,0.03173828125,0.992065429688,-4.6875,129.1875,39.1875,4.46,-0.85,8.55
1455209328885571002,166,0,/imu_data_acquisition2,32262.0,-0.115234375,-0.0140380859375,-6.103515625e-05,0.992309570312,-13.0625,169.5,55.375,2.05,-1.59,10.15
1455209328897309064,167,0,/imu_data_acquisition2,32273.0,-0.116943359375,-0.0149536132812,0.0370483398438,0.992309570312,-31.3125,189.9375,75.875,2.05,-2.37,12.54
1455209328906675100,168,0,/imu_data_acquisition2,32283.0,-0.120239257812,0.00164794921875,0.0414428710938,0.991882324219,-28.0625,188.875,84.0625,2.91,-3.49,12.22
1455209328915007114,169,0,/imu_data_acquisition2,32292.0,-0.0138549804688,-6.103515625e-05,-6.103515625e-05,0.991088867188,-28.0625,188.875,84.0625,-1.15,-0.01,-0.01
1455209328933772087,170,0,/imu_data_acquisition2,32302.0,-0.125366210938,0.0361938476562,0.0519409179688,0.990112304688,-17.625,205.125,89.25,1.43,-4.92,17.52
1455209328944013118,171,0,/imu_data_acquisition2,32312.0,-0.126770019531,0.0571899414062,0.0567016601562,0.988647460938,7.5625,260.75,93.8125,0.56,-4.71,17.03
1455209328947144031,172,0,/imu_data_acquisition2,32322.0,-0.126892089844,0.0799560546875,0.0617065429688,0.986755371094,21.75,267.5625,87.75,3.09,-2.4,20.71
1455209328957900047,173,0,/imu_data_acquisition2,32333.0,-0.125854492188,0.103271484375,0.0659790039062,0.984436035156,26.3125,228.875,76.6875,8.67,-2.86,15.43
1455209328964679002,174,0,/imu_data_acquisition2,32341.0,-0.124267578125,0.123229980469,0.0697021484375,0.982116699219,26.3125,228.875,76.6875,8.67,-2.86,15.43
1455209328975287914,175,0,/imu_data_acquisition2,32352.0,-0.122192382812,0.137573242188,0.0728759765625,0.980224609375,28.4375,162.9375,62.1875,9.03,0.0,16.12
1455209328987366914,176,0,/imu_data_acquisition2,32363.0,-0.118835449219,0.148803710938,0.0758056640625,0.978759765625,10.625,97.3125,81.9375,10.5,-1.61,13.06
1455209328998096942,177,0,/imu_data_acquisition2,32373.0,-0.117553710938,0.157775878906,0.0814819335938,0.97705078125,0.75,72.8125,89.0625,9.62,-1.76,9.65
1455209329007838010,178,0,/imu_data_acquisition2,32383.0,-0.116760253906,0.164611816406,0.0880737304688,0.975463867188,2.0,54.6875,88.0625,9.46,-2.87,9.61
1455209329015461921,179,0,/imu_data_acquisition2,32390.0,-0.115783691406,0.170043945312,0.0947875976562,0.973999023438,2.0,54.6875,88.0625,9.46,-2.87,9.61
1455209329026015996,180,0,/imu_data_acquisition2,32402.0,-0.115051269531,0.173767089844,0.101501464844,0.972778320312,-2.125,35.625,85.5625,9.13,-3.74,8.77
1455209329039006948,181,0,/imu_data_acquisition2,32414.0,-0.11181640625,0.174926757812,0.112609863281,0.9716796875,8.6875,-13.8125,62.5625,8.92,-3.37,8.06
1455209329047884941,182,0,/imu_data_acquisition2,32423.0,-0.11181640625,0.174926757812,0.112609863281,0.9716796875,10.25,-36.9375,51.5625,8.61,-3.29,7.49
1455209329057471990,183,0,/imu_data_acquisition2,32433.0,-0.10986328125,0.172485351562,0.117004394531,0.971862792969,9.25,-57.6875,41.4375,8.06,-3.57,7.23
1455209329066350936,184,0,/imu_data_acquisition2,32443.0,-0.107971191406,0.168212890625,0.120849609375,0.972351074219,6.5625,-76.25,31.625,7.68,-3.83,7.34
1455209329075752973,185,0,/imu_data_acquisition2,32450.0,-0.0123901367188,-6.103515625e-05,-6.103515625e-05,0.97314453125,6.5625,-76.25,31.625,7.68,-3.83,7.34
1455209329086030960,186,0,/imu_data_acquisition2,32462.0,-0.104614257812,0.15478515625,0.126525878906,0.974243164062,-0.5,-14.8125,-0.0625,6.9,-3.91,6.76
1455209329099160909,187,0,/imu_data_acquisition2,32474.0,-0.103332519531,0.145690917969,0.128112792969,0.975524902344,-6.4375,-124.0,-3.8125,6.04,-4.07,6.91
1455209329109381914,188,0,/imu_data_acquisition2,32483.0,-0.1025390625,0.135375976562,0.128967285156,0.976989746094,-15.0,-133.4375,-15.0625,5.76,-4.39,7.81
1455209329116714954,189,0,/imu_data_acquisition2,32493.0,-0.1025390625,0.124084472656,0.129028320312,0.978515625,-15.0,-133.4375,-15.0625,5.4,-4.59,8.72
1455209329126565933,190,0,/imu_data_acquisition2,32502.0,-0.103210449219,0.11181640625,0.128234863281,0.97998046875,-24.0,-142.0625,-27.5,5.4,-4.59,8.72
1455209329139364004,191,0,/imu_data_acquisition2,32513.0,-0.1044921875,0.0984497070312,0.126342773438,0.981567382812,-30.375,-152.5625,-42.4375,4.37,-3.33,10.1
1455209329147972106,192,0,/imu_data_acquisition2,32523.0,-0.106201171875,0.0839233398438,0.123474121094,0.983093261719,-41.625,-175.1875,-64.4375,4.12,-0.01,-0.01
1455209329156893014,193,0,/imu_data_acquisition2,32533.0,-0.0145263671875,-6.103515625e-05,-6.103515625e-05,0.984497070312,-41.625,-175.1875,-64.4375,3.47,-2.52,12.58
1455209329167759895,194,0,/imu_data_acquisition2,32544.0,-0.110656738281,0.0518798828125,0.116149902344,0.985656738281,-46.875,-185.375,-69.0,3.24,-2.3,12.94
1455209329174864053,195,0,/imu_data_acquisition2,32551.0,-0.113037109375,0.0342407226562,0.1123046875,0.986633300781,-48.25,-197.6875,-70.875,3.24,-2.3,12.94
1455209329187604904,196,0,/imu_data_acquisition2,32564.0,-0.114990234375,0.0155639648438,0.108520507812,0.9873046875,-45.1875,-210.6875,-70.625,2.32,-2.27,14.07
1455209329199364900,197,0,/imu_data_acquisition2,32575.0,-0.116333007812,-0.00390625,0.105102539062,0.987609863281,-39.9375,-221.5,-67.1875,2.09,-2.4,14.22
1455209329206727027,198,0,/imu_data_acquisition2,32583.0,-0.117065429688,-0.0241088867188,0.102233886719,0.987548828125,-26.5,-240.125,-56.375,1.85,-2.4,14.32
1455209329216576099,199,0,/imu_data_acquisition2,32592.0,-0.117065429688,-0.044921875,0.099853515625,0.987060546875,-26.5,-240.125,-56.375,1.85,-2.4,14.32
1455209329225320100,200,0,/imu_data_acquisition2,32601.0,-0.116516113281,-0.066162109375,0.097900390625,0.986145019531,-21.0625,-246.625,-51.375,1.74,-2.61,14.43
1455209329236702919,201,0,/imu_data_acquisition2,32613.0,-0.115539550781,-0.0875244140625,0.0963745117188,0.984741210938,-16.75,-249.875,-46.125,1.45,-2.91,15.33
1455209329288748025,202,0,/imu_data_acquisition2,32623.0,-0.1142578125,-0.108947753906,0.0953369140625,0.982849121094,-12.75,-251.6875,-40.875,1.14,-0.99,-0.01
1455209329290724992,203,0,/imu_data_acquisition2,32633.0,-0.112731933594,-0.130126953125,0.0948486328125,0.98046875,-13.25,-251.4375,-25.0625,-0.38,-5.8,16.75
1455209329291873931,204,0,/imu_data_acquisition2,32641.0,-0.111511230469,-0.151306152344,0.094970703125,0.977600097656,-13.25,-251.4375,-25.0625,-0.38,-5.8,16.75
1455209329292638063,205,0,/imu_data_acquisition2,32651.0,-0.110595703125,-0.172607421875,0.0952758789062,0.97412109375,-17.1875,-254.5,-22.1875,-1.51,-6.43,16.6
1455209329294760942,206,0,/imu_data_acquisition2,32662.0,-0.110046386719,-0.193969726562,0.0952758789062,0.970153808594,-22.875,-254.8125,-24.9375,-2.67,-6.8,15.69
1455209329301331043,207,0,/imu_data_acquisition2,32674.0,-0.109985351562,-0.215087890625,0.0946044921875,0.965759277344,-30.5,-252.0,-30.375,-4.75,-6.29,12.74
1455209329307435989,208,0,/imu_data_acquisition2,32684.0,-0.110412597656,-0.235290527344,0.0931396484375,0.961120605469,-42.0625,-222.3125,-44.125,-5.5,-5.05,12.74
1455209329317940950,209,0,/imu_data_acquisition2,32693.0,-0.111145019531,-0.0040283203125,-6.103515625e-05,0.956481933594,-42.0625,-222.3125,-44.125,-5.5,-5.05,12.74
1455209329326637983,210,0,/imu_data_acquisition2,32702.0,-0.112670898438,-0.271057128906,0.087646484375,0.951904296875,-50.6875,-201.125,-48.0,-7.7,-3.55,11.14
1455209329338609933,211,0,/imu_data_acquisition2,32714.0,-0.115051269531,-0.286193847656,0.0839233398438,0.947509765625,-60.375,-177.25,-50.0,-9.95,-2.95,9.21
1455209329349539995,212,0,/imu_data_acquisition2,32723.0,-0.11767578125,-0.298950195312,0.0795288085938,0.943664550781,-14.0,-0.0625,-0.0625,-11.07,-3.17,9.82
1455209329369501113,213,0,/imu_data_acquisition2,32734.0,-0.119506835938,-0.308654785156,0.0745849609375,0.940673828125,-51.4375,-110.6875,-59.5,-12.9,-2.86,14.31
1455209329378549098,214,0,/imu_data_acquisition2,32743.0,-0.11962890625,-0.315612792969,0.0692138671875,0.938781738281,-29.6875,-76.25,-67.8125,-12.9,-2.86,14.31
1455209329380400896,215,0,/imu_data_acquisition2,32753.0,-0.118041992188,-0.320190429688,0.0636596679688,0.937805175781,-8.25,-48.0625,-73.4375,-13.69,-1.67,14.55
1455209329388905048,216,0,/imu_data_acquisition2,32762.0,-0.115417480469,-0.323547363281,0.05810546875,0.937316894531,4.625,-33.4375,-75.375,-14.07,0.0,13.86
1455209329398232936,217,0,/imu_data_acquisition2,32773.0,-0.113525390625,-0.325866699219,0.0531005859375,0.937072753906,-0.5625,-21.125,-66.25,-14.47,-1.1,9.79
1455209329408350944,218,0,/imu_data_acquisition2,32784.0,-0.113708496094,-0.327209472656,0.0487060546875,0.936828613281,-20.0625,-9.8125,-49.375,-14.24,-1.74,8.35
1455209329413683891,219,0,/imu_data_acquisition2,32790.0,-0.115295410156,-0.0145874023438,-6.103515625e-05,0.936889648438,-32.75,7.6875,-38.5625,-14.24,-1.74,8.35
1455209329429737091,220,0,/imu_data_acquisition2,32805.0,-0.114501953125,-0.3203125,0.039794921875,0.939514160156,-3.125,92.25,-49.625,-8.82,-5.21,11.87
1455209329438411951,221,0,/imu_data_acquisition2,32814.0,-0.113708496094,-0.3134765625,0.0348510742188,0.942138671875,-3.125,92.25,-49.625,9.2,0.24,16.06
1455209329449316978,222,0,/imu_data_acquisition2,32824.0,-0.110412597656,-0.302917480469,0.0294799804688,0.946166992188,26.875,138.0625,-59.75,18.73,5.42,5.94
1455209329465632915,223,0,/imu_data_acquisition2,32836.0,-0.1044921875,-0.294860839844,0.0239868164062,0.949523925781,53.8125,107.75,-73.0625,3.49,1.04,-4.18
1455209329467082023,224,0,/imu_data_acquisition2,32842.0,-0.104675292969,-0.277770996094,0.0226440429688,0.954650878906,4.5,211.5,5.0625,3.49,1.04,-4.18
1455209329475641965,225,0,/imu_data_acquisition2,32850.0,-0.0072021484375,-6.103515625e-05,-6.103515625e-05,0.960815429688,52.625,252.9375,2.9375,-0.2,0.55,14.54
1455209329488296031,226,0,/imu_data_acquisition2,32865.0,-0.0969848632812,-0.239501953125,0.0213623046875,0.9658203125,53.75,216.4375,1.5,2.64,4.06,19.96
1455209329498516082,227,0,/imu_data_acquisition2,32874.0,-0.0980834960938,-0.225891113281,0.0220947265625,0.968933105469,-3.375,163.875,26.625,4.34,2.85,13.51
1455209329512811899,228,0,/imu_data_acquisition2,32884.0,-0.0067138671875,-6.103515625e-05,-6.103515625e-05,0.971252441406,-15.9375,-0.0625,-0.0625,4.26,-0.43,11.63
1455209329516661882,229,0,/imu_data_acquisition2,32891.0,-0.103576660156,-0.203369140625,0.0267944335938,0.973266601562,-23.9375,131.0,50.75,4.26,-0.43,11.63
1455209329523278951,230,0,/imu_data_acquisition2,32900.0,-0.107055664062,-0.192504882812,0.02880859375,0.975036621094,-29.75,128.25,44.1875,1.83,-8.31,13.19
1455209329537028074,231,0,/imu_data_acquisition2,32913.0,-0.109375,-0.183166503906,0.029541015625,0.9765625,-19.3125,111.0625,25.0,3.18,-6.72,13.08
1455209329552592992,232,0,/imu_data_acquisition2,32926.0,-0.110229492188,-0.17529296875,0.0296020507812,0.977905273438,-5.1875,-0.0625,-0.0625,0.36,-3.91,15.94
1455209329559339046,233,0,/imu_data_acquisition2,32934.0,-0.110717773438,-0.16943359375,0.02880859375,0.978881835938,-4.25,71.0625,-1.0625,3.7,-3.68,8.85
1455209329565085887,234,0,/imu_data_acquisition2,32941.0,-0.111083984375,-0.165954589844,0.0279541015625,0.979431152344,-3.8125,42.8125,-4.375,3.7,-3.68,8.85
1455209329581995010,235,0,/imu_data_acquisition2,32952.0,-0.110046386719,-0.162170410156,0.02685546875,0.980224609375,12.3125,46.5625,-10.5,4.44,-1.45,8.75
1455209329589226007,236,0,/imu_data_acquisition2,32961.0,-0.109252929688,-0.158508300781,0.0259399414062,0.98095703125,9.125,44.3125,-7.5625,3.62,-2.27,11.28
1455209329597724914,237,0,/imu_data_acquisition2,32974.0,-0.108215332031,-0.014892578125,-6.103515625e-05,0.981567382812,12.375,36.9375,-7.625,3.81,-1.32,11.28
1455209329614976882,238,0,/imu_data_acquisition2,32984.0,-0.107360839844,-0.153076171875,0.0245361328125,0.982055664062,10.125,29.875,-5.125,3.66,-1.05,11.23
1455209329617167949,239,0,/imu_data_acquisition2,32992.0,-0.107177734375,-0.151184082031,0.0243530273438,0.982360839844,2.4375,22.75,-0.3125,3.66,-1.05,11.23
1455209329624876976,240,0,/imu_data_acquisition2,33001.0,-0.10791015625,-0.149475097656,0.024658203125,0.982543945312,-7.1875,19.375,6.75,1.79,-3.32,12.28
1455209329644351959,241,0,/imu_data_acquisition2,33015.0,-0.108032226562,-0.148620605469,0.0244750976562,0.982666015625,-1.25,10.75,-1.0625,3.36,-2.3,9.49
1455209329652971982,242,0,/imu_data_acquisition2,33024.0,-0.1083984375,-0.147766113281,0.0243530273438,0.982788085938,-4.25,10.1875,-0.375,3.36,-2.3,9.49
1455209329658524036,243,0,/imu_data_acquisition2,33035.0,-0.108642578125,-0.147155761719,0.0241088867188,0.982849121094,-2.375,7.75,-1.125,3.27,-2.39,9.85
1455209329666203975,244,0,/imu_data_acquisition2,33043.0,-0.108764648438,-0.146484375,0.0239868164062,0.98291015625,-1.4375,8.0625,-0.8125,3.27,-2.39,9.85
1455209329679747104,245,0,/imu_data_acquisition2,33052.0,-0.108703613281,-0.146057128906,0.0238037109375,0.982971191406,0.625,5.4375,-1.625,3.22,-1.57,8.85
1455209329685620069,246,0,/imu_data_acquisition2,33062.0,-0.108703613281,-0.145385742188,0.023681640625,0.983093261719,-0.1875,8.25,-0.0625,3.05,-2.11,9.41
1455209329699898004,247,0,/imu_data_acquisition2,33076.0,-0.108520507812,-0.144836425781,0.0234985351562,0.983215332031,2.25,6.25,-1.25,2.86,-2.15,9.61
1455209329712667942,248,0,/imu_data_acquisition2,33086.0,-0.108215332031,-0.144287109375,0.0234375,0.983337402344,3.1875,6.6875,-1.0,3.05,-1.81,9.28
1455209329714942932,249,0,/imu_data_acquisition2,33091.0,-0.107788085938,-0.143737792969,0.0233154296875,0.983459472656,4.9375,6.875,-1.5,3.05,-1.81,9.28
1455209329727724075,250,0,/imu_data_acquisition2,33101.0,-0.107299804688,-0.14306640625,0.023193359375,0.983581542969,6.1875,8.0625,-0.875,2.43,-2.5,9.34
1455209329737415075,251,0,/imu_data_acquisition2,33113.0,-0.106506347656,-0.142395019531,0.0231323242188,0.983764648438,9.375,7.5,-1.6875,3.05,-1.58,9.44
1455209329749027013,252,0,/imu_data_acquisition2,33125.0,-0.105712890625,-0.141784667969,0.0230712890625,0.983947753906,9.375,7.375,-1.4375,2.68,-1.72,9.89
1455209329758704900,253,0,/imu_data_acquisition2,33132.0,-0.104797363281,-0.141052246094,0.0230712890625,0.984191894531,8.8125,8.8125,-0.4375,2.68,-1.72,9.89
1455209329767143964,254,0,/imu_data_acquisition2,33142.0,-0.104125976562,-0.140441894531,0.0230102539062,0.984313964844,8.6875,7.375,-0.75,2.0,-1.38,9.49
1455209329775496006,255,0,/imu_data_acquisition2,33152.0,-0.103515625,-0.139831542969,0.0230712890625,0.984497070312,7.1875,7.4375,0.5625,2.25,-2.81,10.46
1455209329786847114,256,0,/imu_data_acquisition2,33161.0,-0.102722167969,-0.139404296875,0.0230712890625,0.984619140625,9.1875,5.0,-0.75,1.35,-2.12,10.2
1455209329798393964,257,0,/imu_data_acquisition2,33174.0,-0.102111816406,-0.138916015625,0.0231323242188,0.984741210938,7.5625,5.5625,0.6875,2.46,-1.89,10.07
1455209329809197902,258,0,/imu_data_acquisition2,33185.0,-0.101501464844,-0.138671875,0.0231323242188,0.98486328125,7.875,2.4375,-0.875,2.0,-2.05,9.99
1455209329814217090,259,0,/imu_data_acquisition2,33190.0,-0.10107421875,-0.138366699219,0.023193359375,0.984924316406,4.75,3.8125,0.6875,2.0,-2.05,9.99
1455209329827385902,260,0,/imu_data_acquisition2,33202.0,-0.100708007812,-0.138122558594,0.0232543945312,0.984985351562,4.4375,2.25,0.0625,2.7,-1.18,9.03
1455209329836541891,261,0,/imu_data_acquisition2,33211.0,-0.1005859375,-0.137817382812,0.0233764648438,0.985046386719,1.9375,4.0,1.5,2.25,-1.99,9.93
1455209329849422931,262,0,/imu_data_acquisition2,33225.0,-0.0067138671875,-6.103515625e-05,-6.103515625e-05,0.985107421875,1.5,3.375,1.25,2.47,-1.3,8.99
1455209329858927011,263,0,/imu_data_acquisition2,33234.0,-0.100524902344,-0.13720703125,0.0234985351562,0.985168457031,0.25,3.5,1.0625,2.26,-1.38,9.44
1455209329870157957,264,0,/imu_data_acquisition2,33245.0,-0.100646972656,-0.136840820312,0.0235595703125,0.985168457031,-1.3125,3.875,1.0625,2.38,-1.66,9.71
1455209329873716115,265,0,/imu_data_acquisition2,33250.0,-0.007080078125,-6.103515625e-05,-6.103515625e-05,0.985229492188,-2.25,3.4375,0.875,2.26,-1.25,9.13
1455209329885629892,266,0,/imu_data_acquisition2,33261.0,-0.101013183594,-0.136291503906,0.0235595703125,0.985229492188,-1.8125,3.1875,0.375,2.94,-1.14,9.04
1455209329900177955,267,0,/imu_data_acquisition2,33271.0,-0.101257324219,-0.135986328125,0.0234985351562,0.985229492188,-3.0,3.625,0.625,2.2,-1.72,9.44
1455209329909759044,268,0,/imu_data_acquisition2,33283.0,-0.10107421875,-0.135131835938,0.0235595703125,0.9853515625,-3.8125,3.875,1.3125,1.9,-1.7,9.92
1455209329918793916,269,0,/imu_data_acquisition2,33292.0,-0.101013183594,-0.134765625,0.0234375,0.985412597656,-3.625,2.75,0.4375,2.75,-1.59,9.26
1455209329925519943,270,0,/imu_data_acquisition2,33301.0,-6.103515625e-05,-6.103515625e-05,-6.103515625e-05,0.985412597656,-4.0,4.0,0.9375,2.98,-1.73,9.07
1455209329934706926,271,0,/imu_data_acquisition2,33311.0,-0.101745605469,-0.134033203125,0.0234375,0.985473632812,-4.625,4.875,1.25,2.24,-1.66,9.89
1455209329948184967,272,0,/imu_data_acquisition2,33324.0,-0.102233886719,-0.133728027344,0.0234375,0.985473632812,-5.4375,4.125,1.125,2.42,-1.47,9.18
1455209329958590030,273,0,/imu_data_acquisition2,33332.0,-0.102722167969,-0.13330078125,0.0234375,0.985473632812,-5.25,4.5,1.4375,2.18,-1.59,9.58
1455209329964232921,274,0,/imu_data_acquisition2,33341.0,-0.103271484375,-0.132934570312,0.0234375,0.985473632812,-6.125,-0.0625,-0.0625,2.45,-1.6,9.4
1455209329976737022,275,0,/imu_data_acquisition2,33352.0,-0.103820800781,-0.132446289062,0.0234985351562,0.985473632812,-6.5625,5.75,1.625,2.12,-1.78,9.76
1455209329989283084,276,0,/imu_data_acquisition2,33363.0,-0.104370117188,-0.131958007812,0.0234985351562,0.985473632812,-6.1875,5.5625,1.5625,2.33,-1.92,9.59
1455209329997420072,277,0,/imu_data_acquisition2,33374.0,-0.104675292969,-0.131286621094,0.0234985351562,0.985534667969,-5.5625,6.625,1.8125,2.43,-1.83,9.36
1455209330006753921,278,0,/imu_data_acquisition2,33383.0,-0.105224609375,-0.130676269531,0.0235595703125,0.985534667969,-5.8125,7.125,2.3125,2.24,-2.07,9.49
1455209330017030000,279,0,/imu_data_acquisition2,33392.0,-0.105651855469,-0.130065917969,0.0236206054688,0.985595703125,-4.375,7.8125,1.875,2.14,-1.58,9.21
1455209330024265050,280,0,/imu_data_acquisition2,33401.0,-0.106140136719,-0.129272460938,0.023681640625,0.985656738281,-5.5,9.3125,2.4375,2.05,-1.88,10.01
1455209330035118103,281,0,/imu_data_acquisition2,33411.0,-0.106201171875,-0.12841796875,0.0236206054688,0.985717773438,-4.875,8.625,1.5625,2.6,-1.46,9.35
1455209330046119928,282,0,/imu_data_acquisition2,33420.0,-0.1064453125,-0.12744140625,0.0236206054688,0.98583984375,-6.0,9.875,1.9375,2.15,-1.92,9.61
1455209330054160118,283,0,/imu_data_acquisition2,33431.0,-0.1064453125,-0.12646484375,0.0236206054688,0.985961914062,-4.9375,9.3125,1.8125,2.28,-1.51,9.45
1455209330065584897,284,0,/imu_data_acquisition2,33441.0,-0.106811523438,-0.125366210938,0.0236206054688,0.986083984375,-5.625,10.0625,2.25,1.94,-2.31,10.03
1455209330075186014,285,0,/imu_data_acquisition2,33451.0,-0.106750488281,-0.124267578125,0.023681640625,0.986206054688,-3.75,10.25,2.4375,2.21,-1.5,9.63
1455209330084644079,286,0,/imu_data_acquisition2,33461.0,-0.106994628906,-0.123046875,0.0238647460938,0.986328125,-4.8125,11.625,3.6875,2.04,-2.08,9.64
1455209330100111961,287,0,/imu_data_acquisition2,33475.0,-0.10693359375,-0.12158203125,0.02392578125,0.986511230469,-2.8125,13.1875,2.75,1.92,-1.61,9.5
1455209330104393959,288,0,/imu_data_acquisition2,33480.0,-0.107299804688,-0.120178222656,0.0240478515625,0.986633300781,-3.75,16.75,3.9375,1.59,-1.46,8.57
1455209330114888906,289,0,/imu_data_acquisition2,33491.0,-0.107666015625,-0.118225097656,0.0242309570312,0.98681640625,-3.125,22.5,5.0,2.83,-1.19,10.51
1455209330126332998,290,0,/imu_data_acquisition2,33501.0,-0.108337402344,-0.116027832031,0.0244750976562,0.986999511719,-6.0625,26.125,6.3125,3.0,-3.21,11.11
1455209330135467052,291,0,/imu_data_acquisition2,33511.0,-0.10888671875,-0.113708496094,0.024658203125,0.987243652344,-5.4375,27.0625,5.375,3.61,-0.78,7.69
1455209330147849082,292,0,/imu_data_acquisition2,33524.0,-0.109985351562,-0.110473632812,0.025146484375,0.987426757812,-10.9375,37.4375,11.875,2.51,-3.59,9.47
1455209330156850099,293,0,/imu_data_acquisition2,33532.0,-0.110656738281,-0.106567382812,0.0257568359375,0.98779296875,-5.625,45.9375,12.375,2.78,-1.6,9.85
1455209330164925098,294,0,/imu_data_acquisition2,33541.0,-0.111877441406,-0.101806640625,0.0264282226562,0.988159179688,-10.9375,55.625,15.75,3.14,-2.11,10.23
1455209330175873994,295,0,/imu_data_acquisition2,33552.0,-0.113342285156,-0.0963745117188,0.027099609375,0.988525390625,-14.8125,63.625,16.6875,2.94,-1.78,9.59
1455209330185302019,296,0,/imu_data_acquisition2,33561.0,-0.115051269531,-0.0897216796875,0.0278930664062,0.988891601562,-16.375,77.75,20.1875,3.28,-1.82,9.17
1455209330199615001,297,0,/imu_data_acquisition2,33575.0,-0.116943359375,-0.0816040039062,0.0289306640625,0.989379882812,-17.4375,94.8125,24.6875,3.9,-1.56,8.71
1455209330208000898,298,0,/imu_data_acquisition2,33584.0,-0.119323730469,-0.0717163085938,0.0301513671875,0.989807128906,-22.375,115.1875,30.5,3.78,-1.49,9.14
1455209330216542005,299,0,/imu_data_acquisition2,33592.0,-0.122192382812,-0.0602416992188,0.0317993164062,0.990173339844,-12.1875,-0.0625,-0.0625,3.96,-1.63,9.84
1455209330224894046,300,0,/imu_data_acquisition2,33602.0,-0.12548828125,-0.04736328125,0.0341796875,0.990356445312,-31.5,149.0,48.625,4.47,-1.81,9.46
1455209330240470886,301,0,/imu_data_acquisition2,33617.0,-0.129577636719,-0.0328979492188,0.0377197265625,0.990295410156,-40.125,165.8125,65.1875,4.63,-2.34,9.76
1455209330297945976,302,0,/imu_data_acquisition2,33621.0,-0.135681152344,-0.0150146484375,0.0429077148438,0.989685058594,-62.4375,203.75,91.0,3.08,-6.81,12.37
1455209330396207094,303,0,/imu_data_acquisition2,33635.0,-0.142639160156,0.0059814453125,0.0487670898438,0.988525390625,-71.6875,240.1875,104.125,4.51,0.02,15.18
1455209330401118040,304,0,/imu_data_acquisition2,33641.0,-0.149963378906,0.0287475585938,0.0556030273438,0.986694335938,-75.9375,259.5,119.375,3.57,-2.88,21.0
1455209330403048038,305,0,/imu_data_acquisition2,33650.0,-0.156616210938,0.0506591796875,0.0633544921875,0.984313964844,-70.4375,247.4375,128.3125,1.43,-4.15,22.92
1455209330405756950,306,0,/imu_data_acquisition2,33661.0,-0.162048339844,0.0697021484375,0.0712890625,0.981750488281,-58.625,212.8125,126.375,4.94,-10.74,18.62
1455209330406500101,307,0,/imu_data_acquisition2,33670.0,-0.162780761719,0.0841064453125,0.0765380859375,0.980102539062,-4.0,159.3125,89.4375,8.85,-12.3,15.08
1455209330407181024,308,0,/imu_data_acquisition2,33680.0,-0.158996582031,0.0938720703125,0.0772094726562,0.979797363281,51.9375,108.5625,31.1875,7.26,-10.15,12.26
1455209330407933950,309,0,/imu_data_acquisition2,33690.0,-0.154724121094,0.10205078125,0.0764770507812,0.979675292969,57.6875,93.0,11.4375,12.56,-0.23,15.42
1455209330408552885,310,0,/imu_data_acquisition2,33700.0,-0.152648925781,0.108154296875,0.0772705078125,0.979309082031,27.375,67.5625,23.125,9.49,-2.05,9.37
1455209330409228086,311,0,/imu_data_acquisition2,33710.0,-0.151062011719,0.112609863281,0.0795288085938,0.978881835938,19.1875,46.75,36.9375,10.26,-0.56,7.21
1455209330410020112,312,0,/imu_data_acquisition2,33720.0,-0.149169921875,0.116394042969,0.0831298828125,0.978393554688,20.0,36.125,51.125,9.89,-2.45,8.32
1455209330411169052,313,0,/imu_data_acquisition2,33730.0,-0.146179199219,0.118835449219,0.087158203125,0.978210449219,30.5625,18.4375,55.0,9.86,-2.12,8.37
1455209330413690090,314,0,/imu_data_acquisition2,33747.0,-0.14306640625,0.119506835938,0.0914916992188,0.978210449219,30.5625,-2.75,55.875,9.48,-2.53,8.01
1455209330418567895,315,0,/imu_data_acquisition2,33751.0,-0.0150756835938,-6.103515625e-05,-6.103515625e-05,0.978332519531,27.5,-24.625,53.5,8.94,-3.18,6.21
1455209330422168970,317,0,/imu_data_acquisition2,33779.0,-0.134643554688,0.111572265625,0.103820800781,0.979125976562,16.375,-72.0625,28.3125,7.81,-3.13,6.4
1455209330425363063,318,0,/imu_data_acquisition2,33782.0,-0.132385253906,0.106079101562,0.106811523438,0.979675292969,16.375,-72.0625,28.3125,7.81,-3.13,6.4
1455209330426646947,319,0,/imu_data_acquisition2,33791.0,-6.103515625e-05,-6.103515625e-05,-6.103515625e-05,0.980407714844,10.5625,-87.75,17.1875,7.08,-2.71,6.37
1455209330428410053,320,0,/imu_data_acquisition2,33801.0,-0.129150390625,0.0908203125,0.11083984375,0.981201171875,5.1875,-101.5,7.6875,6.67,-2.5,6.37
1455209330436310052,321,0,/imu_data_acquisition2,33810.0,-0.127990722656,0.0814819335938,0.112060546875,0.982055664062,0.8125,-112.625,-0.3125,6.32,-2.51,6.74
1455209330445648908,322,0,/imu_data_acquisition2,33822.0,-0.127075195312,0.0711669921875,0.112731933594,0.98291015625,-2.4375,-123.0625,-7.625,5.96,-2.58,7.63
1455209330459374904,323,0,/imu_data_acquisition2,33830.0,-0.126342773438,0.0598754882812,0.113037109375,0.983703613281,-5.3125,-132.8125,-14.125,5.76,-2.67,8.67
1455209330464092969,324,0,/imu_data_acquisition2,33841.0,-0.125854492188,0.047607421875,0.112915039062,0.984436035156,-9.5625,-144.375,-20.375,5.5,-2.93,9.5
1455209330476464033,325,0,/imu_data_acquisition2,33852.0,-0.125549316406,0.0340576171875,0.112365722656,0.985107421875,-13.0625,-157.375,-27.3125,5.04,-2.88,10.43
1455209330488265991,326,0,/imu_data_acquisition2,33862.0,-0.125427246094,0.0194702148438,0.111450195312,0.985656738281,-16.9375,-169.3125,-33.1875,4.82,-2.74,10.84
1455209330495220899,327,0,/imu_data_acquisition2,33872.0,-0.125549316406,0.00384521484375,0.110229492188,0.985961914062,-21.25,-180.9375,-37.4375,4.56,-2.66,11.07
1455209330511759042,328,0,/imu_data_acquisition2,33888.0,-0.125793457031,-0.0127563476562,0.108947753906,0.985961914062,-24.625,-15.0,-0.0625,4.32,-2.57,11.33
1455209330518275022,329,0,/imu_data_acquisition2,33894.0,-0.126281738281,-0.0299682617188,0.107727050781,0.985656738281,-28.0625,-198.8125,-39.6875,3.7,-2.31,12.16
1455209330523799896,330,0,/imu_data_acquisition2,33900.0,-0.126892089844,-0.0477294921875,0.106689453125,0.984985351562,-15.125,-0.0625,-0.0625,3.4,-2.58,12.65
1455209330535722970,331,0,/imu_data_acquisition2,33912.0,-0.127563476562,-0.0659790039062,0.105773925781,0.983947753906,-33.125,-210.75,-36.25,3.31,-2.89,12.92
1455209330548901081,332,0,/imu_data_acquisition2,33922.0,-0.128112792969,-0.0844116210938,0.104919433594,0.982604980469,-16.0,-0.0625,-0.0625,2.93,-3.34,13.83
1455209330553910970,333,0,/imu_data_acquisition2,33931.0,-0.12841796875,-0.103149414062,0.10400390625,0.980834960938,-14.4375,-0.0625,-0.0625,2.74,-3.41,14.3
1455209330565448999,334,0,/imu_data_acquisition2,33941.0,-6.103515625e-05,-6.103515625e-05,-6.103515625e-05,0.978759765625,-29.9375,-219.75,-35.9375,2.58,-3.78,14.76
1455209330577140092,335,0,/imu_data_acquisition2,33951.0,-0.128601074219,-0.140930175781,0.102233886719,0.976318359375,-28.3125,-221.875,-36.625,2.13,-4.61,15.18
1455209330583694934,336,0,/imu_data_acquisition2,33960.0,-0.128173828125,-0.159912109375,0.101196289062,0.973510742188,-23.6875,-223.1875,-38.375,1.66,-5.21,15.05
1455209330596038103,337,0,/imu_data_acquisition2,33971.0,-0.127136230469,-0.178771972656,0.0999755859375,0.970520019531,-17.1875,-222.4375,-40.875,1.08,-5.42,14.72
1455209330606650114,338,0,/imu_data_acquisition2,33982.0,-0.125610351562,-0.197326660156,0.0985717773438,0.967224121094,-12.3125,-219.875,-43.75,-0.22,-5.84,14.53
1455209330614020109,339,0,/imu_data_acquisition2,33991.0,-0.124145507812,-0.215515136719,0.0968017578125,0.963745117188,-13.625,-0.0625,-0.0625,-1.16,-6.05,13.87
1455209330625298023,340,0,/imu_data_acquisition2,34001.0,-0.122863769531,-0.233032226562,0.0946655273438,0.960021972656,-16.75,-207.5,-49.25,-2.2,-5.58,12.71
1455209330635157108,341,0,/imu_data_acquisition2,34011.0,-0.121887207031,-0.249450683594,0.0921020507812,0.956237792969,-20.0,-194.4375,-51.875,-3.08,-4.83,11.53
1455209330644285917,342,0,/imu_data_acquisition2,34021.0,-0.121337890625,-0.264282226562,0.0892333984375,0.95263671875,-23.625,-175.1875,-51.125,-4.47,-3.95,10.67
1455209330655152082,343,0,/imu_data_acquisition2,34031.0,-0.120910644531,-0.277221679688,0.0863037109375,0.949279785156,-22.5,-152.875,-49.75,-5.31,-3.34,10.56
1455209330665296077,344,0,/imu_data_acquisition2,34041.0,-0.120178222656,-0.288330078125,0.0834350585938,0.9462890625,-16.8125,-131.1875,-47.125,-5.64,-2.57,11.27
1455209330674088001,345,0,/imu_data_acquisition2,34051.0,-0.119323730469,-0.297485351562,0.0809936523438,0.943786621094,-11.4375,-108.875,-40.75,-7.13,-1.57,12.59
1455209330688186883,346,0,/imu_data_acquisition2,34062.0,-0.118530273438,-0.305053710938,0.0791015625,0.941589355469,-8.25,-89.9375,-33.0625,-8.03,-1.67,13.78
1455209330697494983,347,0,/imu_data_acquisition2,34071.0,-0.118103027344,-0.311340332031,0.0776977539062,0.939697265625,-8.4375,-75.25,-24.3125,-8.89,-2.02,13.71
1455209330704943895,348,0,/imu_data_acquisition2,34081.0,-0.117614746094,-0.316711425781,0.07666015625,0.938049316406,-6.0625,-64.9375,-18.6875,-10.28,-1.93,13.29
1455209330716037034,349,0,/imu_data_acquisition2,34092.0,-0.117553710938,-0.321350097656,0.0759887695312,0.9365234375,-8.125,-56.25,-12.75,-10.8,-1.93,11.44
1455209330724139928,350,0,/imu_data_acquisition2,34101.0,-0.117919921875,-0.325073242188,0.0755004882812,0.935241699219,-11.0625,-44.875,-8.4375,-11.16,-1.87,9.37
1455209330736903905,351,0,/imu_data_acquisition2,34112.0,-0.118530273438,-0.327209472656,0.0750122070312,0.934509277344,-11.5,-25.25,-4.8125,-11.08,-2.14,8.63
1455209330746458053,352,0,/imu_data_acquisition2,34121.0,-0.119262695312,-0.327514648438,0.0745239257812,0.934326171875,-10.5,-3.0625,-3.375,-10.39,-3.19,9.81
1455209330755130052,353,0,/imu_data_acquisition2,34131.0,-0.119812011719,-0.326416015625,0.073486328125,0.934692382812,-8.125,15.375,-7.6875,-9.84,-3.85,8.67
1455209330765588998,354,0,/imu_data_acquisition2,34142.0,-0.119812011719,-0.32373046875,0.0716552734375,0.935791015625,-3.4375,36.875,-17.75,-10.11,-4.23,7.75
1455209330776892900,355,0,/imu_data_acquisition2,34152.0,-0.119812011719,-0.32373046875,0.0716552734375,0.935791015625,5.6875,62.6875,-32.5,-9.35,-7.55,-2.04
1455209330785487890,356,0,/imu_data_acquisition2,34161.0,-0.115417480469,-0.309936523438,0.0632934570312,0.941589355469,30.75,120.6875,-61.625,-10.29,-2.97,5.83
1455209330795774936,357,0,/imu_data_acquisition2,34172.0,-0.108337402344,-0.298278808594,0.0560913085938,0.946655273438,68.3125,152.5,-94.6875,0.9,-2.27,12.7
1455209330806112051,358,0,/imu_data_acquisition2,34182.0,-0.108337402344,-0.298278808594,0.0560913085938,0.946655273438,64.4375,137.625,-110.0625,12.32,7.32,4.31
1455209330816236019,359,0,/imu_data_acquisition2,34193.0,-0.0968627929688,-0.275756835938,0.0396728515625,0.955505371094,32.0625,159.6875,-91.375,5.62,6.6,-2.6
1455209330826153993,360,0,/imu_data_acquisition2,34202.0,-0.0955200195312,-0.258605957031,0.0339965820312,0.960632324219,10.125,216.5,-51.625,1.95,4.87,1.97
1455209330836142063,361,0,/imu_data_acquisition2,34211.0,-0.0955200195312,-0.258605957031,0.0339965820312,0.960632324219,57.9375,256.0625,-38.125,0.5,9.85,25.81
1455209330845271110,362,0,/imu_data_acquisition2,34222.0,-0.0852661132812,-0.219116210938,0.0277709960938,0.971557617188,67.9375,229.9375,-23.625,1.25,6.66,24.75
1455209330856895923,363,0,/imu_data_acquisition2,34233.0,-0.0825805664062,-0.203857421875,0.0274658203125,0.97509765625,38.5,183.6875,4.0625,2.64,5.75,-0.01
1455209330867331027,364,0,/imu_data_acquisition2,34243.0,-0.0825805664062,-0.203857421875,0.0274658203125,0.97509765625,23.625,148.6875,24.1875,3.78,3.02,14.89
1455209330874752044,365,0,/imu_data_acquisition2,34251.0,-0.0814208984375,-0.19140625,0.02880859375,0.977722167969,-1.3125,140.8125,32.75,2.23,-6.34,12.45
1455209330886706113,366,0,/imu_data_acquisition2,34262.0,-0.0823974609375,-0.179504394531,0.0305786132812,0.979797363281,-10.875,138.25,23.0625,2.71,-6.82,14.83
1455209330896049976,367,0,/imu_data_acquisition2,34271.0,-0.083984375,-0.16796875,0.0313110351562,0.981689453125,1.5,121.6875,-1.4375,2.19,-6.45,22.29
1455209330905760049,368,0,/imu_data_acquisition2,34282.0,-0.0841674804688,-0.157836914062,0.0303955078125,0.9833984375,-0.875,76.375,-4.0,3.61,-0.16,12.57
1455209330918596029,369,0,/imu_data_acquisition2,34293.0,-0.0843505859375,-0.151550292969,0.0294799804688,0.984375,-16.75,48.3125,10.1875,3.18,0.34,12.96
1455209330926409006,370,0,/imu_data_acquisition2,34301.0,-0.0859985351562,-0.1474609375,0.02978515625,0.98486328125,-39.125,45.125,19.25,1.97,-6.56,10.82
1455209330935995101,371,0,/imu_data_acquisition2,34313.0,-0.089599609375,-0.143676757812,0.0305786132812,0.985107421875,-22.8125,25.375,9.3125,3.19,-1.55,10.53
1455209330948100090,372,0,/imu_data_acquisition2,34322.0,-0.0916748046875,-0.141540527344,0.0308837890625,0.985168457031,-12.9375,18.375,5.8125,3.46,-2.12,10.21
1455209330954714059,373,0,/imu_data_acquisition2,34331.0,-0.0928955078125,-0.140014648438,0.0310668945312,0.985290527344,-12.5625,11.5625,4.1875,3.9,-1.9,9.58
1455209330965985059,374,0,/imu_data_acquisition2,34342.0,-0.0940551757812,-0.139038085938,0.0311889648438,0.985290527344,-9.125,7.9375,2.5625,3.86,-1.53,9.75
1455209330978809118,375,0,/imu_data_acquisition2,34351.0,-0.0948486328125,-0.138366699219,0.0311889648438,0.9853515625,-9.125,7.9375,2.5625,3.58,-1.44,9.95
1455209330984380960,376,0,/imu_data_acquisition2,34361.0,-0.095703125,-0.0127563476562,-6.103515625e-05,0.9853515625,-9.75,5.5625,2.125,3.39,-1.23,9.57
1455209330996439933,377,0,/imu_data_acquisition2,34372.0,-0.0965576171875,-0.137329101562,0.0313110351562,0.985290527344,-11.875,5.0625,2.0625,3.35,-1.79,9.67
1455209331008672952,378,0,/imu_data_acquisition2,34382.0,-0.0975952148438,-0.136901855469,0.0313110351562,0.985290527344,-12.5,3.625,1.0625,3.29,-1.76,9.61
1455209331016810894,379,0,/imu_data_acquisition2,34394.0,-0.0997924804688,-0.136291503906,0.0311279296875,0.985168457031,-13.25,4.1875,1.25,3.28,-2.02,9.41
1455209331026945114,380,0,/imu_data_acquisition2,34402.0,-0.0997924804688,-0.136291503906,0.0311279296875,0.985168457031,-13.25,4.1875,1.25,2.97,-2.0,9.52
1455209331035826921,381,0,/imu_data_acquisition2,34412.0,-0.100769042969,-0.135986328125,0.031005859375,0.985107421875,-10.25,3.125,0.875,2.67,-1.79,9.13
1455209331046956062,382,0,/imu_data_acquisition2,34424.0,-0.102355957031,-0.135559082031,0.0308837890625,0.984985351562,-8.75,2.625,0.6875,2.89,-2.48,9.85
