%time,field.header.seq,field.header.stamp,field.header.frame_id,field.time_stamp,field.quat_x,field.quat_y,field.quat_z,field.quat_w,field.gyro_x,field.gyro_y,field.gyro_z,field.accel_x,field.accel_y,field.accel_z
1455208473851605892,347,0,/imu_data_acquisition2,72931.0,-0.093505859375,0.00128173828125,-0.0548095703125,0.994079589844,-1.25,207.6875,50.4375,1.04,-3.9,10.67
1455208473859076023,348,0,/imu_data_acquisition2,72942.0,-0.092041015625,0.01953125,-0.0521850585938,0.994201660156,5.0625,213.4375,51.3125,7.0,-2.26,12.55
1455208473869493007,349,0,/imu_data_acquisition2,72952.0,-0.0897827148438,0.0380859375,-0.05078125,0.993957519531,14.875,217.8125,37.125,5.84,-4.2,19.58
1455208473878954887,350,0,/imu_data_acquisition2,72962.0,-0.087646484375,0.0587768554688,-0.0482177734375,0.993225097656,10.4375,242.375,52.3125,1.36,-3.36,22.76
1455208473887084960,351,0,/imu_data_acquisition2,72969.0,-0.0848999023438,0.0820922851562,-0.0435180664062,0.992065429688,15.0,271.625,81.1875,1.36,-3.36,22.76
1455208473896394968,352,0,/imu_data_acquisition2,72979.0,-0.081787109375,0.106994628906,-6.103515625e-05,0.990173339844,16.3125,291.0,87.9375,-0.39,-5.06,16.86
1455208473908885955,353,0,/imu_data_acquisition2,72992.0,-0.0772094726562,0.131591796875,-0.03369140625,0.987731933594,34.4375,289.3125,82.4375,4.03,-2.3,16.02
1455208473930566072,354,0,/imu_data_acquisition2,73005.0,-0.0708618164062,0.152893066406,-0.0300903320312,0.985229492188,57.6875,252.1875,70.5,11.42,5.56,14.99
1455208473931247949,355,0,/imu_data_acquisition2,73013.0,-0.06396484375,0.169555664062,-0.0277709960938,0.983032226562,71.375,139.4375,43.875,2.8,0.0,18.27
1455208473941020011,356,0,/imu_data_acquisition2,73021.0,-0.0570678710938,0.181213378906,-0.02587890625,0.9814453125,71.375,-0.0625,-0.0625,2.8,0.0,18.27
1455208473951630115,357,0,/imu_data_acquisition2,73032.0,-0.0552978515625,0.189758300781,-0.0198974609375,0.980041503906,3.9375,99.0,78.875,13.19,-1.72,11.28
1455208473960529088,358,0,/imu_data_acquisition2,73043.0,-0.0547485351562,0.195068359375,-0.0125732421875,0.979187011719,-13.0,38.5625,87.625,10.3,-4.57,8.21
1455208473970074892,359,0,/imu_data_acquisition2,73052.0,-0.0543212890625,0.198669433594,-0.00531005859375,0.978515625,-13.0,38.5625,87.625,10.3,-3.8,8.39
1455208473982980012,360,0,/imu_data_acquisition2,73064.0,-0.0537109375,0.20068359375,0.00091552734375,0.978210449219,-6.5,-3.75,59.125,10.12,-3.89,7.98
1455208473991540908,361,0,/imu_data_acquisition2,73074.0,-0.05322265625,0.200622558594,0.0059814453125,0.978210449219,-12.5,-26.0625,43.875,9.38,-3.14,7.57
1455208473997427940,362,0,/imu_data_acquisition2,73080.0,-0.0535278320312,0.198669433594,0.0098876953125,0.978576660156,-12.5,-26.0625,43.875,9.38,-3.14,7.57
1455208474034008979,365,0,/imu_data_acquisition2,73115.0,-0.0574951171875,0.181518554688,0.0162353515625,0.981567382812,-26.625,-117.6875,3.1875,7.18,-0.47,9.37
1455208474041480064,366,0,/imu_data_acquisition2,73124.0,-0.0595092773438,0.171691894531,0.0175170898438,0.983215332031,-24.9375,-140.125,1.8125,6.53,-0.32,9.82
1455208474050688028,367,0,/imu_data_acquisition2,73133.0,-0.0613403320312,0.160034179688,0.0187377929688,0.985046386719,-24.9375,-140.125,1.8125,5.4,-0.33,9.92
1455208474062963962,368,0,/imu_data_acquisition2,73143.0,-0.0628051757812,0.146545410156,0.0200805664062,0.986999511719,-5.5,-0.0625,-0.0625,5.4,-0.33,9.92
1455208474074904918,369,0,/imu_data_acquisition2,73156.0,-0.0639038085938,0.131591796875,0.021484375,0.989013671875,-14.5,-196.625,5.5,4.37,-0.64,10.36
1455208474085886001,370,0,/imu_data_acquisition2,73164.0,-0.0646362304688,0.115112304688,0.023193359375,0.990966796875,-13.875,-211.6875,7.125,3.61,-1.25,10.32
1455208474099956989,372,0,/imu_data_acquisition2,73181.0,-0.0660400390625,0.0787353515625,0.027099609375,0.994323730469,-15.1875,-222.75,8.3125,3.28,-1.56,10.59
1455208474112987995,373,0,/imu_data_acquisition2,73193.0,-0.0668334960938,0.059326171875,0.0291137695312,0.995544433594,-16.3125,-230.375,7.125,3.02,-1.81,12.18
1455208474121838092,374,0,/imu_data_acquisition2,73203.0,-0.0678100585938,0.0394287109375,0.031005859375,0.996459960938,-18.8125,-236.375,5.3125,2.42,-2.1,13.67
1455208474138015031,375,0,/imu_data_acquisition2,73213.0,-0.0690307617188,0.0189208984375,0.0327758789062,0.996887207031,-22.75,-243.1875,3.5,2.14,-2.11,14.0
1455208474139866113,376,0,/imu_data_acquisition2,73221.0,-0.070556640625,-0.0023193359375,0.0343627929688,0.996887207031,-26.125,-251.9375,1.6875,2.14,-2.11,14.0
1455208474151155948,377,0,/imu_data_acquisition2,73231.0,-0.072021484375,-0.0242309570312,0.0359497070312,0.996459960938,-26.9375,-259.3125,0.3125,1.84,-2.1,14.34
1455208474162003993,378,0,/imu_data_acquisition2,73242.0,-0.073486328125,-0.0465698242188,0.0374755859375,0.995483398438,-26.5,-264.3125,-0.3125,1.45,-2.06,14.58
1455208474170638084,379,0,/imu_data_acquisition2,73253.0,-0.0746459960938,-0.069091796875,0.0389404296875,0.994079589844,-24.5,-267.0625,-0.8125,1.01,-1.86,15.03
1455208474183556079,380,0,/imu_data_acquisition2,73263.0,-0.0758056640625,-0.0916137695312,0.0404663085938,0.992065429688,-24.375,-267.875,0.0625,1.01,-1.86,15.03
1455208474190284013,381,0,/imu_data_acquisition2,73272.0,-0.0770874023438,-0.114074707031,0.042236328125,0.989562988281,-26.1875,-267.125,2.75,0.68,-3.04,15.07
1455208474200141906,382,0,/imu_data_acquisition2,73281.0,-0.07861328125,-0.136169433594,0.0440673828125,0.986572265625,-28.8125,-264.0,5.25,0.24,-4.21,15.14
1455208474210742950,383,0,/imu_data_acquisition2,73290.0,-0.080078125,-0.157775878906,0.0457763671875,0.983154296875,-29.1875,-258.625,3.6875,-0.41,-4.81,15.21
1455208474221499919,384,0,/imu_data_acquisition2,73303.0,-0.081298828125,-0.178771972656,0.0467529296875,0.979431152344,-27.375,-251.4375,-4.3125,-2.44,-5.3,15.61
1455208474231667041,385,0,/imu_data_acquisition2,73314.0,-0.0826416015625,-0.199035644531,0.0466918945312,0.975402832031,-30.5,-243.125,-14.9375,-3.25,-5.42,16.07
1455208474237487077,386,0,/imu_data_acquisition2,73320.0,-0.0846557617188,-0.218566894531,0.0455322265625,0.971069335938,-41.1875,-233.625,-25.1875,-3.25,-5.42,16.07
1455208474250780105,387,0,/imu_data_acquisition2,73331.0,-0.0875244140625,-0.237487792969,0.0430908203125,0.966491699219,-53.75,-225.1875,-37.375,-4.23,-5.14,15.96
1455208474260795116,388,0,/imu_data_acquisition2,73342.0,-0.0909423828125,-0.255737304688,0.0391845703125,0.961669921875,-64.25,-217.0625,-51.25,-6.53,-3.25,13.99
1455208474270240068,389,0,/imu_data_acquisition2,73353.0,-0.0947265625,-0.273132324219,0.0341186523438,0.956726074219,-72.0625,-205.125,-63.125,-8.82,-1.7,12.66
1455208474282207965,390,0,/imu_data_acquisition2,73364.0,-0.0988159179688,-0.288879394531,0.0281372070312,0.951843261719,-77.5,-186.1875,-69.8125,-11.04,-1.62,12.73
1455208474290570020,391,0,/imu_data_acquisition2,73370.0,-0.103088378906,-0.302673339844,0.021728515625,0.947265625,-80.125,-162.0625,-72.25,-0.8,-0.01,-0.01
1455208474298151969,392,0,/imu_data_acquisition2,73380.0,-0.107177734375,-0.314331054688,0.0150146484375,0.943115234375,-78.0,-136.0625,-73.625,-12.1,-1.67,12.64
1455208474310674905,393,0,/imu_data_acquisition2,73393.0,-0.11083984375,-0.323913574219,0.008056640625,0.939575195312,-72.625,-14.875,-0.0625,-13.06,-1.28,11.96
1455208474323031902,394,0,/imu_data_acquisition2,73404.0,-0.113708496094,-0.331481933594,0.0009765625,0.936584472656,-64.125,-86.125,-77.5625,-14.23,0.51,9.37
1455208474331197977,395,0,/imu_data_acquisition2,73414.0,-0.115844726562,-0.336853027344,-0.0059814453125,0.934387207031,-53.8125,-58.8125,-75.875,-14.48,0.31,10.08
1455208474339046001,396,0,/imu_data_acquisition2,73420.0,-0.1171875,-0.339782714844,-0.012451171875,0.93310546875,-42.1875,-28.75,-70.5,-14.48,0.31,10.08
1455208474349622011,397,0,/imu_data_acquisition2,73431.0,-0.117797851562,-0.340026855469,-0.0182495117188,0.932800292969,-30.8125,3.9375,-14.0,-13.94,0.32,11.38
1455208474360919952,398,0,/imu_data_acquisition2,73442.0,-0.117797851562,-0.338256835938,-0.0234985351562,0.933349609375,-20.3125,29.5,-55.25,-13.18,-0.32,11.05
1455208474370460033,399,0,/imu_data_acquisition2,73453.0,-6.103515625e-05,-6.103515625e-05,-6.103515625e-05,0.934692382812,-10.75,53.5625,-53.5,-12.12,-0.06,3.56
1455208474388209104,400,0,/imu_data_acquisition2,73464.0,-0.114868164062,-0.326721191406,-0.0342407226562,0.9375,2.375,106.3125,-59.1875,15.66,5.2,11.18
1455208474390811920,401,0,/imu_data_acquisition2,73471.0,-0.111938476562,-0.316284179688,-0.0404052734375,0.941162109375,9.625,139.3125,-63.9375,15.66,5.2,11.18
1455208474397907018,402,0,/imu_data_acquisition2,73480.0,-0.107604980469,-0.304931640625,-0.0455322265625,0.945190429688,29.125,150.25,-56.5,16.97,13.49,2.72
1455208474419152975,403,0,/imu_data_acquisition2,73491.0,-0.103210449219,-0.293518066406,-0.0506591796875,0.949035644531,29.125,150.25,-56.5,6.4,5.06,-3.37
1455208474425781011,404,0,/imu_data_acquisition2,73504.0,-0.103454589844,-0.275146484375,-0.0529174804688,0.954345703125,-15.3125,227.5625,1.1875,0.18,4.09,23.32
1455208474432015895,405,0,/imu_data_acquisition2,73514.0,-0.0984497070312,-0.258117675781,-0.0536499023438,0.959594726562,49.9375,213.625,-0.875,2.05,0.63,-0.01
1455208474438503026,406,0,/imu_data_acquisition2,73519.0,-0.0961303710938,-0.243774414062,-0.0538330078125,0.963562011719,21.8125,176.6875,10.25,2.05,0.63,17.44
1455208474454965114,407,0,/imu_data_acquisition2,73531.0,-0.093994140625,-0.230651855469,-0.053466796875,0.967041015625,20.375,161.125,15.0625,2.79,2.14,12.59
1455208474458915948,408,0,/imu_data_acquisition2,73541.0,-0.0153198242188,-6.103515625e-05,-6.103515625e-05,0.970092773438,3.5625,156.625,23.1875,2.54,0.19,14.63
1455208474470601081,409,0,/imu_data_acquisition2,73552.0,-0.094482421875,-0.205505371094,-0.052001953125,0.972717285156,-14.3125,144.5625,26.0,2.94,-3.07,14.99
1455208474480122089,410,0,/imu_data_acquisition2,73562.0,-0.0957641601562,-0.19482421875,-0.05224609375,0.974731445312,-20.1875,127.4375,13.4375,3.91,-5.63,16.45
1455208474487884998,411,0,/imu_data_acquisition2,73571.0,-0.0963134765625,-0.188171386719,-0.0529174804688,0.975952148438,-10.1875,80.375,2.3125,1.86,-0.01,-0.01
1455208474500114917,412,0,/imu_data_acquisition2,73581.0,-0.09814453125,-0.184204101562,-0.0525512695312,0.9765625,-6.5,-0.0625,-0.0625,4.14,0.07,11.41
1455208474508383035,413,0,/imu_data_acquisition2,73590.0,-0.101013183594,-0.1806640625,-0.0520629882812,0.976928710938,-33.3125,39.375,16.0625,2.62,-3.01,11.35
1455208474519885063,414,0,/imu_data_acquisition2,73603.0,-0.102172851562,-0.178527832031,-0.0518798828125,0.977233886719,-13.75,24.375,7.75,3.41,-2.33,10.72
1455208474533389091,415,0,/imu_data_acquisition2,73615.0,-0.1025390625,-0.177185058594,-0.0516967773438,0.977478027344,-5.0,15.5625,4.3125,4.27,-1.21,9.82
1455208474538340091,416,0,/imu_data_acquisition2,73620.0,-0.103088378906,-0.175903320312,-0.051513671875,0.977661132812,-6.0625,14.875,5.25,3.34,-0.84,9.37
1455208474548712968,417,0,/imu_data_acquisition2,73631.0,-0.103637695312,-0.1748046875,-0.0513916015625,0.977783203125,-6.875,12.3125,4.0,3.57,-0.77,10.02
1455208474565264940,418,0,/imu_data_acquisition2,73641.0,-0.104370117188,-0.173950195312,-0.0513305664062,0.977844238281,-8.8125,9.5625,2.8125,3.86,-1.28,9.92
1455208474573642969,419,0,/imu_data_acquisition2,73653.0,-0.105224609375,-0.17333984375,-0.0513916015625,0.977905273438,-9.875,6.75,1.875,3.55,-1.33,9.02
1455208474578993082,420,0,/imu_data_acquisition2,73662.0,-0.106567382812,-0.172790527344,-0.05126953125,0.977844238281,-15.5625,5.0,5.0,3.41,-1.14,9.49
1455208474595542907,421,0,/imu_data_acquisition2,73671.0,-0.109619140625,-0.170776367188,-0.0506591796875,0.977905273438,-35.4375,20.5,15.9375,2.51,-5.71,11.6
1455208474603368997,422,0,/imu_data_acquisition2,73680.0,-0.109924316406,-0.170654296875,-0.0508422851562,0.977844238281,-4.1875,1.875,-1.6875,3.22,0.38,9.46
1455208474607639074,423,0,/imu_data_acquisition2,73690.0,-0.110656738281,-0.170227050781,-0.051025390625,0.977844238281,-8.6875,4.625,0.1875,2.89,-2.54,-0.01
1455208474621752977,424,0,/imu_data_acquisition2,73704.0,-0.111389160156,-0.169860839844,-0.0512084960938,0.977844238281,-9.3125,4.1875,0.5,2.82,-2.11,9.07
1455208474629065990,425,0,/imu_data_acquisition2,73712.0,-0.111999511719,-0.16943359375,-0.0513305664062,0.977783203125,-8.0,4.125,0.1875,2.63,-1.67,9.72
1455208474638967037,426,0,/imu_data_acquisition2,73722.0,-0.112670898438,-0.169128417969,-0.051513671875,0.977783203125,-8.0625,3.375,0.3125,2.62,-2.11,9.42
1455208474650105953,427,0,/imu_data_acquisition2,73731.0,-0.113220214844,-0.168823242188,-0.0516357421875,0.977783203125,-7.0625,3.3125,0.125,3.16,-1.59,9.48
1455208474663180112,428,0,/imu_data_acquisition2,73744.0,-6.103515625e-05,-6.103515625e-05,-6.103515625e-05,0.977783203125,-6.125,4.5625,0.375,2.53,-1.7,9.37
1455208474668881893,429,0,/imu_data_acquisition2,73752.0,-0.1142578125,-0.168029785156,-0.0518188476562,0.977783203125,-6.25,4.4375,0.9375,2.63,-1.91,9.52
1455208474680661916,430,0,/imu_data_acquisition2,73763.0,-0.114868164062,-0.167541503906,-0.0518188476562,0.977783203125,-7.3125,4.8125,1.75,2.68,-1.61,9.3
1455208474688038110,431,0,/imu_data_acquisition2,73770.0,-0.115356445312,-0.167114257812,-0.0518798828125,0.977783203125,-6.25,5.3125,1.1875,2.65,-1.52,9.57
1455208474697555065,432,0,/imu_data_acquisition2,73780.0,-0.115905761719,-0.166625976562,-0.0519409179688,0.977783203125,-6.375,5.125,0.6875,2.86,-1.29,9.11
1455208474712934017,433,0,/imu_data_acquisition2,73792.0,-0.116577148438,-0.166076660156,-0.0520629882812,0.977844238281,-8.3125,6.25,1.0625,2.69,-1.75,9.51
1455208474718127012,434,0,/imu_data_acquisition2,73800.0,-0.117309570312,-0.165466308594,-0.0521240234375,0.977844238281,-9.1875,6.5,1.3125,2.16,-1.28,9.28
1455208474730393886,435,0,/imu_data_acquisition2,73811.0,-0.118225097656,-0.164794921875,-0.0521850585938,0.977844238281,-11.125,7.3125,1.9375,2.34,-1.99,9.87
1455208474739043951,436,0,/imu_data_acquisition2,73821.0,-0.119079589844,-0.164184570312,-0.0523071289062,0.977844238281,-10.25,6.5625,1.0,3.15,-1.54,8.85
1455208474750368118,437,0,/imu_data_acquisition2,73832.0,-0.119934082031,-0.163452148438,-0.0523681640625,0.977844238281,-10.6875,8.3125,1.875,2.73,-2.07,9.79
1455208474758986949,438,0,/imu_data_acquisition2,73841.0,-0.119995117188,-0.16162109375,-0.052490234375,0.978149414062,-9.6875,8.25,1.875,2.28,-1.52,8.9
1455208474769002914,439,0,/imu_data_acquisition2,73850.0,-0.120849609375,-0.160705566406,-0.0524291992188,0.978149414062,-10.625,10.125,3.3125,2.0,-2.29,10.11
1455208474779561996,440,0,/imu_data_acquisition2,73861.0,-0.121643066406,-0.159912109375,-0.052490234375,0.978210449219,-9.3125,8.875,2.25,1.8,-2.39,9.52
1455208474788918972,441,0,/imu_data_acquisition2,73871.0,-0.012939453125,-6.103515625e-05,-6.103515625e-05,0.978271484375,-8.4375,11.125,3.4375,2.88,-1.92,9.78
1455208474800777912,442,0,/imu_data_acquisition2,73880.0,-0.122863769531,-0.158020019531,-0.0523681640625,0.978332519531,-7.0625,10.375,2.75,3.0,-1.74,8.76
1455208474809304952,443,0,/imu_data_acquisition2,73891.0,-0.123474121094,-0.156982421875,-0.0523071289062,0.978454589844,-6.8125,11.6875,3.375,1.99,-2.24,9.81
1455208474819310903,444,0,/imu_data_acquisition2,73902.0,-0.123596191406,-0.15478515625,-0.0521850585938,0.978820800781,-6.125,10.9375,2.9375,2.22,-2.08,9.19
1455208474828622102,445,0,/imu_data_acquisition2,73910.0,-0.123718261719,-0.152893066406,-0.0521240234375,0.979064941406,-5.5625,11.8125,2.75,2.65,-1.99,9.54
1455208474838484048,446,0,/imu_data_acquisition2,73921.0,-0.123840332031,-0.151245117188,-0.0520629882812,0.979309082031,-6.0625,12.0,3.0,2.58,-1.91,9.18
1455208474849687099,447,0,/imu_data_acquisition2,73931.0,-0.123840332031,-0.149291992188,-0.052001953125,0.979614257812,-4.25,12.4375,2.3125,2.19,-2.13,9.51
1455208474923552989,448,0,/imu_data_acquisition2,73940.0,-0.123596191406,-0.147094726562,-0.0519409179688,0.97998046875,-4.375,12.4375,1.875,2.11,-1.86,9.77
1455208474950126886,449,0,/imu_data_acquisition2,73950.0,-0.1240234375,-0.14599609375,-0.052001953125,0.980102539062,-5.25,12.3125,1.6875,1.98,-1.98,9.8
1455208474951457977,450,0,/imu_data_acquisition2,73961.0,-0.124389648438,-0.14501953125,-0.0521850585938,0.980163574219,-5.0,11.75,0.375,2.32,-2.33,9.83
1455208474952747106,451,0,/imu_data_acquisition2,73970.0,-0.124755859375,-0.143981933594,-0.0523071289062,0.980285644531,-5.0625,11.9375,0.875,1.74,-2.14,9.7
1455208474953692913,452,0,/imu_data_acquisition2,73981.0,-0.125,-0.142944335938,-0.052490234375,0.980407714844,-3.625,12.0625,0.25,2.25,-2.2,9.69
1455208474954425096,453,0,/imu_data_acquisition2,73989.0,-0.125305175781,-0.141845703125,-0.0526733398438,0.980529785156,-3.8125,13.0,-0.0625,1.97,-1.94,9.58
1455208474955257892,454,0,/imu_data_acquisition2,73999.0,-0.12548828125,-0.140747070312,-0.0529174804688,0.980651855469,-3.25,13.0625,-0.6875,2.21,-1.83,9.29
1455208474957298040,456,0,/imu_data_acquisition2,74020.0,-0.126037597656,-0.138366699219,-0.0532836914062,0.980895996094,-3.875,14.375,-0.25,2.13,-1.7,9.37
1455208474959323883,457,0,/imu_data_acquisition2,74029.0,-6.103515625e-05,-6.103515625e-05,-6.103515625e-05,0.981018066406,-4.375,15.4375,0.1875,2.0,-2.01,9.57
1455208474960843086,458,0,/imu_data_acquisition2,74039.0,-0.126647949219,-0.135681152344,-0.0537719726562,0.981140136719,-4.3125,-0.0625,-0.0625,2.09,-1.89,9.74
1455208474967339038,459,0,/imu_data_acquisition2,74049.0,-0.126159667969,-0.133117675781,-0.0538940429688,0.981567382812,-4.3125,-0.0625,-0.0625,1.97,-1.85,9.48
1455208474988715887,461,0,/imu_data_acquisition2,74071.0,-0.125793457031,-0.127563476562,-0.053955078125,0.982360839844,-5.5625,20.6875,2.9375,1.77,-2.35,9.48
1455208475001867055,462,0,/imu_data_acquisition2,74081.0,-0.125610351562,-0.125183105469,-0.0540161132812,0.982666015625,-3.6875,22.75,2.875,2.45,-1.8,9.42
1455208475007117986,463,0,/imu_data_acquisition2,74090.0,-6.103515625e-05,-6.103515625e-05,-6.103515625e-05,0.983032226562,-5.5,26.75,4.5,2.14,-1.93,9.52
1455208475018337965,464,0,/imu_data_acquisition2,74100.0,-0.125854492188,-0.119934082031,-0.053955078125,0.983276367188,-3.875,30.0,4.5625,1.78,-2.02,8.96
1455208475027870893,465,0,/imu_data_acquisition2,74111.0,-0.126159667969,-0.117065429688,-0.0538940429688,0.983581542969,-4.875,33.1875,5.6875,1.5,-2.1,9.44
1455208475039437055,466,0,/imu_data_acquisition2,74121.0,-0.12646484375,-0.114013671875,-0.0538330078125,0.983947753906,-5.0,35.6875,5.6875,1.73,-2.08,9.64
1455208475048156976,467,0,/imu_data_acquisition2,74130.0,-0.126770019531,-0.110778808594,-0.0537719726562,0.984252929688,-5.0,38.0625,6.1875,1.46,-1.9,9.56
1455208475057924032,468,0,/imu_data_acquisition2,74140.0,-0.127136230469,-0.107238769531,-0.0068359375,0.984619140625,-5.75,40.9375,6.8125,1.29,-2.14,9.75
1455208475069516897,469,0,/imu_data_acquisition2,74152.0,-0.127563476562,-0.103332519531,-0.0535278320312,0.984985351562,-6.75,45.875,8.25,0.19,-2.27,9.62
1455208475078614950,470,0,/imu_data_acquisition2,74161.0,-0.127807617188,-0.0992431640625,-0.0534057617188,0.9853515625,-4.6875,48.0625,8.1875,0.63,-1.69,8.91
1455208475087713003,471,0,/imu_data_acquisition2,74170.0,-0.128173828125,-0.0944213867188,-0.05322265625,0.98583984375,-6.0,56.25,10.25,2.32,-2.35,9.9
1455208475100042104,472,0,/imu_data_acquisition2,74181.0,-0.128295898438,-0.0889892578125,-0.0530395507812,0.986328125,-4.5,63.25,10.8125,1.91,-1.05,9.38
1455208475108849048,473,0,/imu_data_acquisition2,74191.0,-0.12890625,-0.0828857421875,-0.052734375,0.986755371094,-9.75,71.0,14.125,1.94,-1.97,8.71
1455208475118707895,474,0,/imu_data_acquisition2,74201.0,-0.0042724609375,-6.103515625e-05,-6.103515625e-05,0.9873046875,-7.125,81.6875,13.8125,1.55,-4.11,9.82
1455208475128767967,475,0,/imu_data_acquisition2,74210.0,-0.129211425781,-0.0679931640625,-0.0523681640625,0.987915039062,-3.375,92.5,13.75,2.87,-2.35,9.09
1455208475140166044,476,0,/imu_data_acquisition2,74221.0,-0.12939453125,-0.0590209960938,-0.05224609375,0.988464355469,-6.625,105.1875,15.375,2.45,-2.48,9.7
1455208475148974895,477,0,/imu_data_acquisition2,74231.0,-0.129516601562,-0.0488891601562,-0.052490234375,0.988952636719,-7.4375,118.9375,13.1875,1.93,-2.06,8.87
1455208475157927989,478,0,/imu_data_acquisition2,74239.0,-0.130187988281,-0.037109375,-0.0525512695312,0.989379882812,-14.3125,137.75,18.125,2.56,-1.39,8.67
1455208475170152902,479,0,/imu_data_acquisition2,74251.0,-0.131896972656,-0.0236206054688,-0.0521240234375,0.989624023438,-28.0625,156.875,26.8125,3.21,-1.31,9.19
1455208475179894924,480,0,/imu_data_acquisition2,74262.0,-0.134765625,-0.00872802734375,-0.0513916015625,0.989501953125,-42.4375,171.4375,32.1875,2.3,-0.01,-0.01
1455208475186695098,481,0,/imu_data_acquisition2,74269.0,-0.136657714844,0.0069580078125,-0.0513916015625,0.9892578125,-32.25,182.125,25.125,-8.64,-2.48,17.91
1455208475200072050,482,0,/imu_data_acquisition2,74281.0,-0.139465332031,0.0223388671875,-0.052978515625,0.988525390625,-43.375,181.125,5.375,14.58,-0.22,0.15
1455208475208483934,483,0,/imu_data_acquisition2,74291.0,-0.142578125,0.0408935546875,-6.103515625e-05,0.987487792969,-49.4375,215.8125,-0.0625,2.01,-0.01,-0.01
1455208475217108964,484,0,/imu_data_acquisition2,74299.0,-0.00482177734375,-6.103515625e-05,-6.103515625e-05,0.986022949219,-49.125,242.3125,34.875,4.87,-0.56,12.34
1455208475230127096,485,0,/imu_data_acquisition2,74311.0,-0.148559570312,0.0868530273438,-0.0519409179688,0.983703613281,-57.0625,291.5625,52.0,3.22,-3.96,14.37
1455208475241197109,486,0,/imu_data_acquisition2,74322.0,-0.150329589844,0.114868164062,-0.0505981445312,0.980651855469,-44.875,325.75,60.875,-1.99,-5.07,18.02
1455208475246572017,487,0,/imu_data_acquisition2,74329.0,-0.151306152344,0.144653320312,-0.0488891601562,0.976623535156,-38.875,348.125,69.5,-1.14,-2.51,20.21
1455208475258224964,488,0,/imu_data_acquisition2,74340.0,-0.150817871094,0.175048828125,-0.0457763671875,0.971862792969,-25.25,354.5625,88.3125,3.4,-2.08,19.34
1455208475278181076,490,0,/imu_data_acquisition2,74360.0,-0.148620605469,0.233337402344,-0.0352172851562,0.960327148438,-23.25,334.375,111.1875,-0.89,-4.2,12.59
1455208475289906978,491,0,/imu_data_acquisition2,74370.0,-0.148193359375,0.26025390625,-0.0294189453125,0.953674316406,-33.6875,314.5625,111.625,-2.26,-4.99,16.52
1455208475302313089,492,0,/imu_data_acquisition2,74380.0,-0.14697265625,0.278198242188,-0.0256958007812,0.948852539062,-12.75,211.0,75.5,0.47,-9.68,25.07
1455208475307810068,493,0,/imu_data_acquisition2,74390.0,-0.141052246094,0.284057617188,-0.0249633789062,0.948059082031,61.0,69.25,37.9375,0.54,2.3,18.57
1455208475320997953,494,0,/imu_data_acquisition2,74401.0,-0.138244628906,0.285705566406,-0.0208129882812,0.948059082031,16.8125,11.8125,58.4375,8.71,-1.57,21.29
1455208475328737020,495,0,/imu_data_acquisition2,74410.0,-0.135681152344,0.28076171875,-0.0153198242188,0.950012207031,14.625,-70.125,62.5,10.84,1.77,15.14
1455208475338021039,496,0,/imu_data_acquisition2,74420.0,-0.132690429688,0.274536132812,-0.00860595703125,0.952331542969,16.1875,-88.125,76.0,9.03,-0.08,5.4
1455208475349365949,497,0,/imu_data_acquisition2,74432.0,-0.127746582031,0.269104003906,-0.0023193359375,0.95458984375,40.0,-77.5,78.4375,8.65,-0.28,4.84
1455208475358777046,498,0,/imu_data_acquisition2,74440.0,-0.127746582031,0.269104003906,-0.0023193359375,0.95458984375,51.3125,-74.125,81.1875,8.2,-0.66,5.61
1455208475368222951,499,0,/imu_data_acquisition2,74450.0,-0.116027832031,0.25830078125,0.0101318359375,0.959045410156,48.1875,-80.8125,80.8125,7.62,-2.85,6.81
1455208475379587888,500,0,/imu_data_acquisition2,74462.0,-0.110717773438,0.251525878906,0.0164184570312,0.961364746094,42.9375,-93.25,78.25,7.08,-2.15,8.47
1455208475389661073,501,0,/imu_data_acquisition2,74472.0,-0.106201171875,0.243225097656,0.0223388671875,0.9638671875,35.625,-110.5,68.8125,6.53,-3.93,9.3
1455208475397937059,502,0,/imu_data_acquisition2,74480.0,-0.102355957031,0.232666015625,0.0274047851562,0.966735839844,30.25,-136.0625,55.4375,6.3,-4.37,9.74
1455208475410144090,503,0,/imu_data_acquisition2,74491.0,-0.102355957031,0.232666015625,-6.103515625e-05,0.966735839844,33.0,-160.3125,37.4375,5.3,-4.52,9.82
1455208475420358896,504,0,/imu_data_acquisition2,74502.0,-0.0947875976562,0.205261230469,0.0337524414062,0.973510742188,35.375,-182.875,20.4375,4.65,-3.94,9.24
1455208475428641080,505,0,/imu_data_acquisition2,74511.0,-0.0911254882812,0.188842773438,0.0353393554688,0.977111816406,35.4375,-201.1875,7.25,4.02,-3.42,8.83
1455208475441342115,506,0,/imu_data_acquisition2,74521.0,-0.0880737304688,0.171081542969,0.0366821289062,0.980651855469,28.75,-215.75,1.375,2.99,-3.37,9.02
1455208475451644897,507,0,/imu_data_acquisition2,74531.0,-0.0880737304688,0.171081542969,0.0366821289062,0.980651855469,20.75,-224.6875,0.0,2.5,-0.01,-0.01
1455208475458884000,508,0,/imu_data_acquisition2,74540.0,-0.00750732421875,-6.103515625e-05,-6.103515625e-05,0.983825683594,11.5625,-7.875,-0.0625,1.8,-2.62,8.82
1455208475469357967,509,0,/imu_data_acquisition2,74551.0,-0.0829467773438,0.11328125,0.0405883789062,0.9892578125,2.9375,-238.75,-4.0,1.94,-3.48,10.41
1455208475479641914,510,0,/imu_data_acquisition2,74560.0,-0.0829467773438,0.11328125,0.0405883789062,0.9892578125,11.125,-242.4375,-14.0625,1.49,-5.57,11.07
1455208475488101005,511,0,/imu_data_acquisition2,74571.0,-0.080322265625,0.0720825195312,0.0409545898438,0.993286132812,2.9375,-247.1875,-20.0625,1.52,-4.38,11.75
1455208475500854015,512,0,/imu_data_acquisition2,74581.0,-0.080322265625,0.0720825195312,0.0409545898438,0.993286132812,-8.5,-252.5625,-24.875,1.26,-4.98,12.81
1455208475510044097,513,0,/imu_data_acquisition2,74591.0,-0.080322265625,0.0506591796875,0.0405883789062,0.99462890625,-16.6875,-258.6875,-30.5625,0.53,-4.35,14.41
1455208475519254922,514,0,/imu_data_acquisition2,74601.0,-0.0819091796875,0.00604248046875,0.038818359375,0.995849609375,-21.5625,-265.5625,-34.5625,0.21,-3.95,14.58
1455208475533261060,515,0,/imu_data_acquisition2,74612.0,-0.0831298828125,-0.01708984375,0.0377807617188,0.995666503906,-24.5,-270.8125,-34.5625,-0.19,-3.42,14.69
1455208475538362026,516,0,/imu_data_acquisition2,74621.0,-0.0831298828125,-0.01708984375,0.0377807617188,0.995666503906,-25.9375,-273.6875,-30.9375,-0.53,-3.36,14.73
1455208475550575017,517,0,/imu_data_acquisition2,74633.0,-0.0855712890625,-0.0635986328125,0.0367431640625,0.99365234375,-25.625,-273.4375,-25.3125,-0.8,-3.55,15.16
1455208475559001922,518,0,/imu_data_acquisition2,74640.0,-0.0855712890625,-0.0635986328125,0.0367431640625,0.99365234375,-25.625,-273.4375,-25.3125,-1.2,-4.66,15.67
1455208475569708108,519,0,/imu_data_acquisition2,74652.0,-0.0877685546875,-0.109130859375,0.0375366210938,0.989440917969,-23.875,-268.4375,-15.125,-2.37,-6.87,15.36
1455208475579899072,520,0,/imu_data_acquisition2,74663.0,-0.0885620117188,-0.131469726562,0.037841796875,0.986633300781,-21.625,-265.375,-17.4375,-2.79,-7.02,15.03
1455208475590765953,521,0,/imu_data_acquisition2,74671.0,-0.0885620117188,-0.131469726562,0.037841796875,0.986633300781,-24.375,-256.5,-22.1875,-3.31,-7.21,14.99
1455208475600014925,522,0,/imu_data_acquisition2,74681.0,-0.0894775390625,-0.153076171875,0.03759765625,0.983459472656,-37.0625,-247.1875,-27.125,-4.56,-6.96,14.4
1455208475609142065,523,0,/imu_data_acquisition2,74691.0,-0.0914306640625,-0.173889160156,0.0367431640625,0.979797363281,-54.0625,-235.5625,-33.75,-5.28,-6.33,13.85
1455208475620778083,524,0,/imu_data_acquisition2,74702.0,-0.0946044921875,-0.193786621094,0.0349731445312,0.975830078125,-71.6875,-221.625,-39.5625,-5.87,-5.57,13.3
1455208475637124061,525,0,/imu_data_acquisition2,74712.0,-0.104736328125,-0.229919433594,0.02880859375,0.967102050781,-84.0625,-205.1875,-45.0625,-6.54,-2.13,-0.01
1455208475640204906,526,0,/imu_data_acquisition2,74721.0,-0.104736328125,-0.229919433594,0.02880859375,0.967102050781,-87.5,-185.5625,-48.75,-7.92,-1.87,12.58
1455208475650974988,527,0,/imu_data_acquisition2,74732.0,-0.110473632812,-0.245666503906,0.0247192382812,0.962707519531,-86.0625,-163.875,-48.625,-8.64,-0.94,12.25
1455208475657845020,528,0,/imu_data_acquisition2,74740.0,-0.116088867188,-0.259643554688,0.0205078125,0.95849609375,-81.4375,-139.75,-13.5625,-9.37,-0.73,12.55
1455208475669951915,529,0,/imu_data_acquisition2,74752.0,-0.121459960938,-0.271484375,0.0164184570312,0.95458984375,-71.0625,-116.4375,-42.5625,-11.56,-1.63,14.08
1455208475680830001,530,0,/imu_data_acquisition2,74762.0,-0.126037597656,-0.281433105469,0.0125122070312,0.951171875,-52.9375,-98.125,-43.4375,-12.54,-1.37,13.73
1455208475690107107,531,0,/imu_data_acquisition2,74772.0,-0.129150390625,-0.289794921875,0.00885009765625,0.948303222656,-34.5625,-83.1875,-43.4375,-13.15,-0.91,12.8
1455208475699839115,532,0,/imu_data_acquisition2,74781.0,-0.130798339844,-0.296936035156,0.00543212890625,0.945861816406,-26.5625,-67.1875,-36.3125,-14.47,-0.53,12.18
1455208475709481000,533,0,/imu_data_acquisition2,74790.0,-0.131958007812,-0.302734375,0.0025634765625,0.943908691406,-26.5625,-67.1875,-36.3125,-14.65,-1.02,10.31
1455208475719429016,534,0,/imu_data_acquisition2,74802.0,-0.133605957031,-0.307312011719,0.00042724609375,0.942199707031,-30.3125,-34.6875,-17.0625,-14.59,-1.84,9.15
1455208475731216907,535,0,/imu_data_acquisition2,74812.0,-0.135559082031,-0.310241699219,-0.0013427734375,0.94091796875,-25.8125,-12.75,-17.125,-14.1,-2.28,8.28
1455208475740513086,536,0,/imu_data_acquisition2,74821.0,-0.137145996094,-0.311462402344,-0.00323486328125,0.940307617188,-19.25,19.0625,-27.4375,-12.91,-8.7,-0.32
1455208475749743938,537,0,/imu_data_acquisition2,74832.0,-0.137939453125,-0.310241699219,-0.006103515625,0.940551757812,17.6875,89.75,-70.3125,-18.0,-2.23,6.98
1455208475760147094,538,0,/imu_data_acquisition2,74841.0,-0.134643554688,-0.007080078125,-6.103515625e-05,0.943054199219,17.6875,89.75,-70.3125,-7.05,-5.59,4.26
1455208475769726037,539,0,/imu_data_acquisition2,74851.0,-6.103515625e-05,-6.103515625e-05,-6.103515625e-05,0.946960449219,81.8125,137.0625,-152.0625,16.0,13.96,10.01
1455208475779858112,540,0,/imu_data_acquisition2,74862.0,-0.117370605469,-0.284790039062,-0.033203125,0.950805664062,39.625,142.9375,-130.9375,9.16,17.21,0.44
1455208475791032075,541,0,/imu_data_acquisition2,74872.0,-0.110656738281,-0.274658203125,-0.044189453125,0.954162597656,-23.875,207.6875,-52.25,2.18,11.91,-0.01
1455208475797652959,542,0,/imu_data_acquisition2,74880.0,-0.110534667969,-0.258239746094,-0.0509033203125,0.958374023438,-23.875,207.6875,-52.25,0.26,13.25,30.54
1455208475808927059,543,0,/imu_data_acquisition2,74890.0,-0.108276367188,-0.238464355469,-0.0537109375,0.963623046875,12.0,245.5625,-10.1875,1.32,8.95,27.15
1455208475821618080,544,0,/imu_data_acquisition2,74903.0,-0.104919433594,-0.221801757812,-0.0536499023438,0.967956542969,-6.125,141.1875,48.25,2.32,1.71,18.55
1455208475828670978,545,0,/imu_data_acquisition2,74911.0,-0.105651855469,-0.209777832031,-0.051025390625,0.970703125,-34.75,107.625,59.6875,2.43,-13.06,11.22
1455208475840209007,546,0,/imu_data_acquisition2,74922.0,-0.109130859375,-0.200256347656,-0.0477294921875,0.972473144531,-43.5,102.5,39.5625,3.72,-13.59,14.27
1455208475850128889,547,0,/imu_data_acquisition2,74931.0,-6.103515625e-05,-6.103515625e-05,-6.103515625e-05,0.973937988281,-43.5,102.5,39.5625,0.19,-5.28,20.0
1455208475858191967,548,0,/imu_data_acquisition2,74940.0,-0.112731933594,-0.183654785156,-0.0475463867188,0.975341796875,-2.8125,92.8125,-5.9375,0.19,-5.28,20.0
1455208475871217966,549,0,/imu_data_acquisition2,74952.0,-0.10986328125,-0.179260253906,-0.049560546875,0.976379394531,21.125,51.125,-13.5625,2.89,-4.73,9.81
1455208475926002979,550,0,/imu_data_acquisition2,74962.0,-0.107727050781,-0.175231933594,-0.0508422851562,0.977294921875,11.9375,58.5625,-6.6875,3.31,-2.35,12.7
1455208475933497905,551,0,/imu_data_acquisition2,74972.0,-0.104187011719,-0.166809082031,-0.0524291992188,0.979064941406,22.875,46.6875,-6.4375,2.38,0.17,12.77
1455208475937020063,552,0,/imu_data_acquisition2,74982.0,-0.104187011719,-0.166809082031,-0.0524291992188,0.979064941406,22.875,-0.0625,-0.0625,3.79,-1.76,9.58
1455208475938471078,553,0,/imu_data_acquisition2,74993.0,-0.102478027344,-0.162719726562,-0.0523681640625,0.979919433594,7.9375,19.5625,1.75,4.0,-1.44,9.92
1455208475939035892,554,0,/imu_data_acquisition2,75002.0,-0.102478027344,-0.162719726562,-0.0054931640625,0.979919433594,8.3125,17.1875,2.75,3.41,-0.82,10.43
1455208475940257072,555,0,/imu_data_acquisition2,75016.0,-0.101745605469,-0.161315917969,-0.0521850585938,0.980285644531,4.5625,12.8125,3.4375,3.48,-0.56,9.8
1455208475941165924,556,0,/imu_data_acquisition2,75023.0,-0.101318359375,-0.160217285156,-0.0519409179688,0.98046875,0.5,8.6875,2.1875,3.52,-0.85,10.13
1455208475947411060,557,0,/imu_data_acquisition2,75030.0,-6.103515625e-05,-6.103515625e-05,-6.103515625e-05,0.980590820312,0.5,8.6875,2.1875,3.52,-0.85,10.13
1455208475956585884,558,0,/imu_data_acquisition2,75039.0,-0.101745605469,-0.158874511719,-0.00494384765625,0.980651855469,-5.0,6.75,1.75,3.67,-1.06,9.21
1455208475970155000,559,0,/imu_data_acquisition2,75052.0,-0.102294921875,-0.158386230469,-0.0519409179688,0.980712890625,-10.4375,6.0,0.8125,3.16,-1.36,9.51
1455208475979973077,560,0,/imu_data_acquisition2,75062.0,-0.103149414062,-0.157836914062,-0.0520629882812,0.980712890625,-10.0625,6.375,0.125,3.3,-1.93,9.16
1455208475990030050,561,0,/imu_data_acquisition2,75072.0,-0.103942871094,-0.1572265625,-0.05224609375,0.980712890625,-9.25,5.625,-0.625,2.89,-1.23,9.58
1455208476002094030,562,0,/imu_data_acquisition2,75082.0,-0.104675292969,-0.15673828125,-0.052490234375,0.980651855469,-9.875,5.0,0.125,2.73,-1.51,9.37
1455208476007958889,563,0,/imu_data_acquisition2,75091.0,-0.10546875,-0.15625,-0.00579833984375,0.980651855469,-9.875,5.0,0.125,2.73,-1.51,9.37
1455208476020085096,564,0,/imu_data_acquisition2,75102.0,-0.106201171875,-0.15576171875,-0.0527954101562,0.980651855469,-6.75,4.4375,0.4375,3.01,-2.04,9.25
1455208476032769918,565,0,/imu_data_acquisition2,75112.0,-0.106750488281,-0.155395507812,-0.052978515625,0.980651855469,-4.9375,4.875,0.875,2.65,-2.21,9.55
1455208476040383100,566,0,/imu_data_acquisition2,75123.0,-0.107116699219,-0.154907226562,-0.052978515625,0.980651855469,-3.3125,5.0,1.375,2.89,-1.69,9.49
1455208476049560070,567,0,/imu_data_acquisition2,75132.0,-0.107421875,-0.154479980469,-0.052978515625,0.980712890625,-3.3125,5.0,1.375,2.47,-1.88,9.37
1455208476059516906,568,0,/imu_data_acquisition2,75140.0,-0.107482910156,-0.154052734375,-0.0529174804688,0.980773925781,-1.25,4.9375,1.1875,2.47,-1.88,9.37
1455208476069411993,569,0,/imu_data_acquisition2,75152.0,-0.0138549804688,-6.103515625e-05,-6.103515625e-05,0.980834960938,-0.75,4.5625,1.375,2.06,-1.26,9.15
1455208476080369949,570,0,/imu_data_acquisition2,75162.0,-0.107666015625,-0.153198242188,-0.0527954101562,0.980895996094,-1.1875,4.5,1.125,2.44,-1.64,10.17
1455208476093043088,571,0,/imu_data_acquisition2,75172.0,-0.107727050781,-0.15283203125,-0.052734375,0.98095703125,-1.1875,4.5,1.125,2.96,-1.3,9.09
1455208476099370002,572,0,/imu_data_acquisition2,75182.0,-0.107788085938,-0.152526855469,-0.0527954101562,0.98095703125,-1.0,3.0625,0.0,2.51,-2.02,10.07
1455208476110481977,573,0,/imu_data_acquisition2,75192.0,-0.108032226562,-0.152099609375,-0.0527954101562,0.981018066406,-3.125,5.0625,0.8125,2.51,-2.02,10.07
1455208476120666980,574,0,/imu_data_acquisition2,75202.0,-0.108154296875,-0.151794433594,-0.0528564453125,0.981079101562,-1.6875,3.625,0.0625,1.93,-2.45,9.94
1455208476132211923,575,0,/imu_data_acquisition2,75212.0,-0.108215332031,-0.150207519531,-0.0527954101562,0.981323242188,-1.25,2.8125,-0.25,1.45,-2.34,9.74
1455208476142752885,576,0,/imu_data_acquisition2,75223.0,-0.108276367188,-0.149963378906,-0.0527954101562,0.981323242188,-1.25,2.8125,-0.25,2.3,-1.44,9.67
1455208476150132894,577,0,/imu_data_acquisition2,75232.0,-0.108581542969,-0.1494140625,-0.052734375,0.981384277344,-3.6875,6.0,2.25,2.3,-1.44,9.67
1455208476159843921,578,0,/imu_data_acquisition2,75242.0,-0.108581542969,-0.149230957031,-0.052734375,0.981384277344,0.0625,2.6875,0.1875,2.71,-1.69,9.6
1455208476172435998,579,0,/imu_data_acquisition2,75253.0,-0.108764648438,-0.148864746094,-0.052734375,0.9814453125,-2.1875,4.1875,1.1875,2.36,-1.41,9.1
1455208476192579030,581,0,/imu_data_acquisition2,75273.0,-0.108947753906,-0.148376464844,-0.052734375,0.981506347656,-2.0625,1.8125,0.625,-0.46,-4.46,13.54
1455208476197330951,582,0,/imu_data_acquisition2,75280.0,-0.1103515625,-0.146728515625,-0.0527954101562,0.981567382812,-17.5,18.5625,4.0625,-0.46,-4.46,13.54
1455208476210247039,583,0,/imu_data_acquisition2,75293.0,-0.110229492188,-0.146545410156,-0.052734375,0.981628417969,1.5,1.8125,0.6875,1.93,-2.63,9.78
1455208476222511053,584,0,/imu_data_acquisition2,75302.0,-6.103515625e-05,-6.103515625e-05,-6.103515625e-05,0.981628417969,-1.6875,3.125,1.6875,2.24,-1.61,9.18
1455208476230500936,585,0,/imu_data_acquisition2,75312.0,-0.1103515625,-0.146118164062,-0.00579833984375,0.981689453125,0.3125,2.125,0.4375,2.57,-1.22,9.35
1455208476240629911,586,0,/imu_data_acquisition2,75323.0,-0.110473632812,-0.145874023438,-0.0526123046875,0.981689453125,-1.0625,2.4375,0.25,1.82,-1.65,9.47
1455208476250170946,587,0,/imu_data_acquisition2,75331.0,-0.110534667969,-0.145690917969,-0.00579833984375,0.981750488281,-1.0625,2.4375,0.25,1.82,-1.65,9.47
1455208476258548021,588,0,/imu_data_acquisition2,75341.0,-6.103515625e-05,-6.103515625e-05,-6.103515625e-05,0.981750488281,-2.375,4.25,0.5625,2.25,-1.48,9.99
1455208476270792961,589,0,/imu_data_acquisition2,75353.0,-0.111022949219,-0.145080566406,-0.0527954101562,0.981750488281,-3.8125,2.8125,0.375,2.59,-1.28,-0.01
1455208476281440973,590,0,/imu_data_acquisition2,75363.0,-0.111389160156,-0.144714355469,-0.0529174804688,0.981750488281,-4.875,4.25,0.4375,1.65,-2.33,9.87
1455208476290219068,591,0,/imu_data_acquisition2,75373.0,-0.11181640625,-0.144287109375,-0.052978515625,0.981750488281,-4.8125,4.25,0.5,1.9,-2.1,9.61
1455208476299662113,592,0,/imu_data_acquisition2,75381.0,-0.112182617188,-0.143859863281,-0.052978515625,0.981811523438,-5.0,4.75,1.125,1.9,-2.1,9.61
1455208476309101104,593,0,/imu_data_acquisition2,75390.0,-0.112609863281,-0.143371582031,-0.0530395507812,0.981811523438,-4.75,5.625,1.0,2.34,-1.69,9.62
1455208476320125102,594,0,/imu_data_acquisition2,75403.0,-0.112915039062,-0.142822265625,-0.0530395507812,0.981872558594,-4.25,6.375,1.0,2.16,-1.97,9.52
1455208476333833932,595,0,/imu_data_acquisition2,75413.0,-0.113342285156,-0.14208984375,-0.0530395507812,0.98193359375,-5.0,8.0625,1.75,2.38,-1.69,9.26
1455208476349138021,596,0,/imu_data_acquisition2,75426.0,-0.113586425781,-0.141357421875,-0.0530395507812,0.981994628906,-4.1875,10.0625,1.6875,2.17,-1.47,9.32
1455208476351382017,597,0,/imu_data_acquisition2,75431.0,-0.113952636719,-0.140441894531,-0.0530395507812,0.982055664062,-4.1875,10.0625,1.6875,2.17,-1.47,9.32
1455208476359930038,598,0,/imu_data_acquisition2,75439.0,-0.1142578125,-0.139465332031,-0.0531005859375,0.982177734375,-4.375,11.75,1.0625,2.59,-1.75,9.5
1455208476371041059,599,0,/imu_data_acquisition2,75452.0,-0.114685058594,-0.138305664062,-0.0533447265625,0.982299804688,-5.75,13.625,0.375,1.97,-2.16,9.78
1455208476380587100,600,0,/imu_data_acquisition2,75463.0,-0.114501953125,-0.135803222656,-0.0535888671875,0.982666015625,-8.0625,17.125,0.375,1.94,-2.09,9.53
1455208476391232013,601,0,/imu_data_acquisition2,75473.0,-0.114624023438,-0.13330078125,-0.0538940429688,0.982971191406,-7.75,18.9375,-0.0625,1.94,-2.09,9.53
1455208476399111986,602,0,/imu_data_acquisition2,75481.0,-0.115173339844,-0.131469726562,-0.0543212890625,0.983093261719,-7.8125,21.5625,-1.5625,2.02,-1.7,9.57
1455208476409681081,603,0,/imu_data_acquisition2,75492.0,-0.11572265625,-0.12939453125,-0.0547485351562,0.983276367188,-7.875,24.75,-0.0625,1.92,-2.25,9.7
1455208476421987056,604,0,/imu_data_acquisition2,75502.0,-0.1162109375,-0.127014160156,-0.0551147460938,0.983520507812,-7.8125,28.25,0.0,2.27,-1.95,9.53
1455208476434122085,605,0,/imu_data_acquisition2,75514.0,-0.116638183594,-0.124267578125,-0.0553588867188,0.983825683594,-5.6875,38.1875,4.8125,2.4,-0.27,7.4
1455208476442044019,606,0,/imu_data_acquisition2,75523.0,-0.117004394531,-0.121032714844,-0.0553588867188,0.984191894531,-5.6875,38.1875,4.8125,2.18,-3.1,10.01
1455208476447659015,607,0,/imu_data_acquisition2,75530.0,-0.116821289062,-0.116943359375,-0.055419921875,0.984680175781,0.0625,48.375,5.4375,2.18,-3.1,10.01
1455208476458863019,608,0,/imu_data_acquisition2,75541.0,-6.103515625e-05,-6.103515625e-05,-6.103515625e-05,0.985290527344,-3.6875,58.8125,10.1875,2.81,-1.54,12.05
1455208476470765113,609,0,/imu_data_acquisition2,75553.0,-0.117065429688,-0.106689453125,-0.0548706054688,0.98583984375,-3.8125,61.1875,11.625,4.1,-2.57,8.1
1455208476483345031,610,0,/imu_data_acquisition2,75563.0,-0.117065429688,-0.100952148438,-0.0543212890625,0.986511230469,-1.875,67.0625,14.125,2.65,-3.14,9.83
1455208476491065979,611,0,/imu_data_acquisition2,75573.0,-0.117004394531,-0.0938110351562,-0.0535888671875,0.987243652344,-2.0625,83.5,19.25,2.65,-3.14,9.83
1455208476499599933,612,0,/imu_data_acquisition2,75581.0,-0.116638183594,-0.0858154296875,-0.0526733398438,0.988037109375,1.1875,93.25,21.5625,3.07,-2.27,9.54
1455208476507870912,613,0,/imu_data_acquisition2,75590.0,-0.116516113281,-0.0138549804688,-6.103515625e-05,0.988891601562,-2.0,110.125,24.5,2.95,-3.2,8.9
1455208476520899057,614,0,/imu_data_acquisition2,75603.0,-0.116333007812,-0.0655517578125,-0.0508422851562,0.98974609375,-2.625,126.0,25.5,2.6,-1.64,10.04
1455208476531305074,615,0,/imu_data_acquisition2,75613.0,-0.115417480469,-0.0533447265625,-0.0502319335938,0.990600585938,5.0,143.1875,24.125,3.2,-0.54,8.53
1455208476540915966,616,0,/imu_data_acquisition2,75624.0,-0.114318847656,-0.0396728515625,-0.049560546875,0.991394042969,6.4375,161.0625,25.875,2.85,-2.67,9.7
1455208476550101995,617,0,/imu_data_acquisition2,75631.0,-0.113830566406,-0.0239868164062,-0.0484008789062,0.992004394531,-2.625,182.6875,34.875,2.85,-2.67,9.7
1455208476560708045,618,0,/imu_data_acquisition2,75642.0,-0.115112304688,-0.00628662109375,-0.0460205078125,0.992248535156,-24.0625,204.1875,52.9375,1.1,-3.52,10.76
1455208476571830034,619,0,/imu_data_acquisition2,75654.0,-0.114868164062,0.0121459960938,-0.0442504882812,0.992309570312,-0.375,210.9375,29.625,3.89,-3.93,16.46
1455208476584331989,620,0,/imu_data_acquisition2,75664.0,-0.114013671875,0.0300903320312,-0.0438232421875,0.992065429688,-0.375,210.9375,29.625,2.8,-3.05,20.71
1455208476594527006,621,0,/imu_data_acquisition2,75675.0,-0.113891601562,0.0521850585938,-0.040771484375,0.991271972656,7.125,277.0,78.0625,0.78,-4.58,17.56
1455208476598994016,622,0,/imu_data_acquisition2,75682.0,-0.111938476562,0.0761108398438,-0.0369262695312,0.990112304688,7.125,277.0,78.0625,0.78,-4.58,17.56
1455208476610325098,623,0,/imu_data_acquisition2,75692.0,-0.108825683594,0.100891113281,-0.0332641601562,0.988342285156,20.0625,289.25,78.1875,0.77,-4.69,16.38
1455208476622044086,624,0,/imu_data_acquisition2,75702.0,-0.104309082031,0.125549316406,-0.0300903320312,0.986145019531,36.6875,288.5,73.4375,0.2,0.22,19.6
1455208476633913040,625,0,/imu_data_acquisition2,75714.0,-0.0995483398438,0.147888183594,-0.0267944335938,0.983642578125,39.5625,262.0625,72.25,5.91,0.24,-0.01
1455208476643212080,626,0,/imu_data_acquisition2,75725.0,-0.0946655273438,0.166015625,-0.0240478515625,0.981262207031,43.0,213.5625,60.6875,9.32,7.37,12.38
1455208476649662017,627,0,/imu_data_acquisition2,75731.0,-0.0889892578125,0.179809570312,-0.0216674804688,0.979431152344,55.75,163.0625,53.875,9.32,-0.01,-0.01
1455208476657840013,628,0,/imu_data_acquisition2,75740.0,-0.0839233398438,0.19091796875,-0.0169677734375,0.977844238281,43.75,128.25,76.8125,12.02,-1.26,14.9
1455208476672168970,629,0,/imu_data_acquisition2,75754.0,-0.0827026367188,0.199157714844,-0.00799560546875,0.976440429688,-9.0625,90.1875,114.3125,10.48,-2.67,11.72
1455208476684418916,630,0,/imu_data_acquisition2,75764.0,-0.080810546875,0.203918457031,0.0015869140625,0.975646972656,-2.0,47.75,120.0625,9.62,-3.45,8.73
1455208476692112922,631,0,/imu_data_acquisition2,75774.0,-0.0155029296875,-6.103515625e-05,-6.103515625e-05,0.975280761719,10.125,19.75,114.0625,9.04,-3.16,7.09
1455208476700232028,632,0,/imu_data_acquisition2,75782.0,-0.0745849609375,0.207214355469,0.0187377929688,0.975280761719,20.125,2.6875,102.375,9.04,-3.16,7.09
1455208476709243059,633,0,/imu_data_acquisition2,75790.0,-0.0728149414062,0.204956054688,0.0255126953125,0.975708007812,3.8125,-34.0625,80.1875,8.79,-3.32,7.17
1455208476719544887,634,0,/imu_data_acquisition2,75802.0,-0.0709838867188,0.20263671875,0.0322875976562,0.976135253906,3.8125,-34.0625,80.1875,8.45,-3.54,7.19
1455208476733877897,635,0,/imu_data_acquisition2,75815.0,-0.0703735351562,0.198547363281,0.0382690429688,0.976806640625,-7.9375,-53.875,66.8125,7.69,-3.52,7.21
1455208476749346017,637,0,/imu_data_acquisition2,75832.0,-0.0728759765625,0.182067871094,0.0455322265625,0.979553222656,-28.625,-110.5625,25.25,6.87,-3.16,8.92
1455208476760341882,638,0,/imu_data_acquisition2,75842.0,-0.0748901367188,0.1708984375,0.0480346679688,0.981262207031,-33.5625,-134.5625,13.75,5.74,-3.28,11.51
1455208476768348932,639,0,/imu_data_acquisition2,75850.0,-0.0770874023438,0.1572265625,0.0496826171875,0.983276367188,-34.8125,-162.875,1.75,5.14,-3.56,11.73
1455208476780914068,640,0,/imu_data_acquisition2,75863.0,-0.0790405273438,0.141418457031,0.0504150390625,0.985534667969,-30.875,-187.8125,-11.0625,4.62,-3.16,11.08
1455208476792395114,641,0,/imu_data_acquisition2,75875.0,-0.0806274414062,0.123962402344,0.0504150390625,0.987731933594,-27.3125,-206.25,-19.875,3.9,-2.59,10.43
1455208476799451112,642,0,/imu_data_acquisition2,75881.0,-0.0819091796875,0.105590820312,0.0499877929688,0.98974609375,-23.0625,-216.5,-25.3125,2.99,-1.58,9.81
1455208476809557914,643,0,/imu_data_acquisition2,75892.0,-0.0828857421875,0.0867309570312,0.0494995117188,0.991516113281,-20.0,-222.1875,-26.75,2.78,-1.41,10.31
1455208476819555044,644,0,/imu_data_acquisition2,75901.0,-0.0836791992188,0.0673828125,0.049072265625,0.992980957031,-18.6875,-228.125,-25.625,2.55,-1.07,11.23
1455208476831330060,645,0,/imu_data_acquisition2,75914.0,-0.08447265625,0.0473022460938,0.0489501953125,0.994079589844,-20.0625,-235.9375,-22.5625,2.01,-0.01,-0.01
1455208476844134092,646,0,/imu_data_acquisition2,75927.0,-0.08544921875,0.026611328125,0.04931640625,0.994750976562,-24.625,-252.125,-10.375,1.3,-0.42,14.13
1455208476850853919,647,0,/imu_data_acquisition2,75931.0,-0.0864868164062,0.0052490234375,0.05029296875,0.994995117188,-24.625,-252.125,-10.375,1.3,-0.42,14.13
1455208476992333889,648,0,/imu_data_acquisition2,75941.0,-0.08740234375,-0.0166625976562,0.0518798828125,0.994689941406,-24.5,-259.375,-3.5625,0.67,-0.28,14.32
1455208476995573043,649,0,/imu_data_acquisition2,75955.0,-0.0882568359375,-0.0388793945312,0.0541381835938,0.993835449219,-23.0625,-264.75,11.125,0.1,-1.15,14.18
1455208476997715950,650,0,/imu_data_acquisition2,75963.0,-0.0889892578125,-0.0611572265625,0.0570068359375,0.992492675781,-23.0625,-264.75,11.125,0.1,-1.15,14.18
1455208476998800039,651,0,/imu_data_acquisition2,75972.0,-0.0896606445312,-0.0831909179688,0.0601196289062,0.990661621094,-6.4375,-0.0625,-0.0625,-0.19,-3.1,14.56
1455208477000839948,652,0,/imu_data_acquisition2,75980.0,-0.0901489257812,-0.10498046875,0.0630493164062,0.988342285156,-20.8125,-260.0625,13.6875,-0.47,-4.31,15.0
1455208477003277063,653,0,/imu_data_acquisition2,75989.0,-0.09033203125,-0.126342773438,0.0654296875,0.985717773438,-18.125,-256.375,6.625,-1.09,-5.08,15.15
1455208477004262924,654,0,/imu_data_acquisition2,75999.0,-0.0905151367188,-0.147399902344,0.0667724609375,0.982666015625,-19.0,-251.1875,-4.0,-1.53,-5.35,15.0
1455208477006892919,655,0,/imu_data_acquisition2,76009.0,-0.012939453125,-6.103515625e-05,-6.103515625e-05,0.979309082031,-26.125,-242.375,-15.5,-2.89,-5.73,14.53
1455208477008467912,656,0,/imu_data_acquisition2,76019.0,-0.0924072265625,-0.187255859375,0.06591796875,0.975708007812,-37.0,-231.0,-28.125,-3.62,-5.67,14.43
1455208477009862899,657,0,/imu_data_acquisition2,76029.0,-0.0945434570312,-0.205810546875,0.0632934570312,0.971923828125,-49.1875,-218.3125,-42.5625,-4.37,-5.66,14.31
1455208477011893987,658,0,/imu_data_acquisition2,76040.0,-0.097412109375,-0.223205566406,0.0592041015625,0.968078613281,-60.0,-203.3125,-57.25,-5.6,-4.95,13.4
1455208477014091014,659,0,/imu_data_acquisition2,76050.0,-6.103515625e-05,-6.103515625e-05,-6.103515625e-05,0.964233398438,-66.875,-185.25,-71.25,-6.37,-4.03,12.83
1455208477015285968,660,0,/imu_data_acquisition2,76059.0,-0.104064941406,-0.253662109375,0.046875,0.960510253906,-72.1875,-164.75,-81.8125,-7.18,-3.03,12.2
1455208477017988920,661,0,/imu_data_acquisition2,76070.0,-0.107543945312,-0.266235351562,0.0394287109375,0.957092285156,-73.3125,-142.125,-87.625,-8.83,-1.79,12.1
1455208477019504070,662,0,/imu_data_acquisition2,76079.0,-0.110656738281,-0.27685546875,0.03173828125,0.953979492188,-68.1875,-119.1875,-89.4375,-9.72,-1.51,11.88
1455208477022423982,663,0,/imu_data_acquisition2,76094.0,-0.112915039062,-0.285583496094,0.024169921875,0.951354980469,-57.0,-96.25,-88.5,-10.55,-1.29,11.5
1455208477024378061,664,0,/imu_data_acquisition2,76100.0,-0.004638671875,-6.103515625e-05,-6.103515625e-05,0.949340820312,-41.125,-72.75,-84.5,-11.35,-0.82,11.13
1455208477037751913,665,0,/imu_data_acquisition2,76115.0,-0.114318847656,-0.297058105469,0.0109252929688,0.947937011719,-27.5625,-49.8125,-74.4375,-12.16,-0.12,12.15
1455208477049237966,667,0,/imu_data_acquisition2,76132.0,-0.115905761719,-0.302673339844,0.0018310546875,0.946044921875,-28.625,-23.8125,-44.75,-12.78,-0.72,14.4
1455208477057627916,668,0,/imu_data_acquisition2,76140.0,-0.117431640625,-0.304382324219,-0.001708984375,0.9453125,-30.9375,-16.9375,-36.5625,-13.04,-1.84,10.83
1455208477069228887,669,0,/imu_data_acquisition2,76152.0,-0.118957519531,-0.304565429688,-0.005126953125,0.945007324219,-29.75,1.5,-33.25,-13.09,-3.01,8.88
1455208477080319881,670,0,/imu_data_acquisition2,76161.0,-0.119018554688,-0.30078125,-0.00970458984375,0.946166992188,-16.0,52.75,-45.0625,-11.82,-6.09,0.21
1455208477087973117,671,0,/imu_data_acquisition2,76170.0,-0.117980957031,-0.2919921875,-0.0159912109375,0.948974609375,-7.625,117.75,-61.75,-16.84,-10.41,5.1
1455208477099864959,672,0,/imu_data_acquisition2,76182.0,-6.103515625e-05,-6.103515625e-05,-6.103515625e-05,0.952575683594,30.8125,144.8125,-109.0,-2.0,-5.51,6.51
1455208477109745979,673,0,/imu_data_acquisition2,76190.0,-0.10400390625,-0.2724609375,-0.0365600585938,0.955810546875,61.125,129.75,-140.875,10.33,2.96,15.75
1455208477118129968,674,0,/imu_data_acquisition2,76201.0,-0.101440429688,-0.260620117188,-0.047119140625,0.958923339844,-6.0625,158.1875,-111.9375,5.19,9.76,0.13
1455208477133596897,675,0,/imu_data_acquisition2,76216.0,-0.102600097656,-0.243774414062,-0.054443359375,0.962829589844,-40.375,211.4375,-57.5,1.0,6.25,3.91
1455208477137926101,676,0,/imu_data_acquisition2,76221.0,-0.09765625,-0.006591796875,-6.103515625e-05,0.967590332031,36.625,232.375,-41.0,0.39,10.82,17.88
1455208477148972988,677,0,/imu_data_acquisition2,76231.0,-0.0924682617188,-0.208740234375,-0.060546875,0.9716796875,48.6875,206.75,-9.3125,1.71,14.78,-0.01
1455208477160506963,678,0,/imu_data_acquisition2,76243.0,-0.0910034179688,-0.194152832031,-0.0125732421875,0.974914550781,12.9375,175.8125,27.625,1.44,4.16,16.9
1455208477169243097,679,0,/imu_data_acquisition2,76251.0,-0.092529296875,-0.181335449219,-0.0576782226562,0.977355957031,-20.0,150.625,39.375,3.48,-2.51,16.28
1455208477179924964,680,0,/imu_data_acquisition2,76262.0,-0.0953979492188,-0.169921875,-0.0580444335938,0.979125976562,-40.3125,133.8125,15.25,4.05,-14.91,21.31
1455208477189888954,681,0,/imu_data_acquisition2,76272.0,-0.0971069335938,-0.164367675781,-0.0584106445312,0.979858398438,-23.125,65.1875,6.5,1.39,-3.51,15.88
1455208477198312044,682,0,/imu_data_acquisition2,76280.0,-0.0052490234375,-6.103515625e-05,-6.103515625e-05,0.980041503906,-23.0625,24.8125,6.4375,5.41,0.73,8.06
1455208477209264993,683,0,/imu_data_acquisition2,76290.0,-0.1005859375,-0.159362792969,-0.0584106445312,0.980346679688,-20.125,31.75,5.9375,3.56,-4.34,9.84
1455208477220257997,684,0,/imu_data_acquisition2,76300.0,-0.101196289062,-0.156921386719,-0.0584716796875,0.980651855469,-8.5625,28.625,4.0,2.6,-2.0,10.66
1455208477227266073,685,0,/imu_data_acquisition2,76310.0,-0.101867675781,-0.154968261719,-0.0582275390625,0.98095703125,-8.625,22.625,6.25,2.86,-2.47,10.62
1455208477238482952,686,0,/imu_data_acquisition2,76320.0,-0.102111816406,-0.153625488281,-0.0579833984375,0.981140136719,-2.9375,15.375,5.0,3.61,-2.03,8.95
1455208477250085115,687,0,/imu_data_acquisition2,76331.0,-0.102416992188,-0.152648925781,-0.0576171875,0.981262207031,-2.875,10.625,5.625,-1.2,1.91,7.62
1455208477257445096,688,0,/imu_data_acquisition2,76340.0,-0.1044921875,-0.149780273438,-0.0567016601562,0.981567382812,-24.25,31.25,18.25,3.71,-5.37,10.48
1455208477268637895,689,0,/imu_data_acquisition2,76351.0,-0.103637695312,-0.149169921875,-0.056640625,0.981750488281,9.5625,8.0625,0.5625,3.54,1.66,9.86
1455208477279776096,690,0,/imu_data_acquisition2,76361.0,-0.103881835938,-0.148315429688,-0.0564575195312,0.981872558594,-2.625,9.4375,3.6875,3.14,-2.38,10.27
1455208477287472009,691,0,/imu_data_acquisition2,76370.0,-0.104248046875,-0.147705078125,-0.0564575195312,0.98193359375,-4.4375,-0.0625,-0.0625,2.85,-1.58,9.93
1455208477298763036,692,0,/imu_data_acquisition2,76380.0,-0.104797363281,-0.147155761719,-0.0564575195312,0.98193359375,-6.875,5.9375,1.25,3.46,-1.08,9.36
1455208477311846017,693,0,/imu_data_acquisition2,76391.0,-0.105529785156,-0.146606445312,-0.0565795898438,0.98193359375,-9.1875,5.8125,0.9375,2.9,-1.07,9.42
1455208477317651033,694,0,/imu_data_acquisition2,76400.0,-0.106384277344,-0.146179199219,-0.0567016601562,0.981872558594,-10.125,4.6875,0.375,2.97,-1.28,9.53
1455208477331641912,695,0,/imu_data_acquisition2,76411.0,-0.107238769531,-0.145690917969,-0.056884765625,0.981872558594,-10.75,4.6875,0.3125,2.84,-1.91,9.38
1455208477339128017,696,0,/imu_data_acquisition2,76420.0,-0.108032226562,-0.145385742188,-0.0570678710938,0.981811523438,-9.875,3.5,0.0,3.22,-1.81,9.12
1455208477348579883,697,0,/imu_data_acquisition2,76431.0,-0.108825683594,-0.144958496094,-0.05712890625,0.981750488281,-9.8125,4.375,0.8125,2.7,-2.34,9.37
1455208477359361886,698,0,/imu_data_acquisition2,76441.0,-0.109436035156,-0.144592285156,-0.0571899414062,0.981750488281,-7.25,4.0625,0.9375,2.3,-1.83,9.85
1455208477368654012,699,0,/imu_data_acquisition2,76450.0,-0.10986328125,-0.144287109375,-0.0571899414062,0.981750488281,-5.4375,3.1875,0.8125,3.19,-1.62,9.22
1455208477378504037,700,0,/imu_data_acquisition2,76461.0,-0.110412597656,-0.143859863281,-0.0571899414062,0.981750488281,-6.0,4.5,2.0,2.37,-2.04,9.58
1455208477388777017,701,0,/imu_data_acquisition2,76471.0,-0.110717773438,-0.1435546875,-0.05712890625,0.981750488281,-4.0,3.25,1.1875,2.38,-1.7,9.69
1455208477398468017,702,0,/imu_data_acquisition2,76480.0,-0.111145019531,-0.143127441406,-0.05712890625,0.981811523438,-5.125,4.3125,1.6875,2.21,-1.57,9.56
1455208477409595012,703,0,/imu_data_acquisition2,76491.0,-6.103515625e-05,-6.103515625e-05,-6.103515625e-05,0.981811523438,-4.9375,3.8125,1.625,2.2,-1.85,9.93
1455208477419756889,704,0,/imu_data_acquisition2,76500.0,-0.11181640625,-0.142395019531,-0.0570678710938,0.981811523438,-3.3125,4.0625,1.0625,2.45,-1.94,9.62
1455208477431246042,705,0,/imu_data_acquisition2,76513.0,-0.111999511719,-0.142028808594,-0.0570678710938,0.981872558594,-2.375,4.5625,0.9375,2.35,-1.58,9.17
1455208477439224004,706,0,/imu_data_acquisition2,76521.0,-0.112182617188,-0.1416015625,-0.0570678710938,0.981872558594,-2.0625,4.625,1.0,2.37,-1.71,9.55
1455208477450985908,707,0,/imu_data_acquisition2,76532.0,-0.112426757812,-0.14111328125,-0.0569458007812,0.98193359375,-2.625,5.125,1.875,2.75,-1.36,9.11
1455208477459006071,708,0,/imu_data_acquisition2,76541.0,-0.112548828125,-0.140869140625,-0.0569458007812,0.98193359375,-2.0625,3.3125,1.25,2.57,-1.55,9.26
1455208477470644950,709,0,/imu_data_acquisition2,76553.0,-0.11279296875,-0.140380859375,-0.056884765625,0.981994628906,-2.6875,5.0625,1.6875,2.02,-1.91,9.67
1455208477479636907,710,0,/imu_data_acquisition2,76560.0,-0.112976074219,-0.140075683594,-0.0568237304688,0.982055664062,-2.125,3.875,0.8125,1.34,-1.64,9.41
1455208477490277051,711,0,/imu_data_acquisition2,76572.0,-0.11328125,-0.139526367188,-0.0567626953125,0.982055664062,-4.1875,6.125,2.0,2.84,-1.96,9.82
1455208477499228954,712,0,/imu_data_acquisition2,76581.0,-0.113586425781,-0.139099121094,-0.0568237304688,0.982116699219,-3.1875,4.125,0.6875,1.84,-1.37,9.28
1455208477510910034,713,0,/imu_data_acquisition2,76593.0,-0.113830566406,-0.138610839844,-0.0567626953125,0.982116699219,-3.3125,5.9375,1.6875,1.67,-2.06,10.3
1455208477518876075,714,0,/imu_data_acquisition2,76601.0,-0.114135742188,-0.138244628906,-0.0567626953125,0.982177734375,-3.625,4.125,1.0,1.64,-1.87,9.67
1455208477529601097,715,0,/imu_data_acquisition2,76612.0,-0.114440917969,-0.137817382812,-0.0567626953125,0.982177734375,-3.4375,4.625,1.3125,2.33,-1.91,9.98
1455208477538575887,716,0,/imu_data_acquisition2,76621.0,-0.114685058594,-0.137512207031,-0.0567626953125,0.982177734375,-3.125,3.0625,0.625,2.38,-1.32,8.77
1455208477549673080,717,0,/imu_data_acquisition2,76631.0,-0.005615234375,-6.103515625e-05,-6.103515625e-05,0.982177734375,-4.0625,3.625,0.875,2.44,-1.23,9.36
1455208477560223102,718,0,/imu_data_acquisition2,76641.0,-0.114990234375,-0.01220703125,-6.103515625e-05,0.982177734375,-4.8125,3.5,1.3125,2.64,-2.35,9.39
1455208477578972101,720,0,/imu_data_acquisition2,76661.0,-0.11572265625,-0.13623046875,-0.0568237304688,0.982238769531,-2.25,3.875,0.6875,2.23,-1.46,9.18
1455208477591020107,721,0,/imu_data_acquisition2,76672.0,-0.115844726562,-0.135864257812,-0.056884765625,0.982299804688,-1.9375,4.375,0.5625,2.09,-1.98,9.77
1455208477598668098,722,0,/imu_data_acquisition2,76680.0,-0.115966796875,-0.135498046875,-0.0569458007812,0.982299804688,-1.4375,4.25,0.1875,2.79,-1.45,9.59
1455208477611526966,723,0,/imu_data_acquisition2,76693.0,-0.116149902344,-0.134948730469,-0.0569458007812,0.982360839844,-2.25,5.875,0.75,1.87,-1.9,9.47
1455208477618786096,724,0,/imu_data_acquisition2,76700.0,-0.116149902344,-0.134948730469,-0.0569458007812,0.982360839844,-2.25,5.4375,0.6875,2.24,-1.65,9.26
1455208477628449916,725,0,/imu_data_acquisition2,76710.0,-0.115539550781,-0.132751464844,-0.0570068359375,0.982727050781,-2.3125,6.5625,1.1875,2.25,-1.92,9.71
1455208477641803026,726,0,/imu_data_acquisition2,76721.0,-0.115295410156,-0.131958007812,-0.0570678710938,0.982849121094,-1.375,6.875,0.1875,2.64,-1.6,9.16
1455208477651597023,727,0,/imu_data_acquisition2,76732.0,-0.115478515625,-0.131225585938,-0.05712890625,0.982971191406,-2.25,8.375,0.9375,2.69,-1.45,9.16
1455208477658004045,728,0,/imu_data_acquisition2,76740.0,-0.115478515625,-0.131225585938,-0.05712890625,0.982971191406,-1.625,9.5625,1.0,2.01,-2.17,9.37
1455208477670131921,729,0,/imu_data_acquisition2,76751.0,-0.115600585938,-0.130432128906,-0.05712890625,0.983032226562,-0.75,11.0,1.0,2.08,-1.53,9.46
1455208477679584980,730,0,/imu_data_acquisition2,76760.0,-0.115600585938,-0.128479003906,-0.0572509765625,0.983276367188,-0.875,11.875,0.875,2.1,-1.55,9.33
1455208477687514066,731,0,/imu_data_acquisition2,76770.0,-0.11572265625,-0.127319335938,-0.0572509765625,0.9833984375,-1.625,13.75,1.4375,2.18,-1.66,9.62
1455208477702688932,732,0,/imu_data_acquisition2,76781.0,-0.115783691406,-0.1259765625,-0.0573120117188,0.983581542969,-1.5,15.8125,1.5,1.94,-1.62,9.63
1455208477710850954,733,0,/imu_data_acquisition2,76791.0,-0.115783691406,-0.1259765625,-0.0573120117188,0.983581542969,-2.375,18.375,2.0,2.24,-1.98,9.81
1455208477719563961,734,0,/imu_data_acquisition2,76802.0,-0.116027832031,-0.122741699219,-0.057373046875,0.983947753906,-2.0625,20.1875,2.4375,1.6,-1.39,9.28
