%time,field.header.seq,field.header.stamp,field.header.frame_id,field.time_stamp,field.quat_x,field.quat_y,field.quat_z,field.quat_w,field.gyro_x,field.gyro_y,field.gyro_z,field.accel_x,field.accel_y,field.accel_z
1543854178988143920,197,0,/imu_data_acquisition2,33405.0,-0.0126342773438,0.046875,0.664794921875,0.745422363281,0.0,3.75,1.3125,-0.79,0.61,9.94
1543854178997682094,198,0,/imu_data_acquisition2,33415.0,-0.0126953125,0.0471801757812,0.664855957031,0.745361328125,0.0625,3.5,1.0625,-0.79,0.8,9.89
1543854179008407115,199,0,/imu_data_acquisition2,33425.0,-0.0128173828125,0.0474853515625,0.664916992188,0.745300292969,-0.3125,3.6875,0.875,-0.75,0.67,10.01
1543854179029723882,201,0,/imu_data_acquisition2,33446.0,-0.0130615234375,0.048095703125,0.6650390625,0.7451171875,-0.1875,3.8125,1.125,-0.84,0.76,9.77
1543854179040112972,202,0,/imu_data_acquisition2,33457.0,-0.01318359375,0.0484008789062,0.665100097656,0.745056152344,-0.1875,4.1875,0.9375,-1.01,0.72,10.2
1543854179048751115,203,0,/imu_data_acquisition2,33466.0,-0.0133056640625,0.0487060546875,0.665161132812,0.744995117188,-0.3125,3.6875,0.6875,-0.67,0.71,9.87
1543854179060777902,204,0,/imu_data_acquisition2,33474.0,-0.013427734375,0.0490112304688,0.665161132812,0.744995117188,-0.125,4.3125,0.375,-0.96,0.74,9.83
1543854179070538997,205,0,/imu_data_acquisition2,33488.0,-0.0136108398438,0.0494384765625,0.665161132812,0.744934082031,-0.125,4.25,0.3125,-1.21,0.66,9.99
1543854179079834938,206,0,/imu_data_acquisition2,33497.0,-0.0137329101562,0.0496826171875,0.665161132812,0.744934082031,0.0,3.75,0.25,-0.7,0.69,-0.01
1543854179090926885,207,0,/imu_data_acquisition2,33504.0,-0.013916015625,0.0499877929688,0.665161132812,0.744934082031,0.0,4.0625,0.0,-0.99,0.64,9.86
1543854179098814964,208,0,/imu_data_acquisition2,33516.0,-0.01416015625,0.0503540039062,0.665100097656,0.744873046875,0.125,4.0,-0.125,-1.19,0.64,10.0
1543854179110174894,209,0,/imu_data_acquisition2,33526.0,-0.0142822265625,0.0505981445312,0.665100097656,0.744873046875,0.3125,3.6875,-0.125,-0.88,0.66,9.69
1543854179116492033,210,0,/imu_data_acquisition2,33534.0,-0.0144653320312,0.0508422851562,0.665100097656,0.744873046875,0.25,3.1875,0.0,-0.83,0.59,9.82
1543854179127927064,211,0,/imu_data_acquisition2,33545.0,-0.0145874023438,0.0510864257812,0.665100097656,0.744873046875,0.3125,3.0625,-0.0625,-0.88,0.62,10.07
1543854179138324022,212,0,/imu_data_acquisition2,33556.0,-0.0147094726562,0.05126953125,0.665100097656,0.744812011719,0.4375,3.3125,0.0625,-0.84,0.61,9.82
1543854179147617101,213,0,/imu_data_acquisition2,33564.0,-0.0148315429688,0.0516357421875,0.665100097656,0.744812011719,0.625,4.4375,-0.125,-0.96,0.69,10.12
1543854179158467054,214,0,/imu_data_acquisition2,33575.0,-0.0150146484375,0.0520629882812,0.665100097656,0.744750976562,0.6875,5.4375,-0.5625,-0.75,0.77,9.79
1543854179169236898,215,0,/imu_data_acquisition2,33587.0,-0.0151977539062,0.0525512695312,0.6650390625,0.744812011719,0.8125,6.9375,-1.3125,-0.82,0.78,9.91
1543854179179898023,216,0,/imu_data_acquisition2,33597.0,-0.0154418945312,0.0531616210938,0.664916992188,0.744873046875,0.875,8.0625,-1.625,-0.92,0.72,9.83
1543854179187048912,217,0,/imu_data_acquisition2,33605.0,-0.0158081054688,0.0538330078125,0.664733886719,0.744934082031,1.125,8.8125,-2.4375,-1.05,0.74,9.96
1543854179198348045,218,0,/imu_data_acquisition2,33616.0,-0.0161743164062,0.0545654296875,0.664489746094,0.7451171875,1.3125,9.5,-3.6875,-0.98,-0.01,-0.01
1543854179210689067,219,0,/imu_data_acquisition2,33628.0,-0.0165405273438,0.055419921875,0.664184570312,0.745361328125,1.6875,10.0625,-4.5625,-1.2,0.94,9.83
1543854179216831922,220,0,/imu_data_acquisition2,33635.0,-0.01708984375,0.0563354492188,0.663757324219,0.74560546875,2.5,12.0,-5.9375,-0.97,0.98,10.82
1543854179227852106,221,0,/imu_data_acquisition2,33645.0,-0.0176391601562,0.0572509765625,0.663330078125,0.745910644531,2.4375,12.625,-6.6875,-1.43,0.74,9.74
1543854179238579034,222,0,/imu_data_acquisition2,33655.0,-0.018310546875,0.0582885742188,0.662902832031,0.746215820312,2.8125,14.4375,-6.4375,-1.72,1.62,9.44
1543854179247786045,223,0,/imu_data_acquisition2,33665.0,-0.01904296875,0.0593872070312,0.662475585938,0.746520996094,2.75,15.0625,-6.125,-0.55,0.16,10.31
1543854179257761001,224,0,/imu_data_acquisition2,33676.0,-0.0200805664062,0.060791015625,0.661926269531,0.746826171875,2.0625,20.8125,-8.0,-2.43,1.67,11.12
1543854179272059917,225,0,/imu_data_acquisition2,33687.0,-0.021240234375,0.062255859375,0.661193847656,0.747314453125,1.875,21.6875,-10.6875,0.02,-3.7,9.45
1543854179277419090,226,0,/imu_data_acquisition2,33695.0,-0.0227661132812,0.0641479492188,0.660461425781,0.747802734375,2.0625,28.75,-10.6875,-1.12,1.9,12.48
1543854179287885904,227,0,/imu_data_acquisition2,33705.0,-0.0244750976562,0.0662841796875,0.659790039062,0.748107910156,1.9375,32.125,-8.625,-0.46,1.58,9.73
1543854179297717094,228,0,/imu_data_acquisition2,33715.0,-0.026611328125,0.068603515625,0.6591796875,0.748413085938,0.5,36.5625,-9.125,-1.02,-0.24,9.63
1543854179307215929,229,0,/imu_data_acquisition2,33725.0,-0.0289916992188,0.0712280273438,0.658447265625,0.748657226562,0.4375,42.125,-9.25,-1.06,-0.07,9.13
1543854179318259000,230,0,/imu_data_acquisition2,33735.0,-0.0316162109375,0.0741577148438,0.657775878906,0.748901367188,0.375,46.125,-9.0625,-0.88,-0.19,9.33
1543854179326298952,231,0,/imu_data_acquisition2,33744.0,-0.03466796875,0.0773315429688,0.657104492188,0.7490234375,-1.8125,52.4375,-8.0625,-0.66,0.44,9.3
1543854179337997913,232,0,/imu_data_acquisition2,33755.0,-0.038330078125,0.0809936523438,0.656555175781,0.748962402344,-3.4375,60.9375,-6.6875,-0.98,0.72,9.41
1543854179347249984,233,0,/imu_data_acquisition2,33765.0,-0.0420532226562,0.0847778320312,0.656005859375,0.748779296875,-2.9375,62.8125,-5.125,-1.53,0.69,9.88
1543854179357120037,234,0,/imu_data_acquisition2,33775.0,-0.045654296875,0.0884399414062,0.655517578125,0.748596191406,-3.125,61.4375,-4.625,-1.58,0.95,9.82
1543854179368066072,235,0,/imu_data_acquisition2,33785.0,-0.049560546875,0.09228515625,0.654968261719,0.748352050781,-4.0625,64.8125,-4.625,-1.78,0.82,9.47
1543854179377407073,236,0,/imu_data_acquisition2,33795.0,-0.0537109375,0.0963745117188,0.654418945312,0.748046875,-4.6875,68.8125,-4.625,-1.56,0.32,9.52
1543854179388590097,237,0,/imu_data_acquisition2,33806.0,-0.0581665039062,0.100646972656,0.653869628906,0.747619628906,-6.125,72.875,-4.6875,-1.79,0.37,9.57
1543854179396636962,238,0,/imu_data_acquisition2,33814.0,-0.06298828125,0.105102539062,0.653259277344,0.747131347656,-8.0625,78.0,-4.0625,-1.69,0.74,9.3
1543854179407399892,239,0,/imu_data_acquisition2,33825.0,-6.103515625e-05,-6.103515625e-05,-6.103515625e-05,0.746459960938,-9.5625,84.75,-2.8125,-1.9,0.82,8.84
1543854179417503118,240,0,/imu_data_acquisition2,33835.0,-0.073974609375,0.114929199219,0.652099609375,0.745666503906,-10.625,90.0,-2.0,-2.56,0.33,9.42
1543854179428081989,241,0,/imu_data_acquisition2,33846.0,-0.079833984375,0.120239257812,0.651550292969,0.744750976562,-10.8125,93.25,-1.6875,-2.28,0.12,9.56
1543854179437468051,242,0,/imu_data_acquisition2,33855.0,-6.103515625e-05,-6.103515625e-05,-6.103515625e-05,0.744750976562,-10.0625,97.25,-0.75,-2.49,0.13,9.19
1543854179447428941,243,0,/imu_data_acquisition2,33865.0,-0.0918579101562,0.131469726562,0.650268554688,0.742553710938,-9.625,99.5625,0.0,-3.24,0.5,9.27
1543854179457451105,244,0,/imu_data_acquisition2,33875.0,-6.103515625e-05,-6.103515625e-05,-6.103515625e-05,0.741333007812,-9.25,100.125,0.875,-3.37,0.49,9.23
1543854179466291904,245,0,/imu_data_acquisition2,33884.0,-0.10400390625,0.143005371094,0.648986816406,0.739990234375,-9.1875,100.0,1.5,-3.71,0.43,9.36
1543854179477421045,246,0,/imu_data_acquisition2,33895.0,-0.10986328125,0.148681640625,0.648254394531,0.738647460938,-8.75,97.8125,1.0625,-3.83,0.13,9.36
1543854179489032983,247,0,/imu_data_acquisition2,33906.0,-0.10986328125,0.148681640625,0.648254394531,0.738647460938,-8.5625,97.375,-0.125,-4.04,0.13,-0.01
1543854179496337890,248,0,/imu_data_acquisition2,33914.0,-0.11572265625,0.154296875,0.6474609375,0.7373046875,-7.75,96.5625,-1.0,-4.16,0.22,9.48
1543854179507569074,249,0,/imu_data_acquisition2,33925.0,-0.127258300781,0.165405273438,0.645446777344,0.734741210938,-7.3125,96.3125,-2.0625,-3.72,0.25,9.11
1543854179518213033,250,0,/imu_data_acquisition2,33936.0,-0.133056640625,0.171081542969,0.644287109375,0.733459472656,-6.4375,98.0,-3.3125,-4.43,0.14,9.14
1543854179528044939,251,0,/imu_data_acquisition2,33946.0,-0.138854980469,0.176940917969,0.642944335938,0.732177734375,-5.3125,99.4375,-4.4375,-4.1,0.2,8.9
1543854179538399934,252,0,/imu_data_acquisition2,33955.0,-0.144714355469,0.182983398438,0.641479492188,0.730773925781,-3.6875,102.6875,-4.375,-4.22,-0.01,9.06
1543854179549123048,253,0,/imu_data_acquisition2,33967.0,-0.150695800781,0.189392089844,0.639953613281,0.729309082031,-2.4375,106.75,-4.25,-4.36,-0.18,9.03
1543854179557861089,254,0,/imu_data_acquisition2,33975.0,-0.156860351562,0.196166992188,0.638305664062,0.727661132812,-1.125,111.5625,-3.125,-4.32,-0.16,9.2
1543854179568471908,255,0,/imu_data_acquisition2,33985.0,-0.163146972656,0.203430175781,0.636596679688,0.725769042969,1.25,117.4375,-1.5,-4.14,-0.18,8.88
1543854179577877044,256,0,/imu_data_acquisition2,33995.0,-0.169616699219,0.211303710938,0.634826660156,0.723571777344,3.5625,125.125,0.6875,-4.33,-0.4,9.15
1543854179589539051,257,0,/imu_data_acquisition2,34006.0,-0.169616699219,0.211303710938,0.634826660156,0.723571777344,7.625,134.125,2.875,-4.4,-0.28,9.07
1543854179599136114,258,0,/imu_data_acquisition2,34015.0,-0.183166503906,0.229431152344,0.630859375,0.718200683594,11.4375,144.3125,5.625,-2.02,-0.01,-0.01
1543854179613843917,259,0,/imu_data_acquisition2,34026.0,-0.190368652344,0.239562988281,0.628601074219,0.715026855469,13.8125,153.3125,7.75,-4.99,0.23,9.07
1543854179620263099,260,0,/imu_data_acquisition2,34038.0,-0.19775390625,0.250183105469,0.626281738281,0.711364746094,14.875,160.75,10.0625,-5.04,0.16,8.61
1543854179629256963,261,0,/imu_data_acquisition2,34046.0,-6.103515625e-05,-6.103515625e-05,-6.103515625e-05,0.707397460938,15.1875,168.0,11.75,-5.28,0.42,8.49
1543854179644444942,262,0,/imu_data_acquisition2,34055.0,-0.205505371094,0.26123046875,0.623779296875,0.707397460938,13.0,173.875,13.125,-6.04,0.93,8.25
1543854179649941921,263,0,/imu_data_acquisition2,34067.0,-0.221923828125,0.283569335938,0.61865234375,0.698303222656,7.9375,175.125,14.5,-6.13,1.06,8.03
1543854179657711982,264,0,/imu_data_acquisition2,34075.0,-0.230651855469,0.2939453125,0.616333007812,0.693237304688,-1.625,172.5625,15.5,-6.43,1.29,7.44
1543854179669892072,265,0,/imu_data_acquisition2,34087.0,-0.239929199219,0.303405761719,0.6142578125,0.687805175781,-14.875,169.8125,16.125,-6.66,1.64,7.69
1543854179679372072,266,0,/imu_data_acquisition2,34096.0,-0.239929199219,0.303405761719,0.6142578125,0.687805175781,-32.9375,164.75,16.9375,-6.54,2.04,7.63
1543854179688482999,267,0,/imu_data_acquisition2,34106.0,-0.260986328125,0.318481445312,0.611633300781,0.675537109375,-54.4375,163.4375,18.125,-6.68,1.72,7.14
1543854179698829889,268,0,/imu_data_acquisition2,34116.0,-0.260986328125,0.318481445312,0.611633300781,0.675537109375,-72.875,166.8125,20.75,-6.79,1.41,6.84
1543854179710978031,269,0,/imu_data_acquisition2,34127.0,-0.286193847656,0.330322265625,0.61083984375,0.66015625,-7.1875,-0.0625,-0.0625,-6.46,1.26,6.37
1543854179717262983,270,0,/imu_data_acquisition2,34135.0,-6.103515625e-05,-6.103515625e-05,-6.103515625e-05,0.66015625,-100.875,176.875,32.4375,-6.61,1.68,6.91
1543854179728440046,271,0,/imu_data_acquisition2,34146.0,-0.314819335938,0.340759277344,0.611938476562,0.640502929688,-118.375,185.1875,41.5,-6.19,2.6,7.2
1543854179736294984,272,0,/imu_data_acquisition2,34154.0,-0.314819335938,0.340759277344,0.611938476562,0.640502929688,-118.375,185.1875,41.5,-6.49,3.22,8.53
1543854179749459981,273,0,/imu_data_acquisition2,34166.0,-0.331237792969,0.345031738281,0.61376953125,0.628112792969,-185.375,202.1875,68.6875,-6.88,2.47,8.05
1543854179760490894,274,0,/imu_data_acquisition2,34178.0,-0.349426269531,0.347961425781,0.616943359375,0.613342285156,-218.0625,203.25,93.6875,-8.54,2.21,9.43
1543854179769625902,275,0,/imu_data_acquisition2,34185.0,-0.383911132812,0.349792480469,0.631225585938,0.576049804688,-233.5,155.6875,146.25,-7.31,10.08,22.7
1543854179780164003,276,0,/imu_data_acquisition2,34196.0,-0.383911132812,0.349792480469,0.631225585938,0.576049804688,-224.125,40.3125,225.3125,-8.1,14.25,39.78
1543854179789570093,277,0,/imu_data_acquisition2,34204.0,-0.390197753906,0.346984863281,0.647277832031,0.555358886719,-224.125,40.3125,225.3125,-8.1,14.25,39.78
1543854179800101995,278,0,/imu_data_acquisition2,34217.0,-0.388305664062,0.343627929688,0.666198730469,0.536010742188,-129.4375,-114.9375,310.6875,6.36,3.54,25.16
1543854179809869050,279,0,/imu_data_acquisition2,34227.0,-6.103515625e-05,-6.103515625e-05,-6.103515625e-05,0.517395019531,-83.5,-158.0,334.6875,5.79,-3.08,16.29
1543854179823699951,280,0,/imu_data_acquisition2,34238.0,-0.363159179688,0.339904785156,0.709228515625,0.499572753906,-72.0625,-178.0,330.4375,4.67,-5.15,15.6
1543854179830847024,281,0,/imu_data_acquisition2,34248.0,-0.32861328125,0.333251953125,0.750671386719,0.46630859375,-90.375,-195.5,305.625,4.21,-7.25,14.4
1543854179838969945,282,0,/imu_data_acquisition2,34256.0,-0.32861328125,0.333251953125,0.750671386719,0.46630859375,-120.6875,-207.5,265.9375,3.72,-13.14,10.85
1543854179850425958,283,0,/imu_data_acquisition2,34268.0,-0.312561035156,0.324645996094,0.769958496094,0.451721191406,-120.6875,-207.5,265.9375,3.01,-15.04,10.12
1543854179859978914,284,0,/imu_data_acquisition2,34277.0,-0.298583984375,0.313049316406,0.787048339844,0.439758300781,-144.4375,-197.0625,145.5,1.78,-15.29,10.57
1543854179869738101,285,0,/imu_data_acquisition2,34287.0,-0.286926269531,0.299682617188,0.801025390625,0.431518554688,-135.5,-185.6875,76.125,-1.28,-12.13,14.69
1543854179888731956,287,0,/imu_data_acquisition2,34306.0,-0.269104003906,0.271057128906,0.818969726562,0.428283691406,-120.75,-178.9375,11.9375,-7.59,-2.37,19.32
1543854179899625062,288,0,/imu_data_acquisition2,34317.0,-0.261291503906,0.25634765625,0.823852539062,0.432739257812,-88.375,-188.125,-66.6875,-7.9,3.65,17.92
1543854179914061069,289,0,/imu_data_acquisition2,34329.0,-0.252807617188,0.241760253906,-6.103515625e-05,0.439392089844,-79.6875,-200.4375,-73.5,-8.41,5.0,16.29
1543854179919687032,290,0,/imu_data_acquisition2,34337.0,-0.243225097656,0.227172851562,0.830383300781,0.446838378906,-74.9375,-210.6875,-73.625,-7.48,2.81,14.82
1543854179930706024,291,0,/imu_data_acquisition2,34348.0,-0.232666015625,0.21240234375,0.833190917969,0.454467773438,-62.75,-214.625,-76.375,-7.11,1.62,13.1
1543854179939110040,292,0,/imu_data_acquisition2,34356.0,-0.221313476562,0.198181152344,0.83544921875,0.462341308594,-62.75,-214.625,-76.375,-7.11,1.62,13.1
1543854179949537038,293,0,/imu_data_acquisition2,34367.0,-0.209289550781,0.185424804688,0.836853027344,0.470581054688,-42.4375,-211.4375,-79.25,-7.83,2.99,11.46
1543854179961050987,294,0,/imu_data_acquisition2,34378.0,-0.19677734375,0.174133300781,0.837585449219,0.47900390625,-8.625,-205.125,-78.1875,-8.19,2.61,11.42
1543854179970391035,295,0,/imu_data_acquisition2,34387.0,-0.183715820312,0.163879394531,0.837768554688,0.487365722656,0.75,-205.875,-76.375,-8.55,0.47,10.32
1543854179980930089,296,0,/imu_data_acquisition2,34398.0,-0.170166015625,0.154296875,0.837707519531,0.495544433594,10.3125,-206.125,-77.375,-8.48,-0.68,9.02
1543854179990577936,297,0,/imu_data_acquisition2,34408.0,-0.156127929688,0.145263671875,0.837097167969,0.503723144531,10.3125,-206.125,-77.375,-8.44,-1.72,7.65
1543854179998013019,298,0,/imu_data_acquisition2,34414.0,-0.141906738281,0.136901855469,0.8359375,0.51220703125,19.75,-202.9375,-82.3125,-8.44,-1.72,7.65
1543854180009932994,299,0,/imu_data_acquisition2,34427.0,-0.127990722656,0.129211425781,0.833801269531,0.521179199219,31.6875,-185.5625,-105.25,-9.66,-3.79,5.44
1543854180022394895,300,0,/imu_data_acquisition2,34439.0,-0.114624023438,0.122131347656,0.830688476562,0.530883789062,35.5,-175.6875,-120.4375,-10.12,-3.81,4.92
1543854180030258893,301,0,/imu_data_acquisition2,34447.0,-0.101928710938,0.115539550781,0.826538085938,0.541442871094,38.25,-0.0625,-0.0625,-10.67,-3.72,4.64
1543854180039875030,302,0,/imu_data_acquisition2,34457.0,-0.0899658203125,0.109436035156,0.821228027344,0.552734375,38.25,-165.5625,-135.8125,-11.63,-3.35,5.06
1543854180049599885,303,0,/imu_data_acquisition2,34465.0,-6.103515625e-05,-6.103515625e-05,-6.103515625e-05,0.564819335938,39.9375,-155.1875,-150.25,-12.24,-3.07,6.18
1543854180061033964,304,0,/imu_data_acquisition2,34477.0,-0.068115234375,0.0986938476562,0.807556152344,0.577453613281,46.125,-138.0625,-171.5625,-13.23,-3.08,7.7
1543854180076724052,305,0,/imu_data_acquisition2,34493.0,-0.057861328125,0.0941162109375,0.799499511719,0.590454101562,53.4375,-137.0625,-178.25,-15.0,-3.48,9.72
1543854180085120916,306,0,/imu_data_acquisition2,34503.0,-0.0360107421875,0.0864868164062,0.78125,0.617126464844,65.25,-140.3125,-182.9375,-15.93,-3.93,9.57
1543854180092114925,307,0,/imu_data_acquisition2,34509.0,-6.103515625e-05,-6.103515625e-05,-6.103515625e-05,0.617126464844,79.625,-0.0625,-0.0625,-16.69,-4.59,8.46
1543854180101569890,308,0,/imu_data_acquisition2,34517.0,-0.023681640625,0.0836181640625,0.771240234375,0.630615234375,79.625,-144.0625,-186.3125,-17.96,-6.24,4.81
1543854180111212968,309,0,/imu_data_acquisition2,34529.0,-0.0105590820312,0.081787109375,0.760559082031,0.64404296875,110.8125,-137.0625,-193.0625,-18.3,-7.09,2.72
1543854180121308088,310,0,/imu_data_acquisition2,34539.0,0.00299072265625,0.0812377929688,0.749206542969,0.657287597656,110.8125,-137.0625,-193.0625,-18.46,-7.89,0.96
1543854180131822109,311,0,/imu_data_acquisition2,34547.0,0.01611328125,0.0822143554688,0.737243652344,0.67041015625,127.125,-100.75,-199.0,-18.5,-8.7,-0.52
1543854180140764951,312,0,/imu_data_acquisition2,34558.0,0.0281982421875,0.084716796875,0.724792480469,0.683166503906,122.4375,-74.9375,-200.9375,-17.86,-10.0,-2.53
1543854180146857023,313,0,/imu_data_acquisition2,34564.0,0.0384521484375,0.0883178710938,0.711975097656,0.695556640625,122.4375,-74.9375,-200.9375,-17.86,-10.0,-2.53
1543854180163120985,314,0,/imu_data_acquisition2,34577.0,0.0459594726562,0.0926513671875,0.699035644531,0.707580566406,83.25,-17.0625,-201.6875,-16.59,-10.21,-1.97
1543854180171967983,315,0,/imu_data_acquisition2,34589.0,0.0503540039062,0.0973510742188,0.686157226562,0.719177246094,55.3125,8.875,-197.4375,-15.63,-7.91,1.48
1543854180181332111,316,0,/imu_data_acquisition2,34598.0,0.0515747070312,0.101928710938,0.673645019531,0.730224609375,23.875,28.5,-186.6875,-15.26,-5.72,3.62
1543854180191771984,317,0,/imu_data_acquisition2,34608.0,0.0498046875,0.105834960938,0.661926269531,0.740356445312,23.875,-0.0625,-0.0625,-15.12,-3.19,5.83
1543854180200618982,318,0,/imu_data_acquisition2,34615.0,0.04541015625,0.1083984375,0.651672363281,0.749328613281,-11.0625,40.0,-167.375,-15.12,-3.19,5.83
1543854180210376977,319,0,/imu_data_acquisition2,34627.0,0.0385131835938,0.10888671875,0.643493652344,0.756713867188,-92.5625,39.5625,-100.9375,-15.01,2.62,10.34
1543854180220761060,320,0,/imu_data_acquisition2,34638.0,0.0294799804688,0.106689453125,0.637939453125,0.762084960938,-135.0625,29.0,-51.875,-17.71,20.8,22.24
1543854180234518051,321,0,/imu_data_acquisition2,34652.0,0.018798828125,0.101379394531,0.635864257812,0.764892578125,-301.0,-18.0,136.8125,-21.44,40.08,39.78
1543854180240885972,322,0,/imu_data_acquisition2,34657.0,0.00146484375,0.0838012695312,0.647033691406,0.757873535156,-32.625,-144.625,328.5625,26.14,-36.26,-33.07
1543854180252826929,323,0,/imu_data_acquisition2,34669.0,0.0355224609375,0.0841064453125,0.679626464844,0.727844238281,308.75,-92.5625,224.25,-5.1,21.97,5.5
1543854180264540910,324,0,/imu_data_acquisition2,34682.0,0.0355224609375,0.0841064453125,0.679626464844,0.727844238281,147.9375,113.5625,-15.9375,3.97,40.08,-34.52
1543854180270684957,325,0,/imu_data_acquisition2,34688.0,0.0379638671875,0.099609375,0.677856445312,0.727416992188,-253.9375,21.625,-42.4375,1.47,-32.2,22.75
1543854180279925107,326,0,/imu_data_acquisition2,34698.0,0.020751953125,0.0865478515625,0.677307128906,0.730346679688,-279.9375,-40.1875,-67.0,-7.9,-19.89,32.06
1543854180287674903,327,0,/imu_data_acquisition2,34705.0,0.00531005859375,0.068115234375,0.674926757812,0.734741210938,-7.9375,-0.0625,-0.0625,-7.9,-19.89,32.06
1543854180296545028,328,0,/imu_data_acquisition2,34714.0,0.00152587890625,0.0623779296875,0.672668457031,0.7373046875,-77.1875,-22.4375,-43.25,3.25,-5.07,4.74
1543854180308603048,329,0,/imu_data_acquisition2,34726.0,0.00091552734375,0.060546875,0.672424316406,0.737670898438,-19.5,-11.0,-4.9375,-7.18,8.56,12.35
1543854180319737911,330,0,/imu_data_acquisition2,34737.0,-0.00244140625,0.058837890625,0.672058105469,0.738159179688,-43.1875,11.4375,-9.8125,-2.95,-0.62,13.74
1543854180329169034,331,0,/imu_data_acquisition2,34747.0,-0.00616455078125,0.0547485351562,0.671325683594,0.739135742188,-63.8125,-6.6875,-16.8125,-2.29,2.32,11.66
1543854180337599039,332,0,/imu_data_acquisition2,34755.0,-0.009765625,0.0501098632812,0.670288085938,0.740356445312,-67.8125,-13.0625,-20.875,-2.29,2.32,11.66
1543854180346640110,333,0,/imu_data_acquisition2,34764.0,-0.0125122070312,0.0451049804688,0.669250488281,0.741577148438,-63.0,-22.0,-21.375,1.18,-4.49,7.78
1543854180358546018,334,0,/imu_data_acquisition2,34776.0,-0.0143432617188,0.0410766601562,0.66845703125,0.742492675781,-47.4375,-21.75,-15.5625,0.0,-8.42,9.59
1543854180370028018,335,0,/imu_data_acquisition2,34787.0,-0.014892578125,0.039794921875,0.668273925781,0.742736816406,-15.0,-6.5625,-4.3125,-1.26,0.33,10.11
1543854180380206108,336,0,/imu_data_acquisition2,34797.0,-0.0148315429688,0.0402221679688,0.66845703125,0.742553710938,3.875,3.375,3.3125,-1.08,0.78,10.79
1543854180387654066,337,0,/imu_data_acquisition2,34805.0,-0.0145874023438,0.0411376953125,0.668762207031,0.742248535156,9.0625,6.0625,5.1875,-1.08,0.78,10.79
1543854180397625923,338,0,/imu_data_acquisition2,34815.0,-0.01416015625,0.0420532226562,0.669067382812,0.741882324219,10.75,4.6875,5.625,-0.88,0.92,10.43
1543854180406153917,339,0,/imu_data_acquisition2,34824.0,-0.0136108398438,0.0427856445312,0.669372558594,0.741577148438,10.25,2.0,5.4375,-1.16,0.76,9.91
1543854180419321060,340,0,/imu_data_acquisition2,34837.0,-0.0132446289062,0.0432739257812,0.669616699219,0.741333007812,7.1875,1.4375,4.4375,-0.95,0.87,9.93
1543854180430217027,341,0,/imu_data_acquisition2,34847.0,-0.0130004882812,0.043701171875,0.669799804688,0.741149902344,5.5625,1.875,3.5625,-0.93,1.4,10.13
1543854180436918020,342,0,/imu_data_acquisition2,34854.0,-0.0128173828125,0.0439453125,0.669982910156,0.740966796875,3.375,1.125,2.9375,-0.93,1.4,10.13
1543854180449610948,343,0,/imu_data_acquisition2,34867.0,-0.0127563476562,0.0439453125,0.670104980469,0.740844726562,0.1875,-0.625,1.8125,-0.75,0.96,10.25
1543854180462595939,344,0,/imu_data_acquisition2,34878.0,-0.0128173828125,0.043701171875,0.670104980469,0.740844726562,-2.25,-1.6875,0.3125,-0.5,0.68,9.62
1543854180470381975,345,0,/imu_data_acquisition2,34887.0,-0.0128784179688,0.0433349609375,0.670043945312,0.740905761719,-3.375,-3.0625,-0.8125,-0.75,0.36,9.57
1543854180480277061,346,0,/imu_data_acquisition2,34898.0,-0.012939453125,0.0429077148438,0.670043945312,0.740966796875,-4.0625,-2.75,-1.0,-0.84,0.46,9.71
1543854180488259077,347,0,/imu_data_acquisition2,34905.0,-0.0130615234375,0.0426025390625,0.669982910156,0.741027832031,-3.4375,-1.9375,-0.625,-0.84,0.46,9.71
1543854180499449968,348,0,/imu_data_acquisition2,34917.0,-0.01318359375,0.0423583984375,0.669982910156,0.741027832031,-2.5,-1.4375,-0.4375,-0.51,0.64,9.41
1543854180509527921,349,0,/imu_data_acquisition2,34927.0,-0.0133056640625,0.042236328125,0.670043945312,0.741027832031,-2.125,-0.5625,0.0,-0.66,0.38,9.81
1543854180520591020,350,0,/imu_data_acquisition2,34937.0,-0.0133666992188,0.0421752929688,0.670043945312,0.741027832031,-1.375,-0.1875,0.375,-0.7,0.55,9.82
1543854180530221939,351,0,/imu_data_acquisition2,34947.0,-0.013427734375,0.0421752929688,0.670043945312,0.740966796875,-0.5,0.8125,0.625,-1.07,0.47,10.03
1543854180539167881,352,0,/imu_data_acquisition2,34955.0,-0.0134887695312,0.0422973632812,-6.103515625e-05,0.740905761719,-0.1875,1.3125,1.0,-1.07,0.47,10.03
1543854180548460006,353,0,/imu_data_acquisition2,34964.0,-0.0136108398438,0.0424194335938,0.670166015625,0.740844726562,-0.4375,1.75,0.9375,-0.81,0.55,9.94
1543854180559099912,354,0,/imu_data_acquisition2,34976.0,-0.0136108398438,0.04248046875,0.670227050781,0.740844726562,-0.5,0.9375,0.6875,-0.73,0.72,9.87
1543854180571904897,355,0,/imu_data_acquisition2,34990.0,-0.013671875,0.0425415039062,0.670288085938,0.740783691406,-1.25,1.0625,0.25,-0.75,0.51,9.69
1543854180581984043,356,0,/imu_data_acquisition2,34999.0,-0.0137939453125,0.0425415039062,0.670288085938,0.740783691406,-1.3125,0.625,0.125,-0.75,0.75,9.86
1543854180590719938,357,0,/imu_data_acquisition2,35008.0,-0.0137939453125,0.0426025390625,0.670288085938,0.740783691406,-1.375,0.5,0.125,-0.76,0.78,10.13
1543854180596616029,358,0,/imu_data_acquisition2,35014.0,-0.0137329101562,0.0426635742188,0.670288085938,0.74072265625,-1.375,0.5,0.125,-0.76,0.78,10.13
1543854180606461048,359,0,/imu_data_acquisition2,35024.0,-0.0137939453125,0.0426025390625,0.670288085938,0.74072265625,-1.375,0.1875,0.25,-0.75,0.4,9.66
1543854180630698919,361,0,/imu_data_acquisition2,35047.0,-0.0137939453125,0.0425415039062,0.670288085938,0.74072265625,-0.875,0.4375,0.3125,-0.6,0.58,9.93
1543854180637363910,362,0,/imu_data_acquisition2,35055.0,-0.0137939453125,0.0425415039062,0.670349121094,0.74072265625,-0.1875,0.375,0.6875,-0.73,0.4,9.88
1543854180651624917,363,0,/imu_data_acquisition2,35067.0,-0.0137939453125,0.0426025390625,0.67041015625,0.740661621094,0.3125,0.9375,1.0625,-0.85,0.47,10.12
1543854180659866094,364,0,/imu_data_acquisition2,35076.0,-0.0137939453125,0.0426635742188,0.670471191406,0.740539550781,0.5625,0.6875,1.375,-0.6,0.61,10.08
1543854180668889045,365,0,/imu_data_acquisition2,35087.0,-0.013671875,0.0427856445312,0.670593261719,0.740478515625,0.8125,0.5625,1.375,-0.9,0.54,9.97
1543854180680979013,366,0,/imu_data_acquisition2,35098.0,-0.0135498046875,0.0428466796875,0.670654296875,0.740417480469,1.125,0.375,1.5,-0.69,0.45,10.07
1543854180687433004,367,0,/imu_data_acquisition2,35105.0,-0.013427734375,0.0429077148438,0.670776367188,0.740295410156,1.0625,-0.0625,1.625,-0.57,0.47,10.01
1543854180700367927,368,0,/imu_data_acquisition2,35118.0,-0.0132446289062,0.0430908203125,0.6708984375,0.740173339844,1.375,0.3125,1.6875,-1.15,1.07,10.38
1543854180710051059,369,0,/imu_data_acquisition2,35127.0,-0.0130004882812,0.0432739257812,0.671020507812,0.740051269531,1.625,0.625,2.0,-0.42,0.58,9.85
1543854180720979928,370,0,/imu_data_acquisition2,35138.0,-0.0128173828125,0.0433349609375,0.671142578125,0.739990234375,1.125,-0.625,1.625,-0.69,0.4,9.62
1543854180730391979,371,0,/imu_data_acquisition2,35148.0,-0.0126342773438,0.0433959960938,0.671264648438,0.739868164062,1.25,-0.5,1.9375,-0.76,0.63,9.95
1543854180738368988,372,0,/imu_data_acquisition2,35156.0,-0.0125122070312,0.0435180664062,0.67138671875,0.73974609375,1.125,-0.1875,2.0,-0.85,0.64,9.99
1543854180746936082,373,0,/imu_data_acquisition2,35164.0,-0.0123291015625,0.0435791015625,0.671508789062,0.739624023438,1.125,-0.25,2.125,-0.54,0.49,9.73
1543854180757395029,374,0,/imu_data_acquisition2,35175.0,-0.01220703125,0.043701171875,0.671630859375,0.739501953125,1.25,-0.3125,2.3125,-0.89,0.57,10.07
1543854180771264076,375,0,/imu_data_acquisition2,35188.0,-0.0120849609375,0.0438232421875,0.671813964844,0.739379882812,1.3125,0.1875,2.4375,-0.76,0.68,9.87
1543854180777724981,376,0,/imu_data_acquisition2,35195.0,-0.0119018554688,0.0440063476562,0.671936035156,0.739196777344,1.6875,0.125,2.375,-1.0,0.66,9.63
1543854180787821054,377,0,/imu_data_acquisition2,35206.0,-0.0117797851562,0.044189453125,0.672058105469,0.739074707031,1.5625,0.6875,2.4375,-0.74,0.61,9.81
1543854180798666954,378,0,/imu_data_acquisition2,35216.0,-0.01171875,0.0443115234375,0.672180175781,0.738952636719,1.3125,0.875,2.0625,-0.75,0.67,9.85
1543854180806267023,379,0,/imu_data_acquisition2,35224.0,-0.0115966796875,0.0446166992188,0.672302246094,0.738830566406,1.3125,1.125,2.0,-1.04,0.7,9.83
1543854180819494962,380,0,/imu_data_acquisition2,35237.0,-0.0115966796875,0.0448608398438,0.672424316406,0.738708496094,1.1875,1.625,1.8125,-0.86,0.6,9.8
1543854180830593109,381,0,/imu_data_acquisition2,35248.0,-0.0115356445312,0.0451049804688,0.672546386719,0.738586425781,1.125,1.5,1.6875,-0.89,0.68,9.83
1543854180836249113,382,0,/imu_data_acquisition2,35254.0,-0.0115356445312,0.0452880859375,0.672607421875,0.738525390625,1.125,1.375,1.6875,-0.84,0.62,9.78
1543854180848758935,383,0,/imu_data_acquisition2,35266.0,-0.011474609375,0.0455322265625,0.672729492188,0.738403320312,1.0,1.6875,1.5625,-0.89,0.66,10.04
1543854180858680009,384,0,/imu_data_acquisition2,35275.0,-0.0115356445312,0.0457763671875,0.672790527344,0.73828125,1.125,2.0,1.5625,-0.91,0.64,9.79
1543854180866391897,385,0,/imu_data_acquisition2,35284.0,-0.011474609375,0.0460205078125,0.672912597656,0.738220214844,1.125,2.125,1.5,-0.62,0.69,9.65
1543854180880481958,386,0,/imu_data_acquisition2,35298.0,-0.0114135742188,0.0462036132812,0.672973632812,0.738098144531,1.0,1.6875,1.25,-0.71,0.61,10.05
1543854180889091014,387,0,/imu_data_acquisition2,35305.0,-0.0114135742188,0.04638671875,0.673034667969,0.738037109375,0.9375,1.6875,1.3125,-0.84,0.58,9.97
1543854180896910905,388,0,/imu_data_acquisition2,35315.0,-0.011474609375,0.046630859375,0.673156738281,0.737976074219,0.625,2.3125,1.3125,-0.87,0.67,-0.01
1543854180910399913,389,0,/imu_data_acquisition2,35328.0,-0.0115966796875,0.0467529296875,0.673217773438,0.737854003906,0.4375,2.0,1.5,-0.86,0.56,10.12
1543854180920975923,390,0,/imu_data_acquisition2,35339.0,-0.01171875,0.046875,0.67333984375,0.737731933594,0.375,2.125,1.6875,-0.84,0.59,9.99
1543854180934276103,391,0,/imu_data_acquisition2,35351.0,-0.0118408203125,0.0469970703125,0.673400878906,0.737670898438,0.375,2.25,1.5,-0.83,0.71,9.97
1543854180941066980,392,0,/imu_data_acquisition2,35359.0,-0.0119018554688,0.0472412109375,0.673522949219,0.737548828125,0.3125,2.4375,1.6875,-0.83,0.71,9.97
1543854180946661949,393,0,/imu_data_acquisition2,35364.0,-0.0120239257812,0.0474243164062,0.673645019531,0.737426757812,0.3125,2.5625,1.875,-0.88,0.73,9.96
1543854180957284927,394,0,/imu_data_acquisition2,35375.0,-0.0120239257812,0.047607421875,0.673767089844,0.7373046875,0.5625,2.6875,2.0625,-0.62,0.71,9.8
1543854180970371007,395,0,/imu_data_acquisition2,35386.0,-0.0121459960938,0.0478515625,0.673889160156,0.737182617188,0.3125,3.0625,1.875,-0.93,0.68,9.99
1543854180976279973,396,0,/imu_data_acquisition2,35394.0,-0.01220703125,0.0481567382812,0.674011230469,0.737060546875,0.25,3.1875,1.6875,-0.78,0.79,9.79
1543854180987828016,397,0,/imu_data_acquisition2,35405.0,-0.0122680664062,0.0484008789062,0.674133300781,0.736938476562,0.4375,3.0625,1.75,-0.87,0.74,-0.01
1543854180997389078,398,0,/imu_data_acquisition2,35415.0,-0.012451171875,0.0486450195312,0.674194335938,0.73681640625,0.3125,3.3125,1.75,-0.94,0.64,10.0
1543854181007464885,399,0,/imu_data_acquisition2,35425.0,-0.0125732421875,0.0489501953125,0.67431640625,0.736694335938,0.3125,3.4375,1.8125,-0.75,0.67,9.71
1543854181025499105,400,0,/imu_data_acquisition2,35443.0,-0.0126342773438,0.0491333007812,0.674438476562,0.736572265625,0.4375,2.9375,1.9375,-0.82,0.65,9.84
1543854181033823966,401,0,/imu_data_acquisition2,35451.0,-0.0127563476562,0.0493774414062,0.674560546875,0.736450195312,0.375,3.375,2.0625,-0.62,0.82,9.83
1543854181037348031,402,0,/imu_data_acquisition2,35455.0,-0.0127563476562,0.0496215820312,0.674682617188,0.736328125,0.3125,2.6875,1.8125,-0.62,0.82,9.83
1543854181047686100,403,0,/imu_data_acquisition2,35465.0,-0.0127563476562,0.0498046875,0.674743652344,0.736267089844,0.0625,2.625,1.0,-0.81,0.72,9.92
1543854181058986902,404,0,/imu_data_acquisition2,35476.0,-0.0128784179688,0.050048828125,0.6748046875,0.736145019531,0.0625,2.625,1.0,-1.09,0.65,9.96
1543854181069075107,405,0,/imu_data_acquisition2,35486.0,-0.0130004882812,0.0502319335938,0.674865722656,0.736145019531,0.0625,2.5,0.6875,-0.87,0.73,9.78
1543854181077656030,406,0,/imu_data_acquisition2,35494.0,-0.0130615234375,0.0504760742188,0.674865722656,0.736083984375,-0.125,3.4375,0.0625,-0.76,0.7,9.93
1543854181089638948,407,0,/imu_data_acquisition2,35507.0,-0.0132446289062,0.05078125,0.674865722656,0.736083984375,0.0,4.5,0.0625,-0.8,0.72,10.05
1543854181098447084,408,0,/imu_data_acquisition2,35515.0,-0.013427734375,-6.103515625e-05,-6.103515625e-05,0.736022949219,0.0,5.25,0.0,-0.84,0.67,9.93
1543854181106328964,409,0,/imu_data_acquisition2,35524.0,-0.0137329101562,0.0515747070312,0.674865722656,0.736022949219,0.1875,6.0625,0.0,-0.95,0.71,10.05
1543854181123194932,410,0,/imu_data_acquisition2,35540.0,-0.0140380859375,0.052001953125,0.6748046875,0.736022949219,0.25,6.4375,-0.625,-1.27,0.6,9.41
1543854181128261089,411,0,/imu_data_acquisition2,35545.0,-0.0144653320312,0.0524291992188,0.674743652344,0.736083984375,0.1875,7.625,-1.1875,-1.27,-0.01,-0.01
1543854181136626958,412,0,/imu_data_acquisition2,35554.0,-0.0149536132812,0.0530395507812,0.674560546875,0.736145019531,0.875,9.1875,-2.5625,-1.61,1.3,9.96
1543854181152281999,413,0,/imu_data_acquisition2,35570.0,-0.0154418945312,0.0537109375,0.674255371094,0.736328125,0.9375,9.25,-3.9375,-0.19,0.51,9.72
1543854181157298088,414,0,/imu_data_acquisition2,35574.0,-0.0159301757812,0.0543212890625,0.674011230469,0.736572265625,0.9375,9.25,-4.0,0.52,2.09,-0.01
1543854181167093038,415,0,/imu_data_acquisition2,35584.0,-0.0165405273438,0.0550537109375,0.673706054688,0.736755371094,0.75,10.6875,-4.5625,-0.98,0.37,9.68
1543854181186346054,416,0,/imu_data_acquisition2,35601.0,-6.103515625e-05,-6.103515625e-05,-6.103515625e-05,0.736999511719,1.5,13.1875,-4.875,-1.06,1.76,9.07
1543854181187851905,417,0,/imu_data_acquisition2,35605.0,-0.0181274414062,0.0570068359375,0.672973632812,0.737243652344,1.375,16.625,-5.875,-1.06,1.76,9.07
1543854181198093891,418,0,/imu_data_acquisition2,35615.0,-0.0191650390625,0.0582885742188,0.67236328125,0.737670898438,1.0,19.3125,-9.0625,-1.83,0.36,10.19
1543854181211162090,419,0,/imu_data_acquisition2,35628.0,-0.0203857421875,0.0596923828125,0.671752929688,0.738037109375,1.0625,21.75,-8.9375,-0.47,1.12,11.09
1543854181218904018,420,0,/imu_data_acquisition2,35636.0,-0.0219116210938,0.0613403320312,0.671203613281,0.738403320312,0.875,26.3125,-8.4375,-0.54,1.41,10.14
1543854181228131055,421,0,/imu_data_acquisition2,35646.0,-0.0235595703125,0.0631713867188,0.670593261719,0.73876953125,0.25,29.0,-9.1875,-0.83,0.29,9.4
1543854181242007970,422,0,/imu_data_acquisition2,35658.0,-0.0254516601562,0.065185546875,0.669921875,0.739135742188,0.375,32.5625,-9.5,-1.24,0.1,9.62
1543854181247813940,423,0,/imu_data_acquisition2,35665.0,-0.027587890625,0.0674438476562,0.669250488281,0.739440917969,0.125,36.625,-9.1875,-0.83,-0.23,9.44
1543854181257750988,424,0,/imu_data_acquisition2,35675.0,-0.014404296875,-6.103515625e-05,-6.103515625e-05,0.739624023438,-0.875,41.375,-7.8125,-1.17,0.55,9.58
1543854181274372100,425,0,/imu_data_acquisition2,35691.0,-0.0328369140625,0.07275390625,0.668151855469,0.73974609375,-1.75,46.75,-6.8125,-1.69,0.77,10.03
1543854181281439065,426,0,/imu_data_acquisition2,35698.0,-0.0360107421875,0.0757446289062,0.667602539062,0.739807128906,-3.875,51.1875,-6.5625,-1.69,0.77,10.03
1543854181287100076,427,0,/imu_data_acquisition2,35705.0,-0.03955078125,0.078857421875,0.667053222656,0.739807128906,-5.8125,55.4375,-6.4375,-1.25,0.87,9.94
1543854181297038078,428,0,/imu_data_acquisition2,35715.0,-0.0431518554688,0.08203125,0.66650390625,0.739685058594,-5.875,56.875,-5.75,-1.27,0.41,9.34
1543854181315502882,429,0,/imu_data_acquisition2,35733.0,-0.0470581054688,0.08544921875,0.665954589844,0.739562988281,-7.125,64.4375,-5.0625,-1.74,0.41,9.2
1543854181321999073,430,0,/imu_data_acquisition2,35739.0,-0.0511474609375,0.0890502929688,0.665405273438,0.739379882812,-7.125,64.4375,-5.0625,-1.74,0.41,9.2
1543854181327806949,431,0,/imu_data_acquisition2,35745.0,-0.0554809570312,0.0928955078125,0.664978027344,0.739013671875,-7.625,68.5,-3.5625,-2.04,-0.01,-0.01
1543854181343864917,432,0,/imu_data_acquisition2,35761.0,-0.06005859375,0.0968627929688,0.66455078125,0.738525390625,-8.5625,71.0,-2.375,-1.89,0.68,9.81
1543854181348329067,433,0,/imu_data_acquisition2,35766.0,-0.0647583007812,0.100891113281,0.664123535156,0.737915039062,-9.125,73.0625,-1.375,-2.16,0.51,9.74
1543854181358035087,434,0,/imu_data_acquisition2,35775.0,-0.069580078125,0.105102539062,0.663757324219,0.737243652344,-9.3125,76.1875,0.0625,-2.36,0.31,9.4
1543854181374201059,435,0,/imu_data_acquisition2,35791.0,-0.0745239257812,0.109497070312,0.663513183594,0.736389160156,-8.9375,78.75,1.5625,-2.21,0.28,9.38
1543854181379230976,436,0,/imu_data_acquisition2,35796.0,-0.0796508789062,0.114196777344,0.663269042969,0.7353515625,-8.25,82.3125,3.5625,-2.65,0.33,9.5
1543854181387707948,437,0,/imu_data_acquisition2,35805.0,-0.0847778320312,0.119018554688,0.663208007812,0.734008789062,-7.8125,84.4375,7.3125,-3.12,0.37,9.47
1543854181402086019,438,0,/imu_data_acquisition2,35819.0,-0.0899658203125,0.123962402344,0.663269042969,0.732543945312,-8.125,85.625,10.3125,-3.2,0.4,9.59
1543854181407991886,439,0,/imu_data_acquisition2,35826.0,-0.0950927734375,0.12890625,0.663391113281,0.730895996094,-7.5625,85.5625,11.4375,-3.16,0.2,9.5
1543854181417402029,440,0,/imu_data_acquisition2,35835.0,-6.103515625e-05,-6.103515625e-05,-6.103515625e-05,0.729248046875,-6.625,85.3125,11.125,-3.07,0.33,9.4
1543854181431030988,441,0,/imu_data_acquisition2,35844.0,-0.105224609375,0.138916015625,0.663391113281,0.727722167969,-5.75,85.3125,9.625,-3.45,0.48,9.32
1543854181438047885,442,0,/imu_data_acquisition2,35856.0,-0.110290527344,0.143981933594,0.663146972656,0.726196289062,-5.375,86.0,7.6875,-3.49,0.29,9.47
1543854181447180032,443,0,/imu_data_acquisition2,35864.0,-0.115356445312,0.149169921875,0.662719726562,0.724731445312,-4.1875,87.625,5.5625,-3.47,0.23,9.43
1543854181456917047,444,0,/imu_data_acquisition2,35874.0,-0.120544433594,0.154541015625,0.662048339844,0.723388671875,-2.5,90.25,3.375,-3.49,0.22,9.2
1543854181467757940,445,0,/imu_data_acquisition2,35885.0,-0.125732421875,0.160278320312,0.6611328125,0.722045898438,-0.4375,93.5625,1.25,-3.45,0.02,9.26
1543854181477185010,446,0,/imu_data_acquisition2,35895.0,-0.131164550781,0.166381835938,0.660034179688,0.720703125,1.25,98.625,-0.1875,-3.52,0.04,9.23
1543854181492367982,447,0,/imu_data_acquisition2,35910.0,-0.13671875,0.172790527344,0.658813476562,0.719360351562,3.125,102.875,-1.0625,-3.79,-0.11,9.4
1543854181497437000,448,0,/imu_data_acquisition2,35914.0,-0.142395019531,0.179626464844,0.657348632812,0.717895507812,6.0,107.8125,-1.25,-3.88,-0.07,9.15
1543854181507751941,449,0,/imu_data_acquisition2,35925.0,-0.148132324219,0.18701171875,0.655822753906,0.716247558594,8.875,113.8125,-0.25,-3.98,-0.04,9.31
1543854181522735118,450,0,/imu_data_acquisition2,35936.0,-0.154174804688,0.195007324219,0.654174804688,0.71435546875,11.1875,121.625,1.25,-3.97,-0.19,9.15
1543854181526350975,451,0,/imu_data_acquisition2,35944.0,-0.160461425781,0.203674316406,0.652404785156,0.712158203125,14.1875,130.0,3.4375,-3.77,-0.11,9.37
1543854181537559986,452,0,/imu_data_acquisition2,35955.0,-0.166931152344,0.213134765625,0.650512695312,0.709594726562,17.8125,139.75,6.4375,-3.94,-0.01,9.38
1543854181548010110,453,0,/imu_data_acquisition2,35965.0,-0.173645019531,0.223388671875,-6.103515625e-05,0.706604003906,21.4375,149.1875,9.75,-4.52,0.07,9.14
1543854181557291030,454,0,/imu_data_acquisition2,35975.0,-0.180603027344,0.234130859375,0.646545410156,0.703247070312,23.0625,156.3125,12.4375,-4.53,0.27,9.04
1543854181567948102,455,0,/imu_data_acquisition2,35986.0,-0.187805175781,0.245300292969,0.644409179688,0.699462890625,23.5,162.75,15.125,-4.98,0.6,8.68
1543854181577879905,456,0,/imu_data_acquisition2,35995.0,-0.195251464844,0.256652832031,0.642272949219,0.6953125,21.5,167.75,17.125,-5.15,0.8,8.39
1543854181588711977,457,0,/imu_data_acquisition2,36006.0,-0.203186035156,0.267883300781,0.64013671875,0.690795898438,16.1875,171.375,18.6875,-0.69,-0.01,-0.01
1543854181598536968,458,0,/imu_data_acquisition2,36016.0,-0.211669921875,0.278686523438,0.638061523438,0.685852050781,7.5625,173.3125,19.4375,-5.65,1.46,8.04
1543854181607923030,459,0,/imu_data_acquisition2,36026.0,-0.220825195312,0.289001464844,0.636108398438,0.680480957031,-3.625,175.875,20.3125,-5.89,1.7,8.01
1543854181621515989,460,0,/imu_data_acquisition2,36039.0,-0.23095703125,0.298706054688,0.634399414062,0.674560546875,-18.6875,179.0625,21.6875,-5.97,1.98,7.81
1543854181627660036,461,0,/imu_data_acquisition2,36045.0,-0.242309570312,0.3076171875,0.632934570312,0.667846679688,-36.4375,183.625,23.0625,-5.87,2.16,8.03
1543854181637197017,462,0,/imu_data_acquisition2,36055.0,-0.2548828125,0.315795898438,0.631958007812,0.660278320312,-56.1875,189.5,26.4375,-6.01,2.37,8.04
1543854181651498079,463,0,/imu_data_acquisition2,36069.0,-0.268920898438,0.323181152344,0.631469726562,0.651489257812,-79.0625,197.4375,32.125,-5.57,2.73,8.54
1543854181656662940,464,0,/imu_data_acquisition2,36074.0,-6.103515625e-05,-6.103515625e-05,-6.103515625e-05,0.64111328125,-106.125,206.375,-0.0625,-5.49,3.13,8.3
1543854181668068885,465,0,/imu_data_acquisition2,36085.0,-0.301818847656,0.335510253906,0.633361816406,0.628662109375,-136.125,216.0625,56.1875,-5.07,2.92,7.7
1543854181685667037,466,0,/imu_data_acquisition2,36103.0,-0.320373535156,0.340576171875,0.63623046875,0.613647460938,-165.125,226.4375,78.125,-3.83,11.84,24.79
1543854181688996076,467,0,/imu_data_acquisition2,36107.0,-0.338073730469,0.344543457031,0.641662597656,0.596008300781,-186.9375,212.5625,116.0,-3.83,11.84,24.79
1543854181697922945,468,0,/imu_data_acquisition2,36116.0,-0.338073730469,0.344543457031,0.641662597656,0.596008300781,-197.5625,122.5,189.375,1.23,19.12,39.44
1543854181712852001,469,0,/imu_data_acquisition2,36130.0,-0.352111816406,0.343872070312,0.669616699219,0.556274414062,-182.625,28.625,248.625,-4.34,14.85,39.78
1543854181716823101,470,0,/imu_data_acquisition2,36135.0,-0.346740722656,0.341552734375,0.68896484375,0.537109375,-141.625,-60.75,291.375,8.82,3.37,27.98
1543854181727889060,471,0,/imu_data_acquisition2,36146.0,-0.333618164062,0.339660644531,0.710144042969,0.518676757812,-93.3125,-131.375,331.25,9.2,-1.75,20.76
1543854181744736909,472,0,/imu_data_acquisition2,36162.0,-0.316711425781,0.33740234375,0.731262207031,0.501098632812,-69.5625,-169.3125,336.1875,8.43,-5.47,17.73
1543854181749511003,473,0,/imu_data_acquisition2,36166.0,-0.299072265625,0.33251953125,0.751586914062,0.484924316406,-79.1875,-192.75,313.125,5.9,-10.34,16.36
1543854181757992029,474,0,/imu_data_acquisition2,36175.0,-0.299072265625,0.33251953125,0.751586914062,0.484924316406,-105.9375,-213.8125,272.4375,5.24,-12.95,14.07
1543854181777811050,475,0,/imu_data_acquisition2,36194.0,-0.266662597656,0.311462402344,0.787963867188,0.459350585938,-130.625,-223.0,217.125,4.07,-16.19,9.85
1543854181785741090,476,0,/imu_data_acquisition2,36202.0,-0.253784179688,0.296936035156,0.802124023438,0.451721191406,-141.8125,-215.625,150.375,4.07,-0.01,-0.01
1543854181789788007,477,0,/imu_data_acquisition2,36207.0,-0.243469238281,0.281433105469,0.812744140625,0.4482421875,-140.0625,-200.6875,79.375,0.26,-13.99,12.71
1543854181803431987,478,0,/imu_data_acquisition2,36220.0,-0.243469238281,0.281433105469,0.812744140625,0.4482421875,-130.25,-187.1875,12.375,-2.04,-11.5,15.62
1543854181809442996,479,0,/imu_data_acquisition2,36226.0,-0.235229492188,0.265625,0.820007324219,0.449096679688,-116.6875,-182.375,-42.875,-5.16,-6.55,18.27
1543854181820091009,480,0,/imu_data_acquisition2,36236.0,-0.220458984375,0.233947753906,0.827331542969,0.460632324219,-103.4375,-185.8125,-71.875,-8.95,5.57,17.21
1543854181836836099,481,0,/imu_data_acquisition2,36254.0,-0.220458984375,0.233947753906,0.827331542969,0.460632324219,-94.375,-193.0625,-78.375,-8.79,5.66,16.6
1543854181841530084,482,0,/imu_data_acquisition2,36258.0,-0.202880859375,0.202941894531,0.83154296875,0.4755859375,-86.0625,-200.375,-78.0,-7.53,3.28,15.49
1543854181849168062,483,0,/imu_data_acquisition2,36266.0,-0.192932128906,0.188537597656,0.832763671875,0.4833984375,-69.875,-200.5625,-80.6875,-7.59,2.28,13.11
1543854181864712953,484,0,/imu_data_acquisition2,36282.0,-6.103515625e-05,-6.103515625e-05,-6.103515625e-05,0.4833984375,-47.625,-197.625,-82.375,-7.91,2.53,12.88
1543854181870585918,485,0,/imu_data_acquisition2,36287.0,-0.1708984375,0.164306640625,0.833068847656,0.499755859375,-28.6875,-195.5,-83.625,-8.28,2.37,12.61
1543854181878096103,486,0,/imu_data_acquisition2,36295.0,-0.1708984375,0.164306640625,0.833068847656,0.499755859375,-16.1875,-196.9375,-85.6875,-8.68,1.32,12.43
1543854181895123958,487,0,/imu_data_acquisition2,36312.0,-0.158935546875,0.153564453125,0.832397460938,0.508178710938,-5.375,-200.4375,-90.8125,-9.5,-0.73,10.31
1543854181901402950,488,0,/imu_data_acquisition2,36319.0,-0.132995605469,0.133666992188,0.829040527344,0.526428222656,5.125,-201.8125,-99.25,-9.75,-1.28,8.7
1543854181906382083,489,0,/imu_data_acquisition2,36324.0,-0.132995605469,0.133666992188,0.829040527344,0.526428222656,5.125,-201.8125,-99.25,-2.29,-0.01,-0.01
1543854181918371915,490,0,/imu_data_acquisition2,36336.0,-0.119689941406,0.12451171875,0.826110839844,0.536376953125,19.1875,-189.6875,-121.0625,-10.29,-2.17,4.75
1543854181930704116,491,0,/imu_data_acquisition2,36346.0,-0.106872558594,0.116027832031,0.822204589844,0.546936035156,23.5,-177.375,-132.8125,-10.37,-2.21,3.91
1543854181939183950,492,0,/imu_data_acquisition2,36356.0,-0.0947265625,0.108276367188,0.817260742188,0.557983398438,27.5625,-163.9375,-144.0625,-10.5,-2.08,3.31
1543854181948395967,493,0,/imu_data_acquisition2,36366.0,-0.0834350585938,0.101257324219,0.811401367188,0.569580078125,31.625,-148.25,-154.0625,-11.14,-1.86,3.79
1543854181959775924,494,0,/imu_data_acquisition2,36375.0,-0.0730590820312,0.09521484375,0.804626464844,0.581481933594,31.625,-148.25,-154.0625,-11.63,-1.65,4.85
1543854181968748092,495,0,/imu_data_acquisition2,36386.0,-0.054443359375,0.0860595703125,0.789001464844,0.605895996094,42.6875,-121.25,-166.0625,-12.23,-1.55,6.18
1543854181979199886,496,0,/imu_data_acquisition2,36397.0,-0.054443359375,0.0860595703125,0.789001464844,0.605895996094,49.0625,-115.375,-168.25,-13.63,-1.58,9.16
1543854181992229938,497,0,/imu_data_acquisition2,36408.0,-0.0361328125,0.07958984375,0.771545410156,0.630126953125,55.0625,-115.6875,-168.25,-14.53,-1.99,10.23
1543854181997561931,498,0,/imu_data_acquisition2,36415.0,-6.103515625e-05,-6.103515625e-05,-6.103515625e-05,0.630126953125,55.0625,-115.6875,-168.25,-15.2,-2.71,10.23
1543854182008470058,499,0,/imu_data_acquisition2,36425.0,-0.0260620117188,0.07666015625,0.762512207031,0.641906738281,62.375,-121.3125,-167.3125,-15.7,-3.65,9.09
1543854182019712924,500,0,/imu_data_acquisition2,36436.0,-0.0149536132812,0.0740356445312,0.753112792969,0.653503417969,84.875,-128.8125,-167.5,-16.42,-5.73,5.25
1543854182027950048,501,0,/imu_data_acquisition2,36446.0,-0.00311279296875,0.0721435546875,0.743347167969,0.664978027344,95.375,-121.625,-169.875,-16.74,-6.79,3.36
1543854182039554119,502,0,/imu_data_acquisition2,36456.0,0.00885009765625,-6.103515625e-05,-6.103515625e-05,0.67626953125,100.9375,-106.625,-173.75,-16.95,-7.66,1.62
1543854182048350095,503,0,/imu_data_acquisition2,36464.0,0.0201416015625,0.0714721679688,0.722412109375,0.6875,100.9375,-106.625,-173.75,-16.98,-9.46,-0.71
1543854182057256937,504,0,/imu_data_acquisition2,36475.0,0.0300903320312,0.072998046875,0.711120605469,0.698608398438,100.375,-85.0625,-178.8125,-16.62,-10.32,-1.5
1543854182069334983,505,0,/imu_data_acquisition2,36486.0,0.0380859375,0.0755004882812,0.699401855469,0.709716796875,81.4375,-31.8125,-190.125,-16.09,-10.71,-1.95
1543854182080341100,506,0,/imu_data_acquisition2,36497.0,0.0436401367188,0.0790405273438,0.687255859375,0.720764160156,64.9375,-2.5625,-194.625,-15.25,-9.46,-0.07
1543854182089448928,507,0,/imu_data_acquisition2,36507.0,0.0465087890625,-6.103515625e-05,-6.103515625e-05,0.742431640625,44.25,21.875,-194.8125,-14.92,-7.97,1.69
1543854182098822116,508,0,/imu_data_acquisition2,36516.0,0.0465087890625,0.0879516601562,0.662536621094,0.742431640625,18.6875,39.125,-187.75,-14.85,-5.88,3.92
1543854182107439994,509,0,/imu_data_acquisition2,36524.0,0.0441284179688,-6.103515625e-05,-6.103515625e-05,0.75244140625,18.6875,39.125,-187.75,-14.85,-5.88,3.92
1543854182118544101,510,0,/imu_data_acquisition2,36536.0,0.0393676757812,0.09521484375,0.639953613281,0.761474609375,-45.875,47.875,-146.5,-14.01,0.75,9.02
1543854182129549980,511,0,/imu_data_acquisition2,36546.0,0.0326538085938,0.0963134765625,0.630981445312,0.769104003906,-79.5625,42.4375,-111.8125,-13.51,2.42,9.51
1543854182138991117,512,0,/imu_data_acquisition2,36556.0,0.0242919921875,0.0950927734375,0.624450683594,0.77490234375,-112.0,34.3125,-0.0625,-1.04,-0.01,-0.01
1543854182147890090,513,0,/imu_data_acquisition2,36565.0,0.0145874023438,0.0916137695312,0.620849609375,0.778442382812,-112.0,34.3125,-69.3125,-34.91,39.14,39.78
1543854182157633066,514,0,/imu_data_acquisition2,36574.0,-0.00164794921875,0.0790405273438,0.627746582031,0.7744140625,-249.0625,9.4375,78.0,-34.91,39.14,39.78
1543854182170106887,515,0,/imu_data_acquisition2,36587.0,0.00347900390625,0.0682983398438,0.647644042969,0.758850097656,248.125,-156.125,262.6875,36.92,-33.92,-33.48
1543854182180466890,516,0,/imu_data_acquisition2,36598.0,0.0294189453125,0.0717163085938,0.662658691406,0.744934082031,238.8125,109.8125,13.75,-15.12,40.08,-21.1
1543854182188831090,517,0,/imu_data_acquisition2,36606.0,0.0383911132812,-6.103515625e-05,-6.103515625e-05,0.74267578125,-203.6875,46.6875,-43.125,-5.48,-6.16,22.4
1543854182198251008,518,0,/imu_data_acquisition2,36615.0,0.0226440429688,0.0836181640625,0.661071777344,0.745300292969,-203.6875,46.6875,-43.125,-5.48,-6.16,22.4
1543854182207981109,519,0,/imu_data_acquisition2,36625.0,0.00604248046875,0.0651245117188,0.658874511719,0.749450683594,-290.0,-5.5625,-0.0625,-0.58,-36.48,32.95
1543854182218260049,520,0,/imu_data_acquisition2,36636.0,0.00213623046875,0.0592041015625,0.656494140625,0.751953125,-79.3125,-24.8125,-43.1875,-2.57,9.2,11.63
1543854182229341983,521,0,/imu_data_acquisition2,36646.0,0.00225830078125,0.0580444335938,0.656555175781,0.752014160156,-36.3125,14.125,-7.0,-3.39,7.81,7.34
1543854182239470005,522,0,/imu_data_acquisition2,36656.0,-0.0008544921875,0.0569458007812,0.656311035156,0.752380371094,-63.75,-2.875,-17.125,0.03,-0.01,-0.01
1543854182247744083,523,0,/imu_data_acquisition2,36665.0,-0.00482177734375,0.05322265625,0.655517578125,0.753295898438,-63.75,-2.875,-17.125,0.03,1.68,-0.01
1543854182258570909,524,0,/imu_data_acquisition2,36675.0,-0.00897216796875,0.048828125,0.654418945312,0.754455566406,-70.375,-7.625,-21.4375,-0.91,2.25,10.22
1543854182269299983,525,0,/imu_data_acquisition2,36686.0,-0.0121459960938,0.0440673828125,0.6533203125,0.755676269531,-52.5,-20.6875,-18.0625,1.03,-7.18,8.1
1543854182279710054,526,0,/imu_data_acquisition2,36697.0,-0.0144653320312,-6.103515625e-05,-6.103515625e-05,0.756713867188,-22.25,-7.5625,-7.1875,0.54,-2.2,9.07
1543854182291625976,527,0,/imu_data_acquisition2,36707.0,-0.0154418945312,0.0380859375,0.651977539062,0.757080078125,1.0625,0.5,1.5625,-0.66,-0.13,9.85
1543854182298011064,528,0,/imu_data_acquisition2,36715.0,-0.015380859375,0.0381469726562,0.652099609375,0.757019042969,1.0625,0.5,1.5625,-0.66,-0.13,9.85
1543854182308649063,529,0,/imu_data_acquisition2,36725.0,-0.01513671875,0.0388793945312,0.65234375,0.756774902344,7.4375,4.5,4.25,-0.96,0.39,10.04
1543854182318171024,530,0,/imu_data_acquisition2,36736.0,-0.0147094726562,0.0396728515625,0.652587890625,0.756530761719,9.8125,4.1875,4.875,-0.76,1.03,9.85
1543854182329615116,531,0,/imu_data_acquisition2,36746.0,-0.01416015625,0.04052734375,0.652954101562,0.756225585938,9.0,1.0,5.125,-1.05,0.71,9.99
1543854182339726924,532,0,/imu_data_acquisition2,36757.0,-0.013671875,0.0410766601562,0.653259277344,0.755920410156,6.5,0.25,3.9375,-1.31,0.77,9.99
1543854182346798896,533,0,/imu_data_acquisition2,36764.0,-0.01318359375,0.0414428710938,0.653442382812,0.755737304688,6.5,0.25,3.9375,-1.31,0.77,-0.01
1543854182357470035,534,0,/imu_data_acquisition2,36775.0,-0.0128784179688,0.0416870117188,0.653686523438,0.755493164062,4.5,-0.625,3.5,-0.77,1.37,9.99
1543854182370311021,535,0,/imu_data_acquisition2,36786.0,-0.0127563476562,0.0416870117188,0.65380859375,0.755432128906,-1.875,-2.625,0.5,-0.9,1.18,9.96
1543854182379451990,536,0,/imu_data_acquisition2,36797.0,-0.0126953125,0.0413818359375,0.65380859375,0.755432128906,-1.875,-2.625,0.5,-0.68,0.51,9.73
1543854182391904115,537,0,/imu_data_acquisition2,36809.0,-0.0128173828125,0.0404052734375,-6.103515625e-05,0.755554199219,-4.8125,-4.125,-1.375,-0.84,0.23,9.93
1543854182397850036,538,0,/imu_data_acquisition2,36815.0,-0.0128173828125,0.0404052734375,0.653686523438,0.755554199219,-4.8125,-4.125,-1.375,-0.84,0.23,9.93
1543854182407216072,539,0,/imu_data_acquisition2,36825.0,-0.012939453125,0.0399169921875,0.653686523438,0.755615234375,-4.5,-3.4375,-1.0625,-0.71,0.17,9.65
1543854182419320106,540,0,/imu_data_acquisition2,36836.0,-0.0130004882812,0.0396118164062,0.653686523438,0.755615234375,-2.6875,-2.3125,-0.5625,-0.64,0.32,9.94
1543854182429977893,541,0,/imu_data_acquisition2,36847.0,-0.012939453125,0.0394287109375,0.653686523438,0.755615234375,-1.3125,-1.625,-0.0625,-0.43,0.17,9.73
1543854182440042018,542,0,/imu_data_acquisition2,36857.0,-0.012939453125,0.0393676757812,0.653686523438,0.755615234375,-0.25,-0.875,0.5,-0.81,0.52,9.96
1543854182447468042,543,0,/imu_data_acquisition2,36864.0,-0.0128784179688,0.0394287109375,0.653747558594,0.755615234375,0.9375,0.125,0.875,-0.81,0.52,9.96
1543854182457417964,544,0,/imu_data_acquisition2,36875.0,-0.0128173828125,0.03955078125,0.65380859375,0.755493164062,1.375,0.875,1.25,-0.87,0.46,10.18
1543854182470105886,545,0,/imu_data_acquisition2,36887.0,-0.0127563476562,0.0397338867188,0.653869628906,0.755432128906,1.3125,1.125,1.3125,-0.77,0.64,9.75
1543854182481954097,546,0,/imu_data_acquisition2,36898.0,-0.0127563476562,0.0398559570312,0.653991699219,0.75537109375,1.125,1.0625,1.375,-0.89,0.74,10.14
1543854182491770029,547,0,/imu_data_acquisition2,36908.0,-0.0126342773438,0.0401000976562,0.654052734375,0.755249023438,0.4375,0.4375,1.25,-0.75,0.33,9.86
1543854182501211881,548,0,/imu_data_acquisition2,36916.0,-0.0126342773438,0.0401000976562,0.654113769531,0.755187988281,0.4375,0.4375,1.25,-0.75,0.33,9.86
1543854182509381055,549,0,/imu_data_acquisition2,36927.0,-0.0125732421875,0.0401000976562,0.654235839844,0.755126953125,0.125,0.25,1.0,-0.96,0.68,10.09
1543854182519606113,550,0,/imu_data_acquisition2,36937.0,-0.0125732421875,0.0402221679688,0.654296875,0.755065917969,-0.125,0.1875,1.0,-0.87,0.52,-0.01
1543854182530325889,551,0,/imu_data_acquisition2,36947.0,-0.0125122070312,0.040283203125,0.654357910156,0.755004882812,-0.0625,0.25,1.0625,-0.91,0.34,9.74
1543854182539722919,552,0,/imu_data_acquisition2,36957.0,-0.0125122070312,0.0403442382812,0.654418945312,0.755004882812,-0.125,0.0,0.8125,-0.54,0.56,9.95
1543854182548324108,553,0,/imu_data_acquisition2,36965.0,-0.012451171875,0.0403442382812,0.654479980469,0.754943847656,0.125,-0.1875,0.875,-0.54,0.56,9.95
1543854182560427904,554,0,/imu_data_acquisition2,36977.0,-0.0123901367188,0.0403442382812,0.654541015625,0.7548828125,0.5625,0.125,1.1875,-0.58,0.42,9.79
1543854182570189952,555,0,/imu_data_acquisition2,36987.0,-0.0122680664062,0.0404052734375,0.654602050781,0.754760742188,0.9375,0.4375,1.625,-0.98,0.42,9.9
1543854182582732915,556,0,/imu_data_acquisition2,36998.0,-0.01220703125,0.0404663085938,0.654724121094,0.754699707031,1.125,0.5,1.6875,-0.73,0.66,9.67
1543854182592297077,557,0,/imu_data_acquisition2,37009.0,-0.0120849609375,0.0406494140625,-6.103515625e-05,0.754577636719,1.4375,1.125,2.125,-0.9,0.49,10.06
1543854182600153923,558,0,/imu_data_acquisition2,37017.0,-0.0120239257812,0.0408325195312,0.654968261719,0.754455566406,1.4375,1.125,2.125,-0.9,0.49,10.06
1543854182606441974,559,0,/imu_data_acquisition2,37024.0,-0.0120239257812,0.0410766601562,0.655151367188,0.754333496094,1.4375,1.125,2.25,-0.92,0.46,10.02
1543854182617851972,560,0,/imu_data_acquisition2,37035.0,-0.0119018554688,0.041259765625,0.6552734375,0.754150390625,1.5,1.3125,2.25,-0.52,0.71,9.84
1543854182632148981,561,0,/imu_data_acquisition2,37048.0,-0.0118408203125,0.0414428710938,0.655395507812,0.754028320312,1.5,1.125,2.3125,-0.81,0.48,10.12
1543854182640144109,562,0,/imu_data_acquisition2,37058.0,-0.0117797851562,0.0416259765625,0.655578613281,0.75390625,1.5,1.125,2.375,-1.1,0.59,10.06
1543854182648130893,563,0,/imu_data_acquisition2,37066.0,-0.01171875,0.0418701171875,0.655700683594,0.753784179688,1.375,0.75,2.375,-1.1,0.59,10.06
1543854182658437967,564,0,/imu_data_acquisition2,37075.0,-0.0116577148438,0.0419921875,0.65576171875,0.753723144531,1.375,1.375,2.625,-1.0,0.59,9.93
1543854182668473958,565,0,/imu_data_acquisition2,37086.0,-0.0116577148438,0.0421752929688,0.655944824219,0.753540039062,1.375,1.1875,2.75,-0.82,0.52,10.18
1543854182681623935,566,0,/imu_data_acquisition2,37097.0,-0.0115966796875,0.0423583984375,0.656127929688,0.75341796875,1.5625,1.125,2.8125,-0.78,0.55,9.63
1543854182692398071,567,0,/imu_data_acquisition2,37109.0,-0.0115356445312,0.0426635742188,0.65625,0.753234863281,2.125,1.9375,3.0625,-0.83,0.68,9.78
1543854182699651956,568,0,/imu_data_acquisition2,37117.0,-0.011474609375,0.0430297851562,0.656494140625,0.753051757812,2.125,1.9375,3.0625,-0.83,0.68,9.78
1543854182706648111,569,0,/imu_data_acquisition2,37124.0,-0.0113525390625,0.0433349609375,0.656616210938,0.752868652344,2.0,1.75,2.8125,-0.82,0.68,9.8
1543854182718060970,570,0,/imu_data_acquisition2,37135.0,-0.0112915039062,0.0436401367188,0.656799316406,0.752746582031,1.75,1.75,2.5625,-0.9,0.62,10.06
1543854182731102943,571,0,/imu_data_acquisition2,37147.0,-0.01123046875,0.0439453125,0.656921386719,0.752563476562,1.625,2.1875,2.4375,-0.84,0.69,9.77
1543854182740350008,572,0,/imu_data_acquisition2,37158.0,-0.0111694335938,0.0442504882812,0.657104492188,0.75244140625,1.5,2.0,2.4375,-0.87,0.69,9.68
1543854182747865915,573,0,/imu_data_acquisition2,37165.0,-0.0111694335938,0.0445556640625,0.6572265625,0.752258300781,1.1875,2.125,2.25,-0.91,0.55,10.07
1543854182757441043,574,0,/imu_data_acquisition2,37174.0,-0.0111083984375,0.0447387695312,0.657348632812,0.752136230469,1.0,1.875,2.0625,-0.54,0.64,9.82
1543854182766855001,575,0,/imu_data_acquisition2,37184.0,-0.0111083984375,0.0449829101562,0.657470703125,0.752075195312,1.0,1.8125,1.875,-0.76,0.63,9.73
1543854182781657934,576,0,/imu_data_acquisition2,37198.0,-0.0111083984375,0.0452270507812,0.657592773438,0.751953125,1.0625,2.375,1.75,-0.7,0.52,9.81
1543854182793348073,577,0,/imu_data_acquisition2,37210.0,-0.0110473632812,0.04541015625,0.65771484375,0.751831054688,0.875,2.125,1.9375,-0.68,0.69,9.96
1543854182799537897,578,0,/imu_data_acquisition2,37217.0,-0.010986328125,0.0455932617188,0.657836914062,0.751708984375,0.875,2.125,1.9375,-0.68,0.69,9.96
1543854182807682037,579,0,/imu_data_acquisition2,37224.0,-0.010986328125,0.0458374023438,0.657958984375,0.751586914062,0.625,1.9375,2.125,-0.91,0.59,9.97
1543854182817538022,580,0,/imu_data_acquisition2,37235.0,-0.010986328125,0.0460205078125,0.658081054688,0.75146484375,0.6875,2.1875,2.0625,-0.75,0.67,9.87
1543854182830794095,581,0,/imu_data_acquisition2,37248.0,-0.010986328125,0.0462036132812,0.658203125,0.751342773438,0.375,2.1875,1.9375,-0.7,0.73,9.87
