%time,field.header.seq,field.header.stamp,field.header.frame_id,field.time_stamp,field.quat_x,field.quat_y,field.quat_z,field.quat_w,field.gyro_x,field.gyro_y,field.gyro_z,field.accel_x,field.accel_y,field.accel_z
1540942029169097900,1,0,/imu_data_acquisition2,24840.0,0.0294799804688,-0.13330078125,0.808288574219,0.572692871094,0.5625,-0.5,-1.25,1.66,-1.76,9.57
1540942029174217939,2,0,/imu_data_acquisition2,24850.0,0.029541015625,-0.13330078125,0.808288574219,0.57275390625,0.25,-1.125,-1.1875,1.92,-1.88,9.43
1540942029184478044,3,0,/imu_data_acquisition2,24860.0,0.0294799804688,-0.133239746094,0.808227539062,0.572875976562,1.0,-0.5625,-1.5625,1.68,-1.8,9.57
1540942029194019079,4,0,/imu_data_acquisition2,24870.0,-6.103515625e-05,-6.103515625e-05,-6.103515625e-05,0.572937011719,0.375,-0.5625,-1.125,1.69,-1.8,9.44
1540942029204859972,5,0,/imu_data_acquisition2,24880.0,0.0294189453125,-0.133117675781,0.80810546875,0.573059082031,0.5625,-0.375,-1.375,1.87,-1.79,9.37
1540942029224184036,7,0,/imu_data_acquisition2,24900.0,0.029296875,-0.133056640625,0.807983398438,0.573181152344,0.25,0.0,-1.125,1.63,-1.85,9.59
1540942029237358093,8,0,/imu_data_acquisition2,24912.0,0.0291748046875,-0.132995605469,0.807983398438,0.5732421875,0.5625,0.1875,-1.0625,1.64,-1.85,9.57
1540942029248147010,9,0,/imu_data_acquisition2,24922.0,0.0291137695312,-0.132995605469,0.807922363281,0.573364257812,0.0625,-0.25,-1.125,1.78,-1.77,9.48
1540942029259977102,10,0,/imu_data_acquisition2,24935.0,0.029052734375,-0.132934570312,0.807861328125,0.573425292969,0.375,0.4375,-1.125,1.7,-1.85,9.43
1540942029267632961,11,0,/imu_data_acquisition2,24942.0,0.0289306640625,-0.132873535156,0.807861328125,0.573486328125,0.3125,0.6875,-0.75,1.77,-1.79,9.36
1540942029276889085,12,0,/imu_data_acquisition2,24951.0,0.0288696289062,-0.132873535156,0.807800292969,0.573547363281,0.4375,0.4375,-1.0,1.85,-1.82,9.22
1540942029286227941,13,0,/imu_data_acquisition2,24961.0,0.0286865234375,-0.132751464844,0.807800292969,0.573608398438,0.375,0.9375,-0.0625,1.45,-1.76,9.35
1540942029297629117,14,0,/imu_data_acquisition2,24971.0,0.0285034179688,-0.00738525390625,-6.103515625e-05,0.57373046875,1.4375,2.375,-0.0625,1.59,-1.61,9.63
1540942029307163953,15,0,/imu_data_acquisition2,24981.0,0.0284423828125,-0.13232421875,0.807739257812,0.573852539062,0.0625,0.875,-1.125,1.75,-1.7,8.94
1540942029329524040,17,0,/imu_data_acquisition2,25001.0,0.0282592773438,-0.007080078125,-6.103515625e-05,0.574035644531,-0.4375,0.6875,-1.375,2.2,-1.82,9.07
1540942029337220907,18,0,/imu_data_acquisition2,25012.0,0.0281982421875,-0.132019042969,0.807556152344,0.574157714844,0.625,1.125,-1.375,1.81,-1.71,9.49
1540942029349132061,19,0,/imu_data_acquisition2,25021.0,0.028076171875,-0.132080078125,0.807556152344,0.574157714844,-1.3125,0.625,0.0625,2.06,-2.02,9.37
1540942029358715057,20,0,/imu_data_acquisition2,25031.0,0.0281372070312,-0.131896972656,0.807495117188,0.57421875,1.875,0.875,-0.8125,1.91,-1.82,9.53
1540942029368133068,21,0,/imu_data_acquisition2,25042.0,0.0281372070312,-0.00677490234375,-6.103515625e-05,0.57421875,0.8125,0.9375,0.125,2.18,-1.94,9.47
1540942029378437995,22,0,/imu_data_acquisition2,25051.0,0.028076171875,-0.131652832031,0.807556152344,0.57421875,0.9375,1.25,0.375,2.39,-1.74,9.26
1540942029384459018,23,0,/imu_data_acquisition2,25060.0,0.0280151367188,-0.131591796875,0.8076171875,0.574157714844,0.1875,0.9375,0.9375,2.18,-1.76,9.5
1540942029396826028,24,0,/imu_data_acquisition2,25071.0,0.0278930664062,-0.131530761719,0.8076171875,0.574157714844,0.3125,1.25,1.0,2.09,-1.85,9.35
1540942029407809019,25,0,/imu_data_acquisition2,25081.0,-6.103515625e-05,-6.103515625e-05,-6.103515625e-05,0.574096679688,0.1875,1.4375,0.8125,2.3,-1.69,9.49
1540942029415178060,26,0,/imu_data_acquisition2,25091.0,0.0280151367188,-0.1318359375,0.807678222656,0.574035644531,-1.875,0.25,0.75,2.4,-1.7,9.21
1540942029427102088,27,0,/imu_data_acquisition2,25101.0,0.0281372070312,-0.132019042969,0.8076171875,0.574035644531,-0.9375,0.4375,0.375,2.28,-1.83,9.52
1540942029435767889,28,0,/imu_data_acquisition2,25111.0,0.0282592773438,-0.132263183594,0.8076171875,0.574035644531,-1.1875,0.9375,0.8125,2.34,-1.8,9.05
1540942029446134090,29,0,/imu_data_acquisition2,25120.0,0.0282592773438,-0.00738525390625,-6.103515625e-05,0.573974609375,0.0,2.25,1.1875,2.36,-1.89,9.13
1540942029461599111,30,0,/imu_data_acquisition2,25135.0,0.0283813476562,-0.132629394531,0.807678222656,0.573791503906,-1.125,0.0625,2.0625,2.22,-1.66,9.17
1540942029469585895,31,0,/imu_data_acquisition2,25142.0,0.0284423828125,-0.132568359375,0.807739257812,0.57373046875,0.875,1.125,1.5,2.17,-1.83,9.72
1540942029476025104,32,0,/imu_data_acquisition2,25151.0,0.0286865234375,-0.132629394531,0.807800292969,0.573608398438,-0.0625,0.375,2.0,2.37,-1.43,9.27
1540942029487411022,33,0,/imu_data_acquisition2,25162.0,-6.103515625e-05,-6.103515625e-05,-6.103515625e-05,0.573547363281,3.3125,1.375,0.875,2.23,-1.77,9.46
1540942029496402025,34,0,/imu_data_acquisition2,25171.0,-6.103515625e-05,-6.103515625e-05,-6.103515625e-05,0.573425292969,-1.0625,1.0,2.1875,2.11,-1.86,9.48
1540942029506500959,35,0,/imu_data_acquisition2,25182.0,0.02880859375,-0.132446289062,0.808044433594,0.573364257812,0.5625,0.25,1.125,2.3,-1.63,9.4
1540942029517411947,36,0,/imu_data_acquisition2,25191.0,0.0287475585938,-0.132507324219,0.80810546875,0.5732421875,-0.75,-0.25,1.5625,2.26,-1.8,9.4
1540942029527882099,37,0,/imu_data_acquisition2,25201.0,0.0288696289062,-0.132690429688,0.80810546875,0.573120117188,-0.6875,0.0,1.5625,2.33,-1.7,9.35
1540942029537719011,38,0,/imu_data_acquisition2,25212.0,0.0289916992188,-0.1328125,0.808166503906,0.573059082031,-0.625,0.0625,1.5625,2.15,-1.69,9.38
1540942029549388885,39,0,/imu_data_acquisition2,25221.0,0.0289306640625,-0.132873535156,0.808227539062,0.572937011719,-0.9375,0.875,2.0625,2.11,-1.77,9.29
1540942029558532953,40,0,/imu_data_acquisition2,25231.0,0.0289306640625,-0.132995605469,0.808349609375,0.57275390625,-0.9375,0.5625,2.375,2.08,-1.78,9.47
1540942029567537069,41,0,/imu_data_acquisition2,25243.0,0.02880859375,-0.133117675781,0.808471679688,0.572570800781,-1.3125,1.0,2.625,2.28,-1.85,9.24
1540942029579292058,42,0,/imu_data_acquisition2,25253.0,0.0287475585938,-0.133178710938,0.808532714844,0.572448730469,-1.3125,1.5,2.625,2.19,-1.83,9.33
1540942029586874008,43,0,/imu_data_acquisition2,25262.0,0.0285034179688,-0.133239746094,0.808654785156,0.572265625,-1.75,1.9375,2.6875,1.91,-1.8,9.48
1540942029598221063,44,0,/imu_data_acquisition2,25273.0,0.0281982421875,-0.133239746094,0.808776855469,0.572143554688,-1.625,2.8125,2.625,2.1,-1.85,9.53
1540942029604520082,45,0,/imu_data_acquisition2,25280.0,-6.103515625e-05,-6.103515625e-05,-6.103515625e-05,0.572143554688,-2.0625,2.3125,2.375,1.82,-1.7,9.45
1540942029617269992,46,0,/imu_data_acquisition2,25291.0,0.0275268554688,-0.133239746094,0.808959960938,0.571899414062,-2.0625,3.6875,1.9375,1.83,-1.96,9.44
1540942029628715038,47,0,/imu_data_acquisition2,25302.0,-6.103515625e-05,-6.103515625e-05,-6.103515625e-05,0.571838378906,-2.625,3.6875,2.125,2.0,-1.63,9.26
1540942029634881019,48,0,/imu_data_acquisition2,25310.0,0.0267944335938,-0.133178710938,0.80908203125,0.57177734375,-1.75,3.625,1.5,2.05,-1.74,9.53
1540942029647231101,49,0,/imu_data_acquisition2,25322.0,0.0263671875,-0.133239746094,0.809143066406,0.571716308594,-2.9375,3.875,1.625,1.92,-1.71,9.52
1540942029659041881,50,0,/imu_data_acquisition2,25333.0,0.02587890625,-0.133178710938,0.809204101562,0.571655273438,-2.625,4.8125,1.3125,2.0,-1.88,9.3
1540942029665190935,51,0,/imu_data_acquisition2,25341.0,0.02587890625,-0.133178710938,0.809204101562,0.571655273438,-3.25,4.6875,1.3125,1.93,-1.83,9.54
1540942029677649974,52,0,/imu_data_acquisition2,25352.0,0.02490234375,-0.133178710938,0.809265136719,0.571594238281,-3.5625,4.4375,1.125,1.98,-1.87,9.56
1540942029688822031,53,0,/imu_data_acquisition2,25363.0,0.02490234375,-0.133178710938,0.809265136719,0.571594238281,-4.4375,4.3125,1.25,2.04,-1.86,9.38
1540942029694807052,54,0,/imu_data_acquisition2,25370.0,0.0244140625,-0.13330078125,0.809265136719,0.571594238281,-4.75,4.9375,0.8125,1.94,-1.78,9.41
1540942029710218906,55,0,/imu_data_acquisition2,25382.0,0.0238647460938,-0.133422851562,0.809265136719,0.571594238281,-5.75,5.5,0.8125,1.89,-1.89,9.4
1540942029718945026,56,0,/imu_data_acquisition2,25394.0,0.023193359375,-0.133544921875,0.809265136719,0.571594238281,-6.3125,5.375,0.875,1.77,-1.76,9.39
1540942029727705955,57,0,/imu_data_acquisition2,25401.0,0.0225219726562,-0.133728027344,0.809204101562,0.571655273438,-6.25,6.125,0.8125,1.91,-1.92,9.43
1540942029738254070,58,0,/imu_data_acquisition2,25412.0,0.0217895507812,-0.133850097656,0.809204101562,0.571655273438,-7.3125,-0.0625,-0.0625,1.8,-1.8,9.38
1540942029748747110,59,0,/imu_data_acquisition2,25422.0,0.02099609375,-0.134033203125,0.809204101562,0.571655273438,-7.375,7.3125,0.9375,1.68,-1.93,9.48
1540942029755206108,60,0,/imu_data_acquisition2,25430.0,0.0201416015625,-0.134216308594,0.809143066406,0.571716308594,-8.625,8.0,1.8125,1.77,-2.02,9.34
1540942029767498016,61,0,/imu_data_acquisition2,25443.0,0.0181274414062,-0.134643554688,0.809204101562,0.571594238281,-8.875,7.6875,2.25,1.91,-2.03,9.34
1540942029777240037,62,0,/imu_data_acquisition2,25451.0,0.0181274414062,-0.134643554688,0.809204101562,0.571594238281,-8.0,8.5,2.3125,1.78,-2.04,9.51
1540942029785859107,63,0,/imu_data_acquisition2,25461.0,0.0171508789062,-0.134826660156,0.809204101562,0.571594238281,-9.1875,9.0625,3.0,1.84,-1.98,9.41
1540942029800796985,64,0,/imu_data_acquisition2,25472.0,0.0160522460938,-0.135009765625,0.809265136719,0.571472167969,-9.625,9.375,3.25,1.67,-1.95,9.51
1540942029807020902,65,0,/imu_data_acquisition2,25482.0,0.014892578125,-0.13525390625,0.809326171875,0.571350097656,-10.5,9.8125,4.1875,1.72,-1.8,9.25
1540942029816498041,66,0,/imu_data_acquisition2,25491.0,0.013671875,-0.135498046875,0.809448242188,0.571228027344,-10.0625,11.0625,3.6875,1.6,-1.99,9.38
1540942029832446098,67,0,/imu_data_acquisition2,25503.0,0.010986328125,-0.135986328125,0.809631347656,0.570861816406,-12.9375,10.5625,5.25,1.65,-2.06,9.53
1540942029841033935,68,0,/imu_data_acquisition2,25515.0,0.00946044921875,-0.136413574219,0.809753417969,0.570556640625,-14.3125,10.9375,6.25,1.48,-1.93,-0.01
1540942029846761941,69,0,/imu_data_acquisition2,25521.0,0.00946044921875,-0.136413574219,0.809753417969,0.570556640625,-13.875,12.125,6.75,1.5,-2.06,9.45
1540942029860512971,70,0,/imu_data_acquisition2,25532.0,0.00787353515625,-0.136779785156,0.809936523438,0.570251464844,-15.75,12.0,8.5625,1.67,-2.13,9.36
1540942029867595911,71,0,/imu_data_acquisition2,25542.0,0.0062255859375,-0.137268066406,0.810180664062,0.56982421875,-15.625,12.375,9.3125,1.86,-2.05,9.2
1540942029876863002,72,0,/imu_data_acquisition2,25552.0,0.0045166015625,-0.137756347656,0.810485839844,0.5693359375,-15.5,14.4375,-0.0625,1.38,-2.16,9.58
1540942029887847900,73,0,/imu_data_acquisition2,25562.0,0.002685546875,-0.138122558594,0.810791015625,0.56884765625,-17.875,15.5,12.8125,1.7,-2.18,9.44
1540942029899967908,74,0,/imu_data_acquisition2,25575.0,-0.0015869140625,-0.0140380859375,-6.103515625e-05,0.567321777344,-18.0,17.0625,14.6875,1.65,-2.22,9.35
1540942029910109043,75,0,/imu_data_acquisition2,25584.0,-0.00390625,-0.139404296875,0.812194824219,0.566467285156,-18.4375,19.9375,15.875,1.87,-2.22,9.16
1540942029916107892,76,0,/imu_data_acquisition2,25591.0,-0.00390625,-0.139404296875,0.812194824219,0.566467285156,-19.375,23.6875,17.6875,1.74,-2.07,9.28
1540942029928499937,77,0,/imu_data_acquisition2,25603.0,-0.0064697265625,-0.1396484375,0.812805175781,0.565551757812,-19.6875,28.0,20.4375,1.84,-2.38,9.2
1540942029939982891,78,0,/imu_data_acquisition2,25611.0,-0.00933837890625,-0.139770507812,0.8134765625,0.564453125,-19.6875,28.0,20.4375,1.76,-2.21,9.38
1540942029946325063,79,0,/imu_data_acquisition2,25621.0,-0.0125732421875,-0.0147705078125,-6.103515625e-05,0.563293457031,-21.1875,32.625,23.1875,1.74,-2.16,9.36
1540942029958369970,80,0,/imu_data_acquisition2,25633.0,-0.0161743164062,-0.139404296875,0.815124511719,0.56201171875,-22.3125,45.0,27.1875,1.51,-2.62,9.65
1540942029969173908,81,0,/imu_data_acquisition2,25643.0,-0.0203857421875,-0.138854980469,0.816040039062,0.560668945312,-23.5,50.1875,28.4375,1.41,-2.83,9.36
1540942029976735115,82,0,/imu_data_acquisition2,25652.0,-0.0253295898438,-0.138061523438,0.817016601562,0.559204101562,-19.4375,55.875,27.4375,1.72,-2.11,9.46
1540942030001859903,83,0,/imu_data_acquisition2,25670.0,-0.0360107421875,-0.134765625,0.818969726562,0.556640625,-16.875,64.625,28.3125,1.65,-2.08,9.75
1540942030021316051,86,0,/imu_data_acquisition2,25692.0,-0.0488891601562,-0.130126953125,0.821166992188,0.553466796875,-25.0,93.8125,45.125,2.27,-0.63,10.33
1540942030028270959,87,0,/imu_data_acquisition2,25704.0,-0.0664672851562,-0.124145507812,0.824523925781,0.547973632812,-29.8125,105.3125,60.75,2.71,-0.35,10.47
1540942030037245035,88,0,/imu_data_acquisition2,25711.0,-0.0664672851562,-0.124145507812,0.824523925781,0.547973632812,-29.8125,105.3125,60.75,2.71,-0.35,10.47
1540942030046492099,89,0,/imu_data_acquisition2,25721.0,-0.0779418945312,-0.1220703125,0.827209472656,0.542846679688,-54.5625,116.125,85.875,0.36,-2.08,10.23
1540942030058315038,90,0,/imu_data_acquisition2,25732.0,-0.0911865234375,-0.120910644531,0.830627441406,0.535888671875,-94.125,123.875,136.1875,0.13,-2.93,9.89
1540942030069741010,91,0,/imu_data_acquisition2,25742.0,-0.105529785156,-0.120849609375,0.834716796875,0.526794433594,-111.8125,129.625,158.9375,-0.72,-3.86,9.11
1540942030080981016,92,0,/imu_data_acquisition2,25753.0,-0.0118408203125,-6.103515625e-05,-6.103515625e-05,0.515808105469,-108.8125,142.875,169.0625,-0.83,-3.76,9.4
1540942030089529991,93,0,/imu_data_acquisition2,25762.0,-0.137817382812,-0.121276855469,0.843933105469,0.504028320312,-108.8125,142.875,169.0625,-0.52,-3.36,9.92
1540942030096003055,94,0,/imu_data_acquisition2,25770.0,-0.154907226562,-0.119567871094,0.848266601562,0.492065429688,-98.375,156.625,172.9375,-0.52,-3.36,9.92
1540942030107856988,95,0,/imu_data_acquisition2,25783.0,-0.172912597656,-0.116943359375,0.852355957031,0.4794921875,-105.25,172.0625,187.1875,6.4,-6.69,11.75
1540942030117775917,96,0,/imu_data_acquisition2,25793.0,-0.191345214844,-0.00543212890625,-6.103515625e-05,0.466064453125,-102.6875,158.0625,184.0625,7.59,-8.27,13.86
1540942030126384973,97,0,/imu_data_acquisition2,25802.0,-0.208557128906,-0.112976074219,0.859619140625,0.452514648438,-81.0625,134.3125,159.0625,6.9,-9.61,16.02
1540942030143078088,98,0,/imu_data_acquisition2,25812.0,-0.222900390625,-0.110961914062,0.862426757812,0.440734863281,-58.5,75.5,108.0,8.07,-3.54,11.46
1540942030147001981,99,0,/imu_data_acquisition2,25821.0,-0.231567382812,-0.1103515625,0.864379882812,0.432434082031,-58.5,75.5,108.0,8.07,-3.54,11.46
1540942030157196044,100,0,/imu_data_acquisition2,25832.0,-0.229064941406,-0.111145019531,0.866516113281,0.429321289062,6.25,-74.3125,25.4375,5.57,-2.46,7.67
1540942030201031923,101,0,/imu_data_acquisition2,25843.0,-0.2236328125,-0.112854003906,0.868896484375,0.426879882812,-9.875,-88.0625,36.5,5.72,-2.51,6.54
1540942030257179975,102,0,/imu_data_acquisition2,25852.0,-0.217895507812,-0.116088867188,0.871765136719,0.423156738281,3.5625,-96.375,32.9375,5.1,-4.47,7.0
1540942030259574890,103,0,/imu_data_acquisition2,25860.0,-0.210998535156,-0.11865234375,0.874755859375,0.419860839844,3.5625,-96.375,32.9375,5.1,-4.47,7.0
1540942030261392116,104,0,/imu_data_acquisition2,25872.0,-0.203796386719,-0.121643066406,0.877746582031,0.416259765625,0.375,-101.5,34.1875,4.57,-6.87,7.9
1540942030263499021,105,0,/imu_data_acquisition2,25881.0,-0.19580078125,-0.124877929688,0.880554199219,0.413208007812,2.0,-110.5,26.3125,4.56,-7.06,7.44
1540942030265631914,106,0,/imu_data_acquisition2,25892.0,-0.18701171875,-0.129333496094,0.883056640625,0.410522460938,-5.3125,-123.0,17.0,3.87,-6.74,7.17
1540942030271434068,107,0,/imu_data_acquisition2,25902.0,-0.177429199219,-0.134582519531,0.885070800781,0.408752441406,-9.5,-133.25,2.0,3.83,-6.83,6.87
1540942030276115894,108,0,/imu_data_acquisition2,25910.0,-0.167358398438,-0.140502929688,0.886474609375,0.407897949219,-12.25,-138.1875,-13.0,3.83,-6.83,6.87
1540942030280477046,109,0,/imu_data_acquisition2,25920.0,-0.157104492188,-0.147583007812,0.886779785156,0.408813476562,-22.75,-140.75,-38.5625,3.1,-6.64,7.19
1540942030282361984,110,0,/imu_data_acquisition2,25932.0,-0.146850585938,-0.154602050781,0.886962890625,0.409606933594,-22.75,-140.75,-38.5625,2.87,-7.21,7.88
1540942030285856962,111,0,/imu_data_acquisition2,25942.0,-0.13671875,-0.162414550781,0.886596679688,0.410949707031,-31.125,-141.125,-48.625,2.85,-7.41,8.8
1540942030287962913,112,0,/imu_data_acquisition2,25953.0,-0.12646484375,-0.171142578125,0.885070800781,0.413879394531,-39.9375,-141.8125,-71.6875,2.69,-7.19,8.79
1540942030290107965,113,0,/imu_data_acquisition2,25960.0,-0.116149902344,-0.180358886719,0.882995605469,0.417419433594,-44.4375,-143.125,-81.875,2.69,-7.19,8.79
1540942030296070098,114,0,/imu_data_acquisition2,25970.0,-0.105773925781,-0.18994140625,0.88037109375,0.421447753906,-48.8125,-143.8125,-90.5,2.28,-7.05,9.16
1540942030306384086,115,0,/imu_data_acquisition2,25982.0,-0.0952758789062,-0.199768066406,0.877197265625,0.426025390625,-51.625,-144.1875,-99.0625,2.03,-7.69,9.45
1540942030318878889,116,0,/imu_data_acquisition2,25994.0,-0.0847778320312,-0.209350585938,0.87353515625,0.43115234375,-49.25,-136.5625,-117.5,0.78,-8.02,9.52
1540942030330549001,117,0,/imu_data_acquisition2,26004.0,-0.0744018554688,-0.015625,-6.103515625e-05,0.43701171875,-49.25,-136.5625,-117.5,1.72,-9.16,9.75
1540942030340065956,118,0,/imu_data_acquisition2,26015.0,-0.0637817382812,-0.228271484375,0.864379882812,0.443481445312,-49.6875,-137.3125,-127.625,1.22,-9.08,9.59
1540942030349484920,119,0,/imu_data_acquisition2,26022.0,-0.00653076171875,-6.103515625e-05,-6.103515625e-05,0.450744628906,-48.25,-130.8125,-138.125,1.22,-9.08,9.59
1540942030357095003,120,0,/imu_data_acquisition2,26032.0,-0.0431518554688,-0.246398925781,0.852661132812,0.458679199219,-48.8125,-13.6875,-0.0625,1.09,-9.23,9.46
1540942030368043899,121,0,/imu_data_acquisition2,26043.0,-0.0332641601562,-0.25537109375,0.845886230469,0.467102050781,-4.5625,-0.0625,-0.0625,0.59,-9.09,9.41
1540942030380217075,122,0,/imu_data_acquisition2,26053.0,-0.0238647460938,-0.264099121094,0.838500976562,0.47607421875,-54.3125,-112.8125,-162.5625,0.63,-0.01,-0.01
1540942030385685920,123,0,/imu_data_acquisition2,26061.0,-0.014892578125,-0.272521972656,0.830505371094,0.485534667969,-55.4375,-105.0,-169.125,0.63,-8.84,10.01
1540942030396831989,124,0,/imu_data_acquisition2,26072.0,-0.00653076171875,-0.281005859375,0.822082519531,0.495178222656,-60.8125,-98.1875,-172.125,-0.11,-8.49,10.62
1540942030406438112,125,0,/imu_data_acquisition2,26082.0,0.00128173828125,-0.289245605469,0.813232421875,0.505004882812,-63.0,-91.0,-174.1875,-0.3,-7.55,10.25
1540942030418905973,126,0,/imu_data_acquisition2,26093.0,0.00872802734375,-0.296936035156,0.80419921875,0.514831542969,-53.3125,-77.5625,-172.875,-0.65,-5.38,10.74
1540942030429858922,127,0,/imu_data_acquisition2,26103.0,0.0159912109375,-0.00689697265625,-6.103515625e-05,0.524597167969,-53.3125,-77.5625,-172.875,-1.08,-3.22,9.91
1540942030436009883,128,0,/imu_data_acquisition2,26111.0,0.0226440429688,-0.0137329101562,-6.103515625e-05,0.533447265625,-56.5625,-74.875,-160.8125,-1.08,-3.22,9.91
1540942030446054935,129,0,/imu_data_acquisition2,26121.0,0.0283813476562,-0.317260742188,0.778198242188,0.541198730469,-58.0625,-68.6875,-142.6875,-1.72,-3.41,10.23
1540942030457222938,130,0,/imu_data_acquisition2,26132.0,0.0337524414062,-0.322937011719,0.770935058594,0.547912597656,-47.1875,-62.875,-126.6875,-1.54,-1.82,9.91
1540942030469912052,131,0,/imu_data_acquisition2,26145.0,0.0381469726562,-0.328125,0.764831542969,0.553100585938,-37.6875,-53.375,-78.1875,-1.71,-1.67,10.7
1540942030478712081,132,0,/imu_data_acquisition2,26154.0,0.0419921875,-0.332824707031,0.759948730469,0.556762695312,-37.6875,-53.375,-78.1875,-2.07,-2.39,11.11
1540942030487195014,133,0,/imu_data_acquisition2,26160.0,0.0455932617188,-0.336975097656,0.756225585938,0.559020996094,-29.1875,-4.9375,-0.0625,-2.07,-2.39,11.11
1540942030496356010,134,0,/imu_data_acquisition2,26171.0,0.0494995117188,-0.340454101562,0.753662109375,0.559997558594,-16.0625,-55.25,-39.1875,-2.1,-1.98,11.15
1540942030508333921,135,0,/imu_data_acquisition2,26182.0,0.0530395507812,-0.0155639648438,-6.103515625e-05,0.559509277344,-10.75,-55.6875,-17.0625,-1.83,-2.24,10.8
1540942030519166946,136,0,/imu_data_acquisition2,26193.0,-6.103515625e-05,-6.103515625e-05,-6.103515625e-05,0.557739257812,-3.4375,-60.3125,1.125,-2.44,-2.32,11.35
1540942030528634071,137,0,/imu_data_acquisition2,26204.0,0.0608520507812,-0.350280761719,0.75244140625,0.554504394531,0.1875,-73.625,16.6875,-3.83,-2.56,9.32
1540942030538009881,138,0,/imu_data_acquisition2,26211.0,0.0656127929688,-0.354248046875,0.753479003906,0.549987792969,3.5625,-86.125,29.8125,-3.83,-2.56,9.32
1540942030544754028,139,0,/imu_data_acquisition2,26220.0,0.0706176757812,-0.3583984375,0.755065917969,0.544494628906,6.5625,-93.4375,42.0625,-3.97,-2.71,7.87
1540942030559223890,140,0,/imu_data_acquisition2,26234.0,0.0755004882812,-0.362426757812,0.757080078125,0.538330078125,9.375,-93.875,51.125,-4.53,-4.23,6.35
1540942030569772958,141,0,/imu_data_acquisition2,26244.0,0.0802612304688,-0.36572265625,0.759460449219,0.531982421875,16.6875,-89.0625,54.1875,-4.1,-4.59,4.73
1540942030580975055,142,0,/imu_data_acquisition2,26254.0,0.0845947265625,-0.368347167969,0.762084960938,0.525756835938,21.0,-79.9375,56.1875,-3.76,-4.82,4.31
1540942030590428113,143,0,/imu_data_acquisition2,26261.0,0.0880126953125,-0.370178222656,0.764892578125,0.519775390625,22.5625,-65.1875,58.1875,-1.2,-0.01,-0.01
1540942030599714994,144,0,/imu_data_acquisition2,26271.0,0.0902709960938,-0.371276855469,0.767822265625,0.514282226562,22.75,-48.25,58.9375,-3.62,-5.15,4.34
1540942030604831933,145,0,/imu_data_acquisition2,26280.0,0.0914916992188,-0.371765136719,0.770690917969,0.509338378906,20.8125,-32.8125,58.0625,-2.86,-5.82,4.33
1540942030619740009,146,0,/imu_data_acquisition2,26294.0,0.0916137695312,-0.0123901367188,-6.103515625e-05,0.504943847656,17.875,-17.4375,57.0,-2.29,-6.48,4.39
1540942030629630088,147,0,/imu_data_acquisition2,26304.0,0.0908203125,-0.371276855469,0.7763671875,0.501159667969,16.125,-3.1875,54.0,-1.72,-6.68,4.36
1540942030634862899,148,0,/imu_data_acquisition2,26310.0,-6.103515625e-05,-6.103515625e-05,-6.103515625e-05,0.498107910156,14.25,10.875,49.8125,-1.72,-6.68,4.36
1540942030649509906,149,0,/imu_data_acquisition2,26321.0,-6.103515625e-05,-6.103515625e-05,-6.103515625e-05,0.495849609375,12.125,-0.0625,-0.0625,-1.42,-6.65,4.5
1540942030658184051,150,0,/imu_data_acquisition2,26331.0,0.0831909179688,-0.366943359375,0.78369140625,0.494201660156,8.25,37.875,41.0625,-1.17,-6.7,4.65
1540942030669328927,151,0,/imu_data_acquisition2,26344.0,0.0787963867188,-0.00555419921875,-6.103515625e-05,0.493286132812,2.6875,50.1875,37.25,-0.53,-11.12,3.45
1540942030680495977,152,0,/imu_data_acquisition2,26354.0,0.0733642578125,-0.362487792969,0.787231445312,0.493408203125,-2.75,66.625,-0.0625,0.12,-7.19,4.97
1540942030685211896,153,0,/imu_data_acquisition2,26360.0,0.0685424804688,-0.357177734375,0.788452148438,0.496032714844,24.375,88.0,-1.125,0.12,-7.19,4.97
1540942030694904088,154,0,/imu_data_acquisition2,26371.0,0.0626831054688,-0.352844238281,0.788391113281,0.500061035156,2.4375,97.5,-17.0625,2.29,-11.92,3.28
1540942030705832958,155,0,/imu_data_acquisition2,26381.0,0.0597534179688,-0.340148925781,0.7880859375,0.509521484375,92.875,141.1875,-86.9375,7.14,2.83,-0.01
1540942030719537973,156,0,/imu_data_acquisition2,26394.0,0.0541381835938,-0.332153320312,0.786499023438,0.517883300781,28.5,133.625,-70.9375,6.15,-4.57,5.72
1540942030729373931,157,0,/imu_data_acquisition2,26404.0,0.04736328125,-0.322570800781,0.785034179688,0.526794433594,36.25,156.1875,-71.1875,4.23,-6.23,-0.12
1540942030736171007,158,0,/imu_data_acquisition2,26411.0,0.0394287109375,-0.308654785156,0.784606933594,0.536315917969,72.75,196.5625,-68.75,0.61,4.39,4.34
1540942030749059915,159,0,/imu_data_acquisition2,26421.0,0.0281982421875,-0.29443359375,0.785095214844,0.544189453125,59.0625,223.875,-35.8125,1.23,1.88,6.89
1540942030754508972,160,0,/imu_data_acquisition2,26430.0,0.0173950195312,-0.276733398438,0.787048339844,0.551086425781,99.4375,238.6875,-19.625,3.17,2.6,9.85
1540942030768556118,161,0,/imu_data_acquisition2,26443.0,0.0093994140625,-0.00537109375,-6.103515625e-05,0.557861328125,154.0,-0.0625,-0.0625,6.47,-16.86,28.59
1540942030781846046,162,0,/imu_data_acquisition2,26454.0,0.0147705078125,-0.227416992188,0.790771484375,0.568115234375,299.1875,165.6875,-107.9375,-5.9,3.97,30.08
1540942030785496950,163,0,/imu_data_acquisition2,26461.0,0.025146484375,-0.210754394531,0.792846679688,0.571228027344,230.5,24.1875,-46.0625,-5.62,-5.25,18.29
1540942030801831007,164,0,/imu_data_acquisition2,26471.0,0.0384521484375,-0.1943359375,0.794067382812,0.574645996094,246.1875,-5.125,-61.625,11.49,6.68,12.46
1540942030806796073,165,0,/imu_data_acquisition2,26481.0,0.0506591796875,-0.169372558594,0.795043945312,0.580200195312,317.5,68.125,-85.375,7.1,23.77,35.55
1540942030818286895,166,0,/imu_data_acquisition2,26494.0,0.054931640625,-0.159362792969,0.796325683594,0.580932617188,125.625,31.0625,-12.5,0.54,22.62,11.4
1540942030832736015,167,0,/imu_data_acquisition2,26504.0,0.0458374023438,-0.165588378906,0.798156738281,0.577392578125,-114.9375,37.1875,67.0,5.52,-10.85,-2.15
1540942030836065053,168,0,/imu_data_acquisition2,26511.0,0.0416259765625,-0.162048339844,0.799987792969,0.576232910156,8.1875,62.8125,29.75,0.14,-1.76,14.33
1540942030845402002,169,0,/imu_data_acquisition2,26521.0,0.0425415039062,-0.154663085938,0.801086425781,0.57666015625,78.4375,42.375,-1.5625,2.9,8.14,10.95
1540942030856616020,170,0,/imu_data_acquisition2,26532.0,0.0392456054688,-0.155212402344,0.802551269531,0.57470703125,-23.8125,25.0625,34.8125,3.88,-4.49,8.2
1540942030869925975,171,0,/imu_data_acquisition2,26543.0,0.0374755859375,-0.151672363281,0.803466796875,0.574523925781,23.4375,-0.0625,-0.0625,1.92,2.26,10.58
1540942030876689910,172,0,/imu_data_acquisition2,26552.0,0.0355834960938,-0.14892578125,0.804077148438,0.574462890625,14.125,37.1875,7.5,2.31,-0.01,-0.01
1540942030885715961,173,0,/imu_data_acquisition2,26561.0,0.033203125,-0.147888183594,0.8046875,0.574035644531,-4.9375,29.0,11.25,3.04,-3.8,8.84
1540942030895500898,174,0,/imu_data_acquisition2,26571.0,0.031494140625,-0.145446777344,0.804931640625,0.574401855469,11.6875,33.25,0.875,2.66,-1.33,9.43
1540942030904722929,175,0,/imu_data_acquisition2,26580.0,0.0294189453125,-0.143859863281,0.805297851562,0.574401855469,1.8125,31.0,5.5,2.94,-2.34,9.02
1540942030919173002,176,0,/imu_data_acquisition2,26594.0,0.0276489257812,-0.141845703125,0.805603027344,0.574584960938,7.4375,31.0625,2.375,2.24,-1.47,9.4
1540942030930434942,177,0,/imu_data_acquisition2,26605.0,0.0257568359375,-0.140258789062,0.805786132812,0.574768066406,2.625,28.6875,1.8125,2.24,-1.51,9.5
1540942030938750982,178,0,/imu_data_acquisition2,26614.0,0.0241088867188,-0.138916015625,0.805847167969,0.575073242188,1.375,-0.0625,-0.0625,1.96,-1.83,9.89
1540942030946527004,179,0,/imu_data_acquisition2,26622.0,0.0228271484375,-0.137878417969,0.805786132812,0.575439453125,1.25,20.0,-2.0,2.21,-1.77,9.61
1540942030956125974,180,0,/imu_data_acquisition2,26630.0,0.0216674804688,-0.137145996094,0.805847167969,0.575622558594,-0.625,16.4375,-0.3125,2.2,-2.24,9.62
1540942030969048023,181,0,/imu_data_acquisition2,26643.0,0.0208129882812,-0.136291503906,0.805847167969,0.575866699219,1.875,14.375,-1.1875,2.38,-1.9,9.4
1540942030978168964,182,0,/imu_data_acquisition2,26652.0,0.0199584960938,-0.135681152344,0.805847167969,0.576049804688,-0.5,12.5625,0.0,2.15,-2.33,9.32
1540942030985707998,183,0,/imu_data_acquisition2,26661.0,0.0192260742188,-0.134887695312,0.805908203125,0.576171875,2.75,12.375,0.0,1.93,-2.11,9.69
1540942030997687101,184,0,/imu_data_acquisition2,26672.0,0.0186767578125,-0.134216308594,0.805969238281,0.576232910156,2.4375,10.125,1.0,2.11,-2.12,9.54
1540942031005480051,185,0,/imu_data_acquisition2,26680.0,0.0181884765625,-0.133544921875,0.806091308594,0.576232910156,3.25,9.1875,1.0625,2.33,-2.02,9.46
1540942031021296024,186,0,/imu_data_acquisition2,26696.0,0.01806640625,-0.133178710938,0.80615234375,0.576232910156,3.6875,7.875,0.9375,2.22,-1.92,9.29
1540942031030530929,187,0,/imu_data_acquisition2,26706.0,0.0179443359375,-0.132873535156,0.806213378906,0.576232910156,3.3125,7.5625,1.3125,2.05,-1.8,9.42
1540942031035177946,188,0,/imu_data_acquisition2,26711.0,0.0177612304688,-0.132263183594,0.806213378906,0.576354980469,4.8125,8.5,0.5625,2.05,-1.8,9.42
1540942031048085927,189,0,/imu_data_acquisition2,26722.0,0.0175170898438,-0.1318359375,0.806335449219,0.576354980469,3.375,8.375,1.1875,2.17,-2.08,9.53
1540942031059122085,190,0,/imu_data_acquisition2,26731.0,0.0172729492188,-0.131225585938,0.806335449219,0.576416015625,4.6875,8.6875,0.5,2.03,-1.85,9.3
1540942031069418907,191,0,/imu_data_acquisition2,26743.0,0.01708984375,-0.0057373046875,-6.103515625e-05,0.576477050781,3.8125,7.25,0.5625,1.98,-1.96,9.18
1540942031083138942,192,0,/imu_data_acquisition2,26755.0,0.016845703125,-0.130187988281,0.806457519531,0.576538085938,4.0625,6.625,0.5,1.74,-1.94,9.67
1540942031089323997,193,0,/imu_data_acquisition2,26763.0,0.0166625976562,-0.129638671875,0.806518554688,0.576599121094,3.8125,5.25,0.5625,1.84,-1.85,9.52
1540942031098613023,194,0,/imu_data_acquisition2,26770.0,0.0166015625,-0.00421142578125,-6.103515625e-05,0.57666015625,3.5,4.0625,0.5625,1.98,-1.82,9.72
1540942031108251094,195,0,/imu_data_acquisition2,26781.0,0.0164794921875,-6.103515625e-05,-6.103515625e-05,0.576721191406,2.875,3.25,0.5,1.87,-1.78,9.38
1540942031117043972,196,0,/imu_data_acquisition2,26791.0,0.0164184570312,-0.128540039062,0.806579589844,0.576721191406,2.375,3.0625,0.5625,1.71,-1.78,9.55
1540942031125125885,197,0,/imu_data_acquisition2,26801.0,0.016357421875,-0.128295898438,0.806640625,0.576721191406,1.625,2.25,0.125,1.87,-1.72,9.49
1540942031139545917,198,0,/imu_data_acquisition2,26813.0,0.0164184570312,-0.128234863281,0.806640625,0.576782226562,0.6875,1.4375,-0.1875,2.03,-1.81,9.54
1540942031152173995,199,0,/imu_data_acquisition2,26826.0,0.016357421875,-0.128173828125,0.806640625,0.576782226562,0.25,0.9375,-0.1875,1.72,-1.67,9.46
1540942031155795097,200,0,/imu_data_acquisition2,26830.0,0.016357421875,-6.103515625e-05,-6.103515625e-05,0.576782226562,-0.5625,0.875,-0.0625,1.87,-1.89,9.51
1540942031168642044,201,0,/imu_data_acquisition2,26843.0,0.0164184570312,-0.128173828125,0.806579589844,0.576843261719,-0.5,0.5625,-0.625,1.9,-1.74,9.28
1540942031222152948,202,0,/imu_data_acquisition2,26851.0,0.0164184570312,-0.128173828125,0.806518554688,0.576904296875,-0.4375,0.625,-0.625,1.71,-1.84,9.46
1540942031230556011,203,0,/imu_data_acquisition2,26860.0,0.016357421875,-0.128173828125,0.806518554688,0.576965332031,-0.875,0.625,-0.6875,1.65,-1.85,9.52
1540942031234399080,204,0,/imu_data_acquisition2,26871.0,0.0162353515625,-0.128173828125,0.806457519531,0.577026367188,-0.875,0.8125,-1.0,1.68,-1.81,9.56
1540942031238672971,205,0,/imu_data_acquisition2,26881.0,0.0162353515625,-0.128295898438,0.806396484375,0.577087402344,-1.375,0.0625,-1.0625,1.91,-1.84,9.52
1540942031240257024,206,0,/imu_data_acquisition2,26890.0,0.0161743164062,-0.128356933594,0.806274414062,0.577209472656,-1.125,0.3125,-1.5625,1.66,-1.77,9.37
1540942031241971969,207,0,/imu_data_acquisition2,26901.0,0.01611328125,-0.128479003906,0.806213378906,0.577331542969,-1.375,0.375,-1.5,1.55,-1.85,9.49
1540942031244277954,208,0,/imu_data_acquisition2,26912.0,0.0160522460938,-6.103515625e-05,-6.103515625e-05,0.577392578125,-1.375,0.25,-1.25,1.47,-1.89,9.45
1540942031250516891,209,0,/imu_data_acquisition2,26920.0,0.0159912109375,-0.128601074219,0.806030273438,0.577514648438,-1.3125,0.5,-1.125,1.5,-1.88,9.8
1540942031256017923,210,0,/imu_data_acquisition2,26931.0,0.0159301757812,-0.128723144531,0.805969238281,0.577575683594,-1.3125,-0.3125,-1.25,1.36,-1.89,9.75
1540942031268366098,211,0,/imu_data_acquisition2,26942.0,0.0159301757812,-0.128723144531,0.805908203125,0.57763671875,-0.5625,0.1875,-1.0,1.8,-1.84,9.2
1540942031281754970,212,0,/imu_data_acquisition2,26956.0,0.0159301757812,-6.103515625e-05,-6.103515625e-05,0.57763671875,-0.4375,-0.375,-0.4375,1.53,-1.95,-0.01
1540942031293204069,213,0,/imu_data_acquisition2,26963.0,0.0159912109375,-0.128723144531,0.805908203125,0.57763671875,-0.375,-0.75,-0.3125,1.91,-1.92,9.41
1540942031296410083,214,0,/imu_data_acquisition2,26971.0,0.0160522460938,-0.128784179688,0.805908203125,0.57763671875,0.375,-0.625,-0.1875,1.57,-1.93,9.68
1540942031305510044,215,0,/imu_data_acquisition2,26981.0,0.0160522460938,-0.128845214844,0.805908203125,0.57763671875,0.25,-0.75,0.0625,1.78,-1.89,9.39
1540942031316920995,216,0,/imu_data_acquisition2,26991.0,0.01611328125,-0.12890625,0.805908203125,0.577575683594,0.5625,-1.0,0.125,1.77,-1.92,9.54
1540942031326492071,217,0,/imu_data_acquisition2,27001.0,0.0161743164062,-0.128784179688,0.805908203125,0.577575683594,1.1875,-0.5625,0.0625,1.61,-1.9,9.84
1540942031337495088,218,0,/imu_data_acquisition2,27012.0,0.0162963867188,-0.128845214844,0.805908203125,0.577575683594,0.625,-1.375,0.4375,1.94,-1.89,9.17
1540942031348094940,219,0,/imu_data_acquisition2,27022.0,0.0164794921875,-0.128784179688,0.805969238281,0.577575683594,1.3125,-1.0,0.3125,1.5,-1.78,9.64
1540942031356152057,220,0,/imu_data_acquisition2,27030.0,0.0165405273438,-0.128784179688,0.805969238281,0.577575683594,0.6875,-1.0,0.5,1.62,-1.81,9.41
1540942031367609977,221,0,/imu_data_acquisition2,27042.0,0.0166625976562,-0.128784179688,0.805969238281,0.577514648438,0.9375,-1.25,0.1875,1.61,-1.78,9.46
1540942031377244949,222,0,/imu_data_acquisition2,27050.0,0.0167846679688,-0.128784179688,0.805969238281,0.577514648438,0.6875,-0.0625,-0.0625,1.66,-1.81,9.5
1540942031385711908,223,0,/imu_data_acquisition2,27060.0,0.016845703125,-0.128845214844,0.805969238281,0.577514648438,0.375,-1.5,-0.375,1.57,-1.75,9.51
1540942031398735046,224,0,/imu_data_acquisition2,27071.0,0.0169677734375,-0.128845214844,0.805969238281,0.577575683594,0.375,-1.125,-0.6875,1.74,-1.79,9.59
1540942031405641078,225,0,/imu_data_acquisition2,27080.0,0.0170288085938,-0.12890625,0.805908203125,0.577575683594,-0.25,-1.3125,-0.875,1.67,-1.81,9.55
1540942031417283058,226,0,/imu_data_acquisition2,27091.0,0.0171508789062,-0.128967285156,0.805847167969,0.57763671875,-0.4375,-1.375,-0.9375,1.72,-1.85,9.41
1540942031427566051,227,0,/imu_data_acquisition2,27102.0,0.0172729492188,-0.129028320312,0.805786132812,0.577697753906,-0.375,-1.5,-1.0,1.82,-1.83,9.32
1540942031434622049,228,0,/imu_data_acquisition2,27110.0,0.0173950195312,-0.129150390625,0.805786132812,0.577758789062,-0.3125,-1.625,-0.8125,1.6,-1.89,9.61
1540942031447098016,229,0,/imu_data_acquisition2,27121.0,0.0175170898438,-0.129211425781,0.805725097656,0.577697753906,-0.4375,-1.625,-0.5625,1.72,-1.91,9.44
1540942031457396984,230,0,/imu_data_acquisition2,27132.0,0.017578125,-0.129272460938,0.805725097656,0.577697753906,0.125,-1.375,-0.5625,1.74,-1.88,9.47
1540942031465089082,231,0,/imu_data_acquisition2,27140.0,0.0177001953125,-0.12939453125,0.805725097656,0.577697753906,0.25,-2.0,-0.5625,1.53,-1.81,9.36
1540942031476538896,232,0,/imu_data_acquisition2,27151.0,0.017822265625,-0.129455566406,0.805725097656,0.577697753906,0.4375,-1.875,-0.625,1.71,-1.84,9.56
1540942031487015008,233,0,/imu_data_acquisition2,27161.0,0.0180053710938,-0.129577636719,0.8056640625,0.577697753906,0.5625,-2.625,-0.75,1.71,-1.86,9.53
1540942031494508028,234,0,/imu_data_acquisition2,27170.0,0.0182495117188,-0.129699707031,0.805603027344,0.577758789062,0.5,-2.9375,-0.9375,1.71,-1.8,9.52
1540942031507796049,235,0,/imu_data_acquisition2,27182.0,0.0184326171875,-0.1298828125,0.805603027344,0.577758789062,0.375,-3.125,-0.6875,1.82,-1.91,9.53
1540942031516623973,236,0,/imu_data_acquisition2,27191.0,0.0187377929688,-0.130004882812,0.805541992188,0.577758789062,0.625,-3.4375,-0.6875,2.05,-1.81,9.23
1540942031524853944,237,0,/imu_data_acquisition2,27201.0,0.0189819335938,-6.103515625e-05,-6.103515625e-05,0.577819824219,0.75,-2.875,-0.6875,1.86,-1.84,9.52
1540942031537941932,238,0,/imu_data_acquisition2,27212.0,0.019287109375,-0.130310058594,0.805480957031,0.577819824219,0.25,-3.4375,-0.75,1.96,-1.75,9.37
1540942031546715974,239,0,/imu_data_acquisition2,27221.0,0.01953125,-0.130493164062,0.805419921875,0.577819824219,0.25,-2.75,-1.0,2.08,-1.77,9.39
1540942031556194067,240,0,/imu_data_acquisition2,27231.0,0.0198364257812,-0.130615234375,0.805358886719,0.577880859375,-0.375,-2.625,-0.9375,1.95,-1.71,9.31
1540942031570998907,241,0,/imu_data_acquisition2,27241.0,0.0200805664062,-0.130798339844,0.805297851562,0.577941894531,-0.5,-2.0625,-1.0625,2.07,-1.79,9.24
1540942031578160047,242,0,/imu_data_acquisition2,27252.0,0.0202026367188,-0.130981445312,0.80517578125,0.578002929688,-1.125,-1.5625,-1.125,2.07,-1.86,9.44
1540942031587300062,243,0,/imu_data_acquisition2,27263.0,0.0203247070312,-0.131164550781,0.805114746094,0.578125,-0.8125,-0.875,-1.4375,2.06,-1.88,9.25
1540942031603319883,244,0,/imu_data_acquisition2,27274.0,0.0203857421875,-0.131286621094,0.805053710938,0.578186035156,-0.875,-0.125,-1.0,2.02,-1.83,9.55
1540942031607016086,245,0,/imu_data_acquisition2,27281.0,0.0203247070312,-0.131408691406,0.804992675781,0.578247070312,-1.5,0.0625,-0.625,1.86,-1.88,9.48
1540942031616209983,246,0,/imu_data_acquisition2,27291.0,0.020263671875,-0.131408691406,0.804931640625,0.578308105469,-1.125,0.6875,-0.8125,1.8,-1.82,9.46
1540942031628051042,247,0,/imu_data_acquisition2,27301.0,0.0202026367188,-0.131469726562,0.804931640625,0.578308105469,-0.875,0.625,-0.5625,1.92,-1.97,9.38
1540942031639818906,248,0,/imu_data_acquisition2,27314.0,0.0201416015625,-0.131591796875,0.804870605469,0.578308105469,-1.0625,0.1875,-0.25,2.07,-1.85,9.29
1540942031647336959,249,0,/imu_data_acquisition2,27322.0,0.0200805664062,-0.131530761719,0.804870605469,0.578308105469,0.0,0.875,-0.1875,1.4,-1.84,9.63
1540942031656873941,250,0,/imu_data_acquisition2,27330.0,0.0200805664062,-0.131591796875,0.804870605469,0.578308105469,-0.6875,-0.125,0.3125,1.77,-1.85,9.52
1540942031671695947,251,0,/imu_data_acquisition2,27341.0,0.0200805664062,-0.131591796875,0.804870605469,0.578308105469,0.1875,-0.25,0.125,2.03,-1.87,9.14
1540942031677617073,252,0,/imu_data_acquisition2,27352.0,0.0200805664062,-0.006591796875,-6.103515625e-05,0.578308105469,0.5,-0.3125,0.1875,1.65,-1.82,9.62
1540942031687932968,253,0,/imu_data_acquisition2,27362.0,0.0201416015625,-0.131652832031,0.804870605469,0.578308105469,0.1875,-0.75,0.5,1.9,-1.85,9.41
1540942031696669101,254,0,/imu_data_acquisition2,27371.0,0.0202026367188,-0.00665283203125,-6.103515625e-05,0.578308105469,0.625,-0.8125,0.5,1.74,-1.85,9.51
1540942031706794023,255,0,/imu_data_acquisition2,27382.0,0.0202026367188,-0.131652832031,0.804931640625,0.578247070312,0.5,-0.0625,0.75,1.65,-1.91,9.57
1540942031718384981,256,0,/imu_data_acquisition2,27393.0,0.0202026367188,-0.131652832031,0.804992675781,0.578186035156,0.375,-0.875,0.8125,1.78,-1.81,9.34
1540942031727343082,257,0,/imu_data_acquisition2,27401.0,0.0203247070312,-6.103515625e-05,-6.103515625e-05,0.578125,0.9375,-0.8125,0.5,1.63,-1.82,9.5
1540942031735867977,258,0,/imu_data_acquisition2,27411.0,0.0203247070312,-0.131591796875,0.804992675781,0.578125,0.6875,-0.5,0.5625,1.65,-1.83,9.52
1540942031749824047,259,0,/imu_data_acquisition2,27425.0,0.0203857421875,-0.131591796875,0.804992675781,0.578125,0.4375,-0.875,0.4375,1.59,-1.75,9.54
1540942031756474971,260,0,/imu_data_acquisition2,27431.0,0.0203247070312,-0.131530761719,0.804992675781,0.578125,0.25,-0.0625,-0.0625,1.75,-1.85,9.47
1540942031767436027,261,0,/imu_data_acquisition2,27442.0,0.0203247070312,-6.103515625e-05,-6.103515625e-05,0.578125,0.125,-0.9375,-0.0625,1.44,-1.74,9.43
1540942031778366088,262,0,/imu_data_acquisition2,27451.0,0.0203247070312,-0.131530761719,0.804992675781,0.578125,0.0,-0.4375,-0.125,1.82,-1.86,9.41
1540942031785495042,263,0,/imu_data_acquisition2,27461.0,0.0203247070312,-6.103515625e-05,-6.103515625e-05,0.578125,0.0625,-0.3125,-0.5625,1.85,-1.83,9.4
1540942031798924922,264,0,/imu_data_acquisition2,27472.0,0.0203857421875,-0.131530761719,0.804992675781,0.578186035156,-0.125,-0.6875,-0.625,1.78,-1.82,9.49
1540942031804828882,265,0,/imu_data_acquisition2,27480.0,0.0203857421875,-0.131530761719,0.804992675781,0.578186035156,-0.1875,-0.125,-0.5625,2.0,-1.86,9.32
1540942031818159103,266,0,/imu_data_acquisition2,27491.0,0.0203857421875,-0.00653076171875,-6.103515625e-05,0.578186035156,0.4375,0.5,-0.5,1.74,-1.9,9.32
1540942031828650951,267,0,/imu_data_acquisition2,27502.0,0.0203857421875,-0.131530761719,0.804992675781,0.578186035156,0.375,0.0625,-0.25,1.67,-1.81,9.44
1540942031835000038,268,0,/imu_data_acquisition2,27511.0,0.0204467773438,-0.131469726562,0.804992675781,0.578186035156,1.0,-0.125,-0.5,1.76,-1.83,9.46
1540942031847112894,269,0,/imu_data_acquisition2,27522.0,0.0204467773438,-0.131408691406,0.804992675781,0.578186035156,0.9375,-0.25,-0.3125,1.58,-1.83,9.46
1540942031855803966,270,0,/imu_data_acquisition2,27530.0,0.0205078125,-0.131286621094,0.805053710938,0.578186035156,1.3125,0.125,-0.0625,1.67,-1.83,9.65
1540942031865962982,271,0,/imu_data_acquisition2,27541.0,0.0205688476562,-0.131164550781,0.805053710938,0.578186035156,1.4375,-0.125,-0.25,1.67,-1.81,9.23
1540942031878484010,272,0,/imu_data_acquisition2,27552.0,0.0206298828125,-0.131103515625,0.805053710938,0.578186035156,1.5,-0.0625,-0.375,1.8,-1.82,9.47
1540942031889192104,273,0,/imu_data_acquisition2,27562.0,0.0206909179688,-0.130981445312,0.805053710938,0.578125,1.4375,0.0625,-0.3125,1.82,-1.87,9.39
1540942031895118951,274,0,/imu_data_acquisition2,27571.0,0.020751953125,-0.130859375,0.805114746094,0.578125,1.875,0.1875,-0.25,1.6,-1.82,9.55
1540942031906831979,275,0,/imu_data_acquisition2,27581.0,0.020751953125,-0.005859375,-6.103515625e-05,0.578125,2.3125,0.375,-0.1875,1.87,-1.85,9.47
1540942031919210910,276,0,/imu_data_acquisition2,27591.0,0.0208740234375,-0.130676269531,0.805114746094,0.578125,2.3125,-0.75,-0.25,1.81,-1.8,9.33
1540942031925281047,277,0,/imu_data_acquisition2,27601.0,0.021240234375,-6.103515625e-05,-6.103515625e-05,0.578125,2.75,-0.6875,-0.5,1.91,-1.64,9.6
1540942031937977075,278,0,/imu_data_acquisition2,27612.0,0.021240234375,-0.13037109375,0.80517578125,0.578125,2.875,-0.9375,-0.4375,1.37,-1.84,9.53
1540942031948376893,279,0,/imu_data_acquisition2,27622.0,0.0216064453125,-0.130065917969,0.805236816406,0.578125,2.25,-1.5,-0.625,1.79,-1.65,9.56
1540942031957042932,280,0,/imu_data_acquisition2,27631.0,0.0216064453125,-6.103515625e-05,-6.103515625e-05,0.578125,1.8125,-1.9375,-1.3125,1.63,-1.73,9.52
1540942031968286991,281,0,/imu_data_acquisition2,27642.0,0.0218505859375,-0.130004882812,0.80517578125,0.578186035156,1.4375,-1.4375,-1.6875,1.51,-1.72,9.5
1540942031979010105,282,0,/imu_data_acquisition2,27651.0,0.02197265625,-0.129943847656,0.805114746094,0.578308105469,1.0,-1.625,-1.875,1.76,-1.69,9.44
1540942031988024950,283,0,/imu_data_acquisition2,27662.0,0.0221557617188,-0.1298828125,0.805053710938,0.578430175781,0.875,-1.9375,-2.1875,1.48,-1.72,9.62
1540942031997090101,284,0,/imu_data_acquisition2,27670.0,0.0222778320312,-0.1298828125,0.804931640625,0.578552246094,0.875,-0.0625,-0.0625,2.02,-2.04,9.69
1540942032008781909,285,0,/imu_data_acquisition2,27681.0,0.0223999023438,-0.129943847656,0.804870605469,0.578674316406,2.3125,-0.8125,-2.8125,1.72,-1.36,9.36
1540942032017265081,286,0,/imu_data_acquisition2,27692.0,0.0225830078125,-0.129760742188,0.804748535156,0.578857421875,-0.9375,-1.3125,-2.25,1.8,-1.89,9.38
1540942032035569906,287,0,/imu_data_acquisition2,27702.0,0.0226440429688,-0.1298828125,0.804626464844,0.578979492188,-0.125,-1.5,-2.9375,1.94,-1.55,9.33
1540942032039378881,288,0,/imu_data_acquisition2,27712.0,0.0228271484375,-0.129943847656,0.804443359375,0.579162597656,-0.125,-1.125,-3.0,1.63,-1.69,9.67
1540942032048551082,289,0,/imu_data_acquisition2,27723.0,0.0228881835938,-0.130004882812,0.804321289062,0.579345703125,-2.0625,-1.3125,-2.1875,1.22,-1.88,10.26
1540942032056997060,290,0,/imu_data_acquisition2,27730.0,0.02294921875,-0.130187988281,0.80419921875,0.579528808594,-2.0625,-1.3125,-2.1875,1.76,-1.87,8.79
1540942032067514896,291,0,/imu_data_acquisition2,27742.0,0.0228881835938,-0.130126953125,0.804077148438,0.579711914062,-1.625,-1.0625,-2.375,1.44,-1.78,8.79
1540942032079353094,292,0,/imu_data_acquisition2,27754.0,0.0228881835938,-6.103515625e-05,-6.103515625e-05,0.579833984375,1.5,0.4375,-3.75,2.15,-1.95,9.65
1540942032089464902,293,0,/imu_data_acquisition2,27762.0,0.0230102539062,-0.130187988281,0.803771972656,0.580078125,-0.9375,0.75,-2.25,2.45,-1.64,9.45
1540942032096978902,294,0,/imu_data_acquisition2,27772.0,0.02294921875,-0.130187988281,0.803649902344,0.580261230469,0.375,0.3125,-2.5,2.22,-1.61,10.2
1540942032108006000,295,0,/imu_data_acquisition2,27781.0,0.02294921875,-0.130187988281,0.803527832031,0.580444335938,0.375,0.3125,-2.5,2.51,-1.85,9.77
1540942032118604898,296,0,/imu_data_acquisition2,27792.0,0.0228271484375,-0.130249023438,0.803405761719,0.58056640625,-3.25,0.0,-0.4375,2.54,-2.06,9.54
1540942032126437902,297,0,/imu_data_acquisition2,27802.0,0.022705078125,-0.130493164062,0.803405761719,0.58056640625,-2.625,0.6875,0.375,2.54,-1.85,9.13
1540942032137902021,298,0,/imu_data_acquisition2,27812.0,0.0225219726562,-0.130615234375,0.803344726562,0.58056640625,-2.75,0.875,1.4375,2.56,-1.91,9.59
1540942032146709918,299,0,/imu_data_acquisition2,27820.0,0.0222778320312,-0.130737304688,0.803405761719,0.580505371094,-2.75,0.875,1.4375,2.56,-1.91,9.59
1540942032156086921,300,0,/imu_data_acquisition2,27831.0,0.0220336914062,-0.130920410156,0.803466796875,0.580322265625,-2.9375,1.0,2.5625,2.13,-1.82,9.35
1540942032168364048,301,0,/imu_data_acquisition2,27843.0,0.0217895507812,-0.131042480469,0.803588867188,0.580139160156,-4.0,2.0625,3.625,2.28,-1.81,9.51
1540942032179740905,302,0,/imu_data_acquisition2,27851.0,0.0213623046875,-6.103515625e-05,-6.103515625e-05,0.579895019531,-4.1875,1.625,3.0625,2.44,-1.7,9.27
1540942032187263011,303,0,/imu_data_acquisition2,27863.0,0.0210571289062,-0.131469726562,0.803833007812,0.579711914062,-3.8125,2.5,2.0625,2.07,-2.0,9.87
1540942032198270082,304,0,/imu_data_acquisition2,27872.0,0.0208129882812,-0.131713867188,0.803894042969,0.579650878906,-3.8125,2.5,2.0625,2.61,-1.76,8.83
1540942032204622983,305,0,/imu_data_acquisition2,27880.0,0.0208740234375,-0.132202148438,0.803833007812,0.57958984375,-4.0625,3.125,1.8125,2.61,-1.76,8.83
1540942032235946893,306,0,/imu_data_acquisition2,27892.0,0.0209350585938,-0.132629394531,0.803771972656,0.579528808594,-4.8125,3.875,0.5625,2.58,-1.86,9.23
1540942032263113975,307,0,/imu_data_acquisition2,27904.0,0.02099609375,-0.133239746094,0.803649902344,0.579650878906,-4.8125,3.375,0.125,2.17,-1.64,9.12
1540942032327052116,308,0,/imu_data_acquisition2,27912.0,0.0205078125,-0.133422851562,0.803588867188,0.579650878906,-5.5625,5.25,0.6875,2.23,-2.01,9.48
1540942032338640928,309,0,/imu_data_acquisition2,27923.0,0.0198364257812,-0.133544921875,0.803588867188,0.579711914062,-5.8125,4.6875,1.875,2.08,-1.71,9.41
1540942032340939998,310,0,/imu_data_acquisition2,27931.0,0.0192260742188,-0.133666992188,0.803588867188,0.579650878906,-5.8125,4.6875,1.875,2.07,-1.86,9.43
1540942032342286109,311,0,/imu_data_acquisition2,27943.0,0.0186157226562,-0.133850097656,0.8037109375,0.579467773438,-5.5625,5.375,3.6875,1.94,-1.76,9.24
1540942032343590974,312,0,/imu_data_acquisition2,27953.0,0.0179443359375,-0.133972167969,0.803833007812,0.579284667969,-5.875,-0.0625,-0.0625,2.05,-1.82,9.26
1540942032345529079,313,0,/imu_data_acquisition2,27963.0,0.0172119140625,-0.134094238281,0.803955078125,0.5791015625,-6.3125,5.5,3.875,2.02,-1.84,9.47
1540942032347532033,314,0,/imu_data_acquisition2,27971.0,0.0164794921875,-0.13427734375,0.804077148438,0.578918457031,-6.3125,5.5,3.875,2.02,-1.84,9.47
1540942032349208116,315,0,/imu_data_acquisition2,27982.0,0.015869140625,-0.134521484375,0.80419921875,0.578735351562,-7.125,6.125,3.75,1.72,-1.97,9.24
1540942032351999998,316,0,/imu_data_acquisition2,27992.0,0.0150146484375,-0.134765625,0.804260253906,0.578552246094,-8.125,6.5625,3.9375,2.03,-2.05,9.34
1540942032353533983,318,0,/imu_data_acquisition2,28012.0,0.0131225585938,-0.135314941406,0.804443359375,0.578247070312,-8.375,9.625,3.3125,1.98,-2.09,9.3
1540942032355186939,319,0,/imu_data_acquisition2,28020.0,0.0121459960938,-0.135559082031,0.804504394531,0.578125,-8.375,9.625,3.3125,1.98,-2.09,9.3
1540942032358127117,320,0,/imu_data_acquisition2,28030.0,-6.103515625e-05,-6.103515625e-05,-6.103515625e-05,0.577941894531,-9.9375,10.5625,4.625,1.99,-1.91,9.23
1540942032364413976,321,0,/imu_data_acquisition2,28040.0,0.009765625,-0.135925292969,0.8046875,0.577819824219,-9.6875,11.5,4.3125,1.72,-2.02,9.44
1540942032379632949,322,0,/imu_data_acquisition2,28054.0,0.00836181640625,-0.136047363281,0.804870605469,0.577575683594,-11.625,12.75,6.375,1.73,-2.04,9.44
1540942032391438007,323,0,/imu_data_acquisition2,28062.0,0.00689697265625,-0.13623046875,0.805053710938,0.577331542969,-12.5625,13.5,6.8125,1.86,-2.02,9.29
1540942032397862911,324,0,/imu_data_acquisition2,28072.0,0.00537109375,-0.136474609375,0.805236816406,0.577026367188,-12.5625,13.5,6.8125,1.86,-2.02,9.29
1540942032404793024,325,0,/imu_data_acquisition2,28080.0,0.00372314453125,-0.136657714844,0.805480957031,0.57666015625,-13.375,14.0,7.8125,1.65,-1.86,9.53
1540942032417511940,326,0,/imu_data_acquisition2,28091.0,0.001953125,-0.136962890625,0.805725097656,0.576232910156,-15.0625,14.9375,9.375,1.77,-2.06,9.37
1540942032432859897,327,0,/imu_data_acquisition2,28104.0,0.0003662109375,-0.137268066406,0.806030273438,0.575744628906,-13.875,14.9375,10.375,1.53,-2.06,9.38
1540942032439656019,328,0,/imu_data_acquisition2,28112.0,-0.0013427734375,-0.137512207031,0.806335449219,0.5751953125,-15.1875,16.75,11.6875,1.7,-2.11,9.38
1540942032447873115,329,0,/imu_data_acquisition2,28122.0,-0.00323486328125,-0.137756347656,0.806762695312,0.574645996094,-15.1875,16.75,11.6875,1.7,-2.11,9.38
1540942032460464000,330,0,/imu_data_acquisition2,28132.0,-0.00518798828125,-0.138122558594,0.807189941406,0.573913574219,-17.1875,17.125,13.6875,1.85,-2.07,9.45
1540942032468095064,331,0,/imu_data_acquisition2,28142.0,-6.103515625e-05,-6.103515625e-05,-6.103515625e-05,0.573120117188,-18.5625,20.6875,16.625,2.02,-2.15,9.29
1540942032480925083,332,0,/imu_data_acquisition2,28156.0,-0.009521484375,-0.138854980469,0.808227539062,0.572204589844,-20.0625,24.3125,18.875,2.06,-2.29,9.08
1540942032491708040,333,0,/imu_data_acquisition2,28164.0,-0.0123901367188,-0.139038085938,0.808837890625,0.571166992188,-21.25,28.875,21.4375,1.61,-2.61,9.39
1540942032496846914,334,0,/imu_data_acquisition2,28172.0,-0.015625,-0.139038085938,0.809631347656,0.570068359375,-21.25,28.875,21.4375,1.61,-2.61,9.39
1540942032508379936,335,0,/imu_data_acquisition2,28181.0,-0.019775390625,-0.0135498046875,-6.103515625e-05,0.568786621094,-21.625,40.9375,25.25,2.11,-2.08,9.31
1540942032517019987,336,0,/imu_data_acquisition2,28192.0,-0.0238647460938,-0.0130004882812,-6.103515625e-05,0.567443847656,-21.625,40.9375,25.25,1.66,-2.71,9.37
1540942032529930114,337,0,/imu_data_acquisition2,28203.0,-0.0287475585938,-0.136657714844,0.812377929688,0.566162109375,-18.3125,52.9375,27.0625,2.22,-2.23,9.31
1540942032539629936,338,0,/imu_data_acquisition2,28213.0,-0.0338745117188,-0.134582519531,0.813354492188,0.56494140625,-13.4375,61.1875,27.4375,2.46,-1.93,9.59
1540942032546343088,339,0,/imu_data_acquisition2,28222.0,-0.0400390625,-0.1318359375,0.814514160156,0.5634765625,-13.4375,74.8125,32.8125,2.46,-1.93,9.59
1540942032560343027,340,0,/imu_data_acquisition2,28233.0,-0.0475463867188,-0.12841796875,0.816101074219,0.561462402344,-15.375,91.1875,43.625,1.16,-2.13,10.0
1540942032569622993,341,0,/imu_data_acquisition2,28243.0,-0.056640625,-0.124755859375,0.818115234375,0.558471679688,-23.8125,107.0625,57.875,3.03,-1.25,10.13
1540942032577466964,342,0,/imu_data_acquisition2,28253.0,-0.00482177734375,-6.103515625e-05,-6.103515625e-05,0.55419921875,-29.3125,122.1875,78.1875,3.69,0.78,11.26
1540942032588879108,343,0,/imu_data_acquisition2,28263.0,-0.0804443359375,-0.1171875,0.824645996094,0.547485351562,-52.75,137.3125,111.6875,1.67,-2.03,10.44
1540942032595695018,344,0,/imu_data_acquisition2,28270.0,-0.0967407226562,-0.115661621094,0.829650878906,0.537536621094,-92.9375,150.4375,152.9375,1.67,-2.03,10.44
1540942032606686115,345,0,/imu_data_acquisition2,28282.0,-0.005126953125,-6.103515625e-05,-6.103515625e-05,0.524780273438,-113.5,154.6875,188.5625,-0.15,-1.59,11.34
1540942032619435071,346,0,/imu_data_acquisition2,28294.0,-0.133544921875,-0.11474609375,0.841796875,0.51025390625,-127.0,161.8125,208.9375,-1.26,-3.57,9.19
1540942032628840923,347,0,/imu_data_acquisition2,28304.0,-0.152709960938,-0.112243652344,0.847534179688,0.495788574219,-99.0,195.1875,214.9375,-0.87,-0.01,-0.01
1540942032639776945,348,0,/imu_data_acquisition2,28314.0,-0.172790527344,-0.108337402344,0.852783203125,0.480834960938,-93.5625,203.8125,216.125,1.86,-4.83,11.47
1540942032648145914,349,0,/imu_data_acquisition2,28321.0,-0.193176269531,-0.103576660156,0.857421875,0.465576171875,-93.5625,203.8125,216.125,1.86,-4.83,11.47
1540942032655365943,350,0,/imu_data_acquisition2,28331.0,-0.212707519531,-0.0999145507812,0.861633300781,0.449829101562,-100.6875,189.375,215.125,6.44,-7.08,12.45
1540942032667424917,351,0,/imu_data_acquisition2,28342.0,-0.229187011719,-0.0966796875,0.865051269531,0.435668945312,-6.5,-0.0625,-0.0625,8.17,-9.93,13.84
1540942032680351972,352,0,/imu_data_acquisition2,28354.0,-0.239624023438,-0.0948486328125,0.867431640625,0.425598144531,-59.6875,98.5625,131.8125,7.88,-6.41,12.34
1540942032690460920,353,0,/imu_data_acquisition2,28364.0,-0.238464355469,-0.0956420898438,0.869812011719,0.421142578125,8.375,-70.625,27.375,8.1,-1.21,7.41
1540942032697670936,354,0,/imu_data_acquisition2,28371.0,-0.233154296875,-0.0969848632812,0.872314453125,0.418701171875,8.375,-70.625,27.375,8.1,-1.21,7.41
1540942032706074953,355,0,/imu_data_acquisition2,28380.0,-0.227783203125,-0.0999145507812,0.875061035156,0.415222167969,-9.9375,-81.875,35.4375,6.17,-2.78,7.03
1540942032719650983,356,0,/imu_data_acquisition2,28393.0,-0.221557617188,-0.102294921875,0.877807617188,0.412231445312,1.1875,-87.1875,31.0625,5.73,-5.35,7.23
1540942032728806018,357,0,/imu_data_acquisition2,28404.0,-0.214904785156,-0.105346679688,0.880554199219,0.409057617188,-0.5,-106.6875,17.6875,5.82,-5.53,8.12
1540942032741621017,358,0,/imu_data_acquisition2,28414.0,-0.207153320312,-0.108703613281,0.883056640625,0.406799316406,-0.5,-106.6875,17.6875,5.07,-6.84,7.88
1540942032746367931,359,0,/imu_data_acquisition2,28421.0,-0.198364257812,-0.11328125,0.88525390625,0.405151367188,-7.125,-121.3125,5.125,5.07,-6.84,7.88
1540942032759620904,360,0,/imu_data_acquisition2,28431.0,-0.188720703125,-0.11865234375,0.886962890625,0.404479980469,-8.625,-131.6875,-10.5,4.41,-6.55,7.73
1540942032768613100,361,0,/imu_data_acquisition2,28442.0,-0.178405761719,-0.0151977539062,-6.103515625e-05,0.404724121094,-11.125,-138.8125,-24.5625,4.13,-1.27,-0.01
1540942032778471946,362,0,/imu_data_acquisition2,28453.0,-0.16796875,-0.130981445312,0.888793945312,0.40576171875,-14.0625,-140.6875,-36.3125,3.12,-6.52,7.83
1540942032789401054,363,0,/imu_data_acquisition2,28464.0,-6.103515625e-05,-6.103515625e-05,-6.103515625e-05,0.4072265625,-20.75,-142.625,-44.75,3.15,-7.0,7.99
1540942032795180082,364,0,/imu_data_acquisition2,28470.0,-0.146789550781,-0.145874023438,0.888671875,0.409118652344,-28.0,-145.9375,-53.8125,3.15,-7.0,7.99
1540942032807981967,365,0,/imu_data_acquisition2,28481.0,-0.136047363281,-0.154357910156,0.887817382812,0.411682128906,-33.8125,-148.0625,-64.375,2.82,-7.69,8.89
1540942032817718029,366,0,/imu_data_acquisition2,28492.0,-0.125,-0.163208007812,0.886291503906,0.4150390625,-37.0,-150.75,-77.0,2.66,-0.01,-0.01
1540942032829961061,367,0,/imu_data_acquisition2,28504.0,-0.113647460938,-0.172485351562,0.884155273438,0.419067382812,-39.5,-153.6875,-88.125,2.23,-7.17,9.88
1540942032841027975,368,0,/imu_data_acquisition2,28515.0,-0.102233886719,-0.182434082031,0.881530761719,0.42333984375,-47.25,-156.75,-94.75,1.58,-8.09,10.24
1540942032847151994,369,0,/imu_data_acquisition2,28522.0,-0.0907592773438,-0.00531005859375,-6.103515625e-05,0.427917480469,-51.75,-157.75,-101.125,1.58,-8.09,10.24
1540942032854767084,370,0,/imu_data_acquisition2,28530.0,-0.0792846679688,-0.203186035156,0.874572753906,0.432983398438,-53.25,-156.4375,-109.125,1.57,-8.69,10.18
1540942032868271112,371,0,/imu_data_acquisition2,28543.0,-0.0678100585938,-0.213195800781,0.870300292969,0.438842773438,-49.4375,-152.125,-119.375,0.75,-8.98,10.73
1540942032881553888,372,0,/imu_data_acquisition2,28554.0,-0.0560913085938,-0.223205566406,0.865356445312,0.445190429688,-49.625,-152.4375,-129.0,0.61,-9.17,10.34
1540942032888326883,373,0,/imu_data_acquisition2,28564.0,-0.0447998046875,-0.233703613281,0.859802246094,0.451843261719,-58.125,-149.8125,-134.125,0.16,-8.91,9.96
1540942032896440982,374,0,/imu_data_acquisition2,28571.0,-0.033935546875,-0.244201660156,0.853576660156,0.458862304688,-62.4375,-144.125,-140.5625,0.16,-8.91,9.96
1540942032907387018,375,0,/imu_data_acquisition2,28580.0,-0.0236206054688,-0.254760742188,0.846740722656,0.466430664062,-67.5,-137.0,-147.625,-0.18,-9.67,9.89
1540942032915347099,376,0,/imu_data_acquisition2,28591.0,-0.0137939453125,-0.265075683594,0.839172363281,0.474670410156,-5.3125,-0.0625,-0.0625,-0.11,-9.81,9.84
1540942032930037975,377,0,/imu_data_acquisition2,28604.0,-6.103515625e-05,-6.103515625e-05,-6.103515625e-05,0.483520507812,-70.5,-8.0,-0.0625,-0.37,-9.59,9.59
1540942032939476013,378,0,/imu_data_acquisition2,28614.0,0.0045166015625,-0.284545898438,0.822204589844,0.492980957031,-70.5,-111.0625,-172.375,-0.25,-8.98,9.76
1540942032946646928,379,0,/imu_data_acquisition2,28622.0,0.0128173828125,-0.293640136719,0.812927246094,0.502746582031,-72.0625,-101.5,-176.625,-0.24,-8.25,10.17
1540942032956712961,380,0,/imu_data_acquisition2,28630.0,0.0204467773438,-0.302490234375,0.803283691406,0.512634277344,-74.5,-92.875,-177.875,-0.44,-8.4,10.66
1540942032973140954,381,0,/imu_data_acquisition2,28645.0,0.027587890625,-0.310729980469,0.793395996094,0.522705078125,-73.3125,-84.5625,-179.625,-0.74,-6.05,10.91
1540942032978980064,382,0,/imu_data_acquisition2,28654.0,0.0343017578125,-0.318664550781,0.783264160156,0.53271484375,-73.0,-14.25,-0.0625,-1.24,-4.78,10.67
1540942032991393089,383,0,/imu_data_acquisition2,28666.0,0.0405883789062,-0.326049804688,0.773254394531,0.542358398438,-70.75,-72.625,-173.9375,-1.56,-3.28,10.11
1540942032999468088,384,0,/imu_data_acquisition2,28671.0,0.0464477539062,-0.332702636719,0.763549804688,0.551513671875,-64.6875,-65.9375,-165.1875,-1.56,-3.28,10.11
1540942033007358074,385,0,/imu_data_acquisition2,28683.0,0.0516967773438,-0.338562011719,0.754577636719,0.559692382812,-58.5,-58.125,-150.1875,-2.0,-0.01,-0.01
1540942033016109943,386,0,/imu_data_acquisition2,28692.0,0.0560913085938,-0.343566894531,0.746765136719,0.566711425781,-51.4375,-49.0625,-128.75,-2.06,0.17,9.9
1540942033029304027,387,0,/imu_data_acquisition2,28703.0,0.059326171875,-0.004150390625,-6.103515625e-05,0.572204589844,-46.4375,-7.8125,-0.0625,-1.89,0.25,10.16
1540942033038804054,388,0,/imu_data_acquisition2,28714.0,0.0617065429688,-0.351745605469,0.735290527344,0.576049804688,-41.25,-34.1875,-74.8125,-1.98,-1.48,11.84
1540942033051867961,389,0,/imu_data_acquisition2,28725.0,0.0640869140625,-0.354858398438,0.731567382812,0.578552246094,-27.6875,-34.6875,-54.8125,-2.05,-0.58,11.58
