%time,field.header.seq,field.header.stamp,field.header.frame_id,field.time_stamp,field.quat_x,field.quat_y,field.quat_z,field.quat_w,field.gyro_x,field.gyro_y,field.gyro_z,field.accel_x,field.accel_y,field.accel_z
1541715151453814983,102,0,/imu_data_acquisition2,77293.0,-6.103515625e-05,-6.103515625e-05,-6.103515625e-05,0.782043457031,-3.0,14.875,-1.875,-2.09,-0.79,9.65
1541715151463083028,103,0,/imu_data_acquisition2,77303.0,-0.0664672851562,0.033203125,0.618774414062,0.782043457031,-1.8125,14.625,-1.75,-1.61,-0.92,9.95
1541715151469650030,104,0,/imu_data_acquisition2,77309.0,-0.0673217773438,0.033935546875,0.61865234375,0.782043457031,-2.75,12.875,-0.875,-1.61,-0.92,9.95
1541715151479578018,105,0,/imu_data_acquisition2,77319.0,-0.0685424804688,0.0348510742188,0.618530273438,0.781982421875,-1.375,12.6875,-0.3125,-1.98,-1.04,9.75
1541715151489507913,106,0,/imu_data_acquisition2,77329.0,-0.0696411132812,0.0358276367188,0.618408203125,0.781921386719,-0.3125,14.4375,-0.25,-1.5,-0.89,9.35
1541715151502943038,107,0,/imu_data_acquisition2,77343.0,-0.07080078125,0.036865234375,0.618286132812,0.781860351562,-0.75,15.3125,-0.1875,-1.76,-0.95,9.74
1541715151514312028,108,0,/imu_data_acquisition2,77353.0,-0.0716552734375,0.0379028320312,0.618225097656,0.781799316406,-0.5625,16.25,0.1875,-1.88,-1.0,9.43
1541715151520334005,109,0,/imu_data_acquisition2,77360.0,-0.072509765625,0.0391235351562,0.618103027344,0.78173828125,1.0625,17.625,-0.1875,-1.65,-0.85,9.85
1541715151529652118,110,0,/imu_data_acquisition2,77370.0,-0.0734252929688,0.0403442382812,0.617980957031,0.781677246094,0.375,18.3125,0.25,-1.62,-1.09,9.59
1541715151539242029,111,0,/imu_data_acquisition2,77379.0,-0.0748901367188,0.0416870117188,0.617858886719,0.781616210938,1.125,20.0,0.75,-2.02,-0.01,-0.01
1541715151550987005,112,0,/imu_data_acquisition2,77391.0,-0.0759887695312,0.0433959960938,0.617736816406,0.781555175781,3.75,21.625,-0.1875,-2.0,-0.61,9.81
1541715151562922954,113,0,/imu_data_acquisition2,77403.0,-0.077392578125,0.0451049804688,0.617553710938,0.781433105469,1.8125,24.5625,-0.375,-1.9,-0.92,9.62
1541715151569483995,114,0,/imu_data_acquisition2,77409.0,-0.0786743164062,0.0468139648438,0.617370605469,0.781311035156,0.5625,25.25,-0.125,-2.14,-0.98,9.51
1541715151580328941,115,0,/imu_data_acquisition2,77420.0,-0.0799560546875,0.0487060546875,0.617065429688,0.781311035156,2.25,27.5625,-1.375,-1.88,-0.99,9.62
1541715151593580007,116,0,/imu_data_acquisition2,77433.0,-0.0814208984375,0.0505981445312,0.616760253906,0.78125,0.375,28.0625,-1.375,-1.9,-0.83,9.34
1541715151604496002,117,0,/imu_data_acquisition2,77443.0,-0.0829467773438,0.0525512695312,0.616394042969,0.78125,0.8125,29.9375,-2.375,-1.94,-0.69,9.37
1541715151617765903,118,0,/imu_data_acquisition2,77454.0,-0.0846557617188,0.0546875,0.615966796875,0.78125,-0.1875,32.5,-2.9375,-1.9,-0.7,9.25
1541715151622395038,119,0,/imu_data_acquisition2,77461.0,-0.0866088867188,0.0569458007812,0.615539550781,0.78125,-1.0625,35.25,-3.0625,-1.9,-0.7,9.25
1541715151631794929,120,0,/imu_data_acquisition2,77470.0,-0.0885620117188,0.0592651367188,0.614990234375,0.781311035156,-1.1875,36.3125,-3.9375,-2.36,-0.61,9.54
1541715151642118930,121,0,/imu_data_acquisition2,77482.0,-0.0909423828125,0.0615844726562,0.614440917969,0.78125,-4.4375,39.75,-4.0625,-1.86,-0.58,9.41
1541715151653867959,122,0,/imu_data_acquisition2,77493.0,-0.0934448242188,0.0638427734375,0.613891601562,0.78125,-6.6875,39.375,-4.5,-2.76,-1.14,9.36
1541715151663664102,123,0,/imu_data_acquisition2,77502.0,-0.0960083007812,0.06640625,0.613220214844,0.78125,-3.875,43.0,-5.5,-2.64,-0.59,9.78
1541715151676147937,124,0,/imu_data_acquisition2,77512.0,-0.0986328125,0.0689697265625,0.612487792969,0.78125,-5.1875,43.3125,-5.9375,-2.01,-0.69,9.11
1541715151683162927,125,0,/imu_data_acquisition2,77521.0,-0.101318359375,0.0717163085938,0.611755371094,0.78125,-4.5625,45.75,-5.8125,-2.65,-0.71,9.59
1541715151690289020,126,0,/imu_data_acquisition2,77530.0,-0.104431152344,0.0744018554688,0.611022949219,0.781188964844,-8.5625,48.0625,-5.6875,-2.0,-0.57,8.95
1541715151710258960,127,0,/imu_data_acquisition2,77544.0,-0.107727050781,0.0771484375,0.610290527344,0.781005859375,-10.375,50.625,-5.0625,-2.98,-0.29,9.62
1541715151714658975,128,0,/imu_data_acquisition2,77553.0,-0.111389160156,0.0800170898438,0.609497070312,0.780822753906,-12.8125,-0.0625,-0.0625,-3.0,-1.03,6.59
1541715151720309019,129,0,/imu_data_acquisition2,77560.0,-6.103515625e-05,-6.103515625e-05,-6.103515625e-05,0.780517578125,-10.1875,60.8125,-4.0,-2.23,-0.01,-0.01
1541715151735822916,130,0,/imu_data_acquisition2,77571.0,-0.119750976562,0.0872192382812,0.607788085938,0.780151367188,-14.25,69.0,-5.625,-1.63,-2.34,10.55
1541715151743370056,131,0,/imu_data_acquisition2,77582.0,-0.0151977539062,-6.103515625e-05,-6.103515625e-05,0.779663085938,-17.3125,70.875,-4.125,-2.1,-2.68,10.2
1541715151752341032,132,0,/imu_data_acquisition2,77592.0,-0.00396728515625,-6.103515625e-05,-6.103515625e-05,0.779235839844,-10.125,72.1875,-4.25,-1.61,-2.6,9.21
1541715151764344930,133,0,/imu_data_acquisition2,77604.0,-0.133056640625,0.100463867188,0.604919433594,0.778625488281,1.0,80.5625,-1.625,-3.45,-3.22,11.1
1541715151771065950,134,0,/imu_data_acquisition2,77610.0,-0.137145996094,0.106994628906,0.604064941406,0.777709960938,8.4375,91.875,4.375,-3.91,-1.33,10.38
1541715151781030893,135,0,/imu_data_acquisition2,77621.0,-0.140930175781,0.115417480469,0.603454589844,0.776306152344,24.0625,107.125,12.875,-1.65,-1.3,8.43
1541715151794444084,136,0,/imu_data_acquisition2,77634.0,-0.144653320312,0.123779296875,0.602722167969,0.77490234375,24.0625,107.125,12.875,-3.31,-0.77,8.73
1541715151805080890,137,0,/imu_data_acquisition2,77642.0,-0.148681640625,0.133728027344,0.601867675781,0.773132324219,31.9375,123.4375,15.5,-3.8,-0.83,10.44
1541715151812998056,138,0,/imu_data_acquisition2,77653.0,-0.153747558594,0.144897460938,0.600158691406,0.771484375,33.0,144.5,7.5625,-3.1,0.56,-0.01
1541715151822572946,139,0,/imu_data_acquisition2,77662.0,-0.16015625,0.156188964844,0.598327636719,0.769409179688,21.25,155.5625,7.5625,-4.14,1.52,10.29
1541715151832972049,140,0,/imu_data_acquisition2,77672.0,-0.169616699219,0.16455078125,0.597290039062,0.766418457031,-30.25,150.4375,10.625,-5.13,3.01,10.48
1541715151840692043,141,0,/imu_data_acquisition2,77681.0,-0.182434082031,0.170227050781,0.596984863281,0.762451171875,-84.0625,150.625,10.75,-2.63,0.38,11.1
1541715151853255987,142,0,/imu_data_acquisition2,77692.0,-0.196838378906,0.177795410156,0.595397949219,0.758422851562,-82.0,181.6875,1.9375,-2.71,-1.52,11.36
1541715151864089965,143,0,/imu_data_acquisition2,77703.0,-0.211181640625,0.190246582031,0.590637207031,0.755249023438,-38.1875,230.25,-21.4375,-2.87,0.02,12.07
1541715151872140884,144,0,/imu_data_acquisition2,77712.0,-0.2265625,0.205139160156,0.582946777344,0.752868652344,-22.125,265.1875,-49.6875,-3.37,-1.92,12.03
1541715151883636951,145,0,/imu_data_acquisition2,77722.0,-0.242492675781,0.224243164062,0.571166992188,0.751403808594,14.125,315.625,-82.375,-4.87,2.18,10.63
1541715151895073890,146,0,/imu_data_acquisition2,77731.0,-0.262390136719,0.244140625,0.557739257812,0.748596191406,-14.6875,357.875,-96.125,-2.67,2.27,11.37
1541715151905035018,147,0,/imu_data_acquisition2,77745.0,-0.285339355469,0.264404296875,0.541564941406,0.745239257812,-32.9375,391.3125,-124.375,-10.18,8.44,20.77
1541715151922000885,148,0,/imu_data_acquisition2,77758.0,-0.309814453125,0.282470703125,0.527770996094,0.738708496094,-79.1875,383.3125,-95.6875,-10.18,8.44,20.77
1541715151923777103,149,0,/imu_data_acquisition2,77762.0,-0.3271484375,0.295654296875,0.523864746094,0.728759765625,-92.6875,271.875,18.5,-3.6,32.04,35.13
1541715151931148052,150,0,/imu_data_acquisition2,77771.0,-0.332885742188,0.303344726562,0.533081054688,0.716247558594,-82.1875,109.375,166.4375,-6.07,19.46,29.04
1541715151942276000,151,0,/imu_data_acquisition2,77781.0,-0.330078125,0.309509277344,0.546447753906,0.704711914062,-30.75,23.875,220.875,6.92,9.45,13.52
1541715151953030109,152,0,/imu_data_acquisition2,77792.0,-0.327453613281,0.315612792969,0.561218261719,0.691528320312,-44.375,24.1875,241.8125,2.89,1.6,11.14
1541715151962779998,153,0,/imu_data_acquisition2,77803.0,-0.325622558594,0.320251464844,0.574401855469,0.679321289062,-51.0625,20.125,214.25,0.84,-2.39,11.71
1541715151974163055,154,0,/imu_data_acquisition2,77814.0,-0.323913574219,0.322326660156,0.584899902344,0.670104980469,-15.4375,-0.0625,-0.0625,-0.09,-6.93,15.49
1541715151980027914,155,0,/imu_data_acquisition2,77820.0,-0.321350097656,0.322937011719,0.591430664062,0.665344238281,-18.125,-19.8125,96.5,-0.37,-4.41,16.6
1541715151991334915,156,0,/imu_data_acquisition2,77831.0,-0.318054199219,0.3212890625,0.595336914062,0.664184570312,-4.875,-46.5625,45.5,-0.69,-2.41,17.85
1541715151999593973,157,0,/imu_data_acquisition2,77840.0,-6.103515625e-05,-6.103515625e-05,-6.103515625e-05,0.665649414062,3.375,-79.1875,15.75,-0.16,1.07,16.86
1541715152011966943,158,0,/imu_data_acquisition2,77852.0,-0.307983398438,0.311645507812,0.601623535156,0.667907714844,-2.125,-105.5625,9.125,0.09,6.65,14.02
1541715152021706104,159,0,/imu_data_acquisition2,77860.0,-0.301635742188,0.304748535156,0.606262207031,0.669799804688,-9.375,-123.3125,21.6875,-0.28,8.27,12.58
1541715152030019998,160,0,/imu_data_acquisition2,77870.0,-0.294250488281,0.297607421875,0.612548828125,0.670471191406,-12.9375,-0.0625,-0.0625,-0.82,9.19,11.33
1541715152041395902,161,0,/imu_data_acquisition2,77881.0,-0.285583496094,0.291015625,0.620544433594,0.669860839844,-9.375,-140.9375,75.0625,-2.84,8.53,9.26
1541715152054253101,162,0,/imu_data_acquisition2,77891.0,-0.275512695312,0.285400390625,0.629516601562,0.668090820312,1.9375,-143.25,99.9375,-3.8,7.01,8.27
1541715152059999942,163,0,/imu_data_acquisition2,77900.0,-0.264038085938,0.28125,0.638732910156,0.665771484375,20.625,-140.125,115.375,-4.77,5.34,7.77
1541715152073113918,164,0,/imu_data_acquisition2,77913.0,-0.251708984375,0.278442382812,0.647399902344,0.663330078125,39.75,-134.375,119.1875,-6.19,2.24,8.53
1541715152081999063,165,0,/imu_data_acquisition2,77921.0,-0.239013671875,0.276306152344,0.655151367188,0.661254882812,51.875,-130.375,112.6875,-6.95,1.05,8.53
1541715152090643882,166,0,/imu_data_acquisition2,77930.0,-0.226257324219,0.273986816406,0.662048339844,0.659851074219,54.9375,-131.6875,100.25,-8.59,-0.81,11.6
1541715152102214097,167,0,/imu_data_acquisition2,77942.0,-0.213195800781,0.271240234375,0.667907714844,0.659484863281,60.375,-138.25,83.0,-8.72,-2.23,11.03
1541715152111990928,168,0,/imu_data_acquisition2,77952.0,-0.200378417969,0.267639160156,0.672668457031,0.660095214844,58.4375,-143.625,64.25,-9.02,-2.82,10.43
1541715152121174097,169,0,/imu_data_acquisition2,77960.0,-0.188110351562,0.263427734375,0.67626953125,0.661682128906,54.3125,-144.125,44.6875,-8.78,-3.0,8.99
1541715152131072998,170,0,/imu_data_acquisition2,77971.0,-0.0054931640625,-6.103515625e-05,-6.103515625e-05,0.664001464844,42.6875,-136.25,24.1875,-8.83,-4.01,8.63
1541715152141621112,171,0,/imu_data_acquisition2,77981.0,-0.167724609375,0.253479003906,0.679992675781,0.667236328125,37.625,-130.625,2.25,-8.7,-4.41,9.42
1541715152152059078,172,0,/imu_data_acquisition2,77991.0,-0.158081054688,0.248229980469,-6.103515625e-05,0.671630859375,42.8125,-131.875,-17.3125,-9.58,-4.11,10.38
1541715152161844968,173,0,/imu_data_acquisition2,78002.0,-0.147644042969,0.2431640625,0.678833007812,0.676940917969,55.6875,-138.1875,-30.0625,-8.38,-2.89,8.67
1541715152173896074,174,0,/imu_data_acquisition2,78014.0,-0.136779785156,0.238403320312,0.677307128906,0.682434082031,62.125,-138.5,-33.625,-7.5,-1.85,7.19
1541715152179491996,175,0,/imu_data_acquisition2,78019.0,-0.1259765625,0.23388671875,0.67578125,0.687561035156,63.8125,-135.125,-31.0625,-7.28,-1.97,7.29
1541715152191641092,176,0,/imu_data_acquisition2,78031.0,-0.115417480469,0.2294921875,0.674255371094,0.6923828125,62.125,-131.4375,-27.4375,-7.35,-2.56,7.72
1541715152203408956,177,0,/imu_data_acquisition2,78042.0,-0.104858398438,0.224914550781,0.672790527344,0.696960449219,60.5,-132.375,-26.125,-7.45,-4.05,7.59
1541715152211607933,178,0,/imu_data_acquisition2,78051.0,-0.0941772460938,0.220153808594,0.671142578125,0.701599121094,60.4375,-134.0625,-28.4375,-7.38,-4.59,7.13
1541715152221379995,179,0,/imu_data_acquisition2,78062.0,-0.0836181640625,0.215454101562,0.669006347656,0.706420898438,60.875,-133.5625,-33.4375,-7.22,-4.75,6.72
1541715152232789039,180,0,/imu_data_acquisition2,78071.0,-0.0733642578125,0.210693359375,0.66650390625,0.711364746094,59.5625,-130.9375,-38.625,-7.22,-4.69,6.71
1541715152240063905,181,0,/imu_data_acquisition2,78080.0,-6.103515625e-05,-6.103515625e-05,-6.103515625e-05,0.716247558594,55.875,-128.375,-41.625,-7.13,-4.4,6.75
1541715152253339052,182,0,/imu_data_acquisition2,78093.0,-0.0542602539062,0.200866699219,0.660888671875,0.721069335938,49.6875,-124.875,-43.0,-7.18,-4.37,7.01
1541715152261039018,183,0,/imu_data_acquisition2,78100.0,-0.0455322265625,0.195495605469,0.658081054688,0.725708007812,42.5,-123.0625,-43.0625,-7.32,-4.27,7.51
1541715152273457050,184,0,/imu_data_acquisition2,78113.0,-6.103515625e-05,-6.103515625e-05,-6.103515625e-05,0.730163574219,37.0625,-123.8125,-41.75,-7.44,-3.89,7.55
1541715152281733036,185,0,/imu_data_acquisition2,78121.0,-0.02880859375,0.183715820312,0.65283203125,0.734313964844,31.4375,-124.3125,-38.3125,-7.4,-3.42,7.07
1541715152291527032,186,0,/imu_data_acquisition2,78131.0,-0.0211181640625,0.177368164062,0.650695800781,0.738037109375,23.75,-122.0625,-31.9375,-7.56,-3.04,6.8
1541715152304173946,187,0,/imu_data_acquisition2,78143.0,-0.0140380859375,0.170776367188,0.649169921875,0.741088867188,15.1875,-118.4375,-23.5625,-8.54,-2.8,7.08
1541715152311497926,188,0,/imu_data_acquisition2,78151.0,-0.00738525390625,0.163940429688,0.648254394531,0.743530273438,8.0625,-115.9375,-14.625,-9.18,-2.76,7.01
1541715152321244001,189,0,/imu_data_acquisition2,78161.0,-0.00115966796875,0.156982421875,0.64794921875,0.745361328125,1.9375,-112.8125,-5.6875,-9.84,-2.71,6.51
1541715152330315113,190,0,/imu_data_acquisition2,78170.0,0.00433349609375,0.150085449219,0.648132324219,0.74658203125,-4.625,-104.9375,2.9375,-12.68,-3.18,6.2
1541715152341677904,191,0,/imu_data_acquisition2,78182.0,0.00909423828125,0.143249511719,0.649047851562,0.7470703125,-12.0,-98.0,12.8125,-12.83,-3.16,4.09
1541715152351490974,192,0,/imu_data_acquisition2,78191.0,0.0128173828125,0.136779785156,-6.103515625e-05,0.746948242188,-19.0625,-85.3125,20.8125,-14.08,-3.97,3.62
1541715152362706899,193,0,/imu_data_acquisition2,78203.0,0.0153198242188,0.130920410156,0.652404785156,0.746337890625,-26.1875,-69.8125,25.9375,-14.76,-4.52,2.69
1541715152372431993,194,0,/imu_data_acquisition2,78212.0,0.0162963867188,0.125671386719,0.654357910156,0.745483398438,-34.875,-52.0,26.1875,-17.4,-7.08,2.2
1541715152383596897,195,0,/imu_data_acquisition2,78223.0,0.0159912109375,0.12109375,0.656005859375,0.744812011719,-40.4375,-36.625,20.3125,-18.09,-7.89,1.94
1541715152391848087,196,0,/imu_data_acquisition2,78231.0,0.0142211914062,0.1171875,0.656921386719,0.74462890625,-46.6875,-20.5625,7.75,-0.72,-0.01,-0.01
1541715152400089979,197,0,/imu_data_acquisition2,78240.0,0.0113525390625,0.114013671875,0.656799316406,0.745300292969,-50.0,-6.375,-9.375,-18.7,-8.5,1.13
1541715152417788982,198,0,/imu_data_acquisition2,78257.0,0.0074462890625,0.111633300781,0.655639648438,0.746765136719,-51.6875,7.5625,-26.9375,-19.31,-5.57,2.11
1541715152425045013,199,0,/imu_data_acquisition2,78265.0,0.00250244140625,0.110290527344,0.653503417969,0.748840332031,-51.6875,22.875,-41.0625,-19.31,-5.57,2.11
1541715152429225921,200,0,/imu_data_acquisition2,78269.0,0.005615234375,0.114929199219,0.653137207031,0.748474121094,64.3125,18.0,3.3125,-33.24,39.27,34.21
1541715152444320917,201,0,/imu_data_acquisition2,78283.0,0.0272827148438,0.106567382812,0.661437988281,0.741882324219,116.25,-232.5,154.3125,8.38,8.85,-16.05
1541715152451756954,202,0,/imu_data_acquisition2,78291.0,0.0370483398438,0.0962524414062,0.662231445312,0.7421875,3.75,-166.75,20.6875,-20.88,23.49,30.83
1541715152461999893,203,0,/imu_data_acquisition2,78301.0,0.0452270507812,0.080322265625,0.660766601562,0.744873046875,-52.75,-208.0,-17.875,18.53,-11.38,-0.21
1541715152472723007,204,0,/imu_data_acquisition2,78310.0,0.04638671875,0.0763549804688,0.654479980469,0.750793457031,-17.625,-52.625,-98.3125,9.27,11.15,1.7
1541715152482275962,205,0,/imu_data_acquisition2,78321.0,0.0328979492188,0.0657348632812,0.651977539062,0.754638671875,-201.9375,4.3125,-58.3125,2.32,1.79,12.79
1541715152493664026,206,0,/imu_data_acquisition2,78331.0,0.017822265625,0.0582885742188,0.649597167969,0.7578125,-191.4375,47.0625,-54.875,1.11,-6.94,9.19
1541715152502329111,207,0,/imu_data_acquisition2,78340.0,0.00665283203125,0.0596313476562,0.644714355469,0.762084960938,-87.5625,94.125,-84.3125,-5.4,1.94,10.69
1541715152511991024,208,0,/imu_data_acquisition2,78351.0,-0.00439453125,0.0587768554688,0.641845703125,0.764587402344,-104.4375,74.1875,-52.9375,-4.46,-1.56,11.39
1541715152523770093,209,0,/imu_data_acquisition2,78361.0,-0.01220703125,0.057373046875,0.640380859375,0.765808105469,-80.25,45.6875,-28.1875,-4.97,-3.03,11.18
1541715152529988050,210,0,/imu_data_acquisition2,78370.0,-0.0157470703125,0.0571899414062,0.639221191406,0.766723632812,-32.4375,25.0,-19.75,-4.43,-0.49,9.86
1541715152543137073,211,0,/imu_data_acquisition2,78383.0,-0.0181274414062,0.0548095703125,0.638366699219,0.767578125,-38.875,-3.8125,-16.3125,-2.15,0.33,10.26
1541715152554157972,212,0,/imu_data_acquisition2,78393.0,-0.0203857421875,0.0511474609375,0.636962890625,0.768920898438,-46.5625,-16.9375,-25.0,-1.2,-0.58,9.37
1541715152562439918,213,0,/imu_data_acquisition2,78402.0,-0.0223999023438,0.0475463867188,0.63525390625,0.7705078125,-44.25,-18.3125,-29.625,-0.61,-1.42,9.04
1541715152573925971,214,0,/imu_data_acquisition2,78413.0,-0.0244140625,0.044189453125,0.633850097656,0.771789550781,-42.375,-15.6875,-24.5,-1.32,-2.25,9.61
1541715152583759069,215,0,/imu_data_acquisition2,78420.0,-0.0256958007812,0.0421752929688,0.632751464844,0.772766113281,-26.3125,-9.375,-18.5625,-1.6,-2.23,9.69
1541715152593924045,216,0,/imu_data_acquisition2,78434.0,-0.0262451171875,0.0408325195312,0.6318359375,0.773620605469,-14.125,-7.6875,-15.25,-1.68,-1.17,9.99
1541715152604217052,217,0,/imu_data_acquisition2,78444.0,-0.0267333984375,0.0394897460938,0.631042480469,0.774291992188,-14.0,-9.375,-13.0625,-1.62,0.43,9.92
1541715152613567113,218,0,/imu_data_acquisition2,78450.0,-0.0274658203125,0.0375366210938,0.630310058594,0.77490234375,-21.125,-11.875,-12.0625,-1.37,0.86,9.78
1541715152623195886,219,0,/imu_data_acquisition2,78463.0,-0.0285034179688,0.0353393554688,0.629638671875,0.775573730469,-25.0625,-12.4375,-12.25,-1.25,1.26,10.13
1541715152633846044,220,0,/imu_data_acquisition2,78473.0,-0.02978515625,0.0333862304688,0.628784179688,0.776306152344,-25.6875,-8.1875,-14.3125,-1.42,0.42,10.36
1541715152640140056,221,0,/imu_data_acquisition2,78480.0,-0.03125,0.0316162109375,0.627685546875,0.777160644531,-26.0625,-5.3125,-17.6875,-1.02,0.29,10.08
1541715152651360034,222,0,/imu_data_acquisition2,78491.0,-0.03271484375,0.0299072265625,0.62646484375,0.778198242188,-24.8125,-5.0,-4.0625,-1.49,0.34,9.73
1541715152660212039,223,0,/imu_data_acquisition2,78500.0,-0.0344848632812,0.0276489257812,0.625366210938,0.779052734375,-32.3125,-7.5625,-18.3125,-1.01,0.02,9.63
1541715152671299934,224,0,/imu_data_acquisition2,78511.0,-0.0363159179688,0.0252685546875,0.624389648438,0.779846191406,-33.9375,-8.3125,-16.5625,-1.29,-0.59,9.73
1541715152682274103,225,0,/imu_data_acquisition2,78521.0,-0.0381469726562,0.0230102539062,0.623474121094,0.780578613281,-33.0625,-6.875,-14.6875,-1.41,-1.06,9.63
1541715152694525957,226,0,/imu_data_acquisition2,78531.0,-0.0399169921875,0.0211791992188,0.622680664062,0.781188964844,-29.5625,-4.0625,-13.25,-1.95,-0.82,10.62
1541715152706979036,227,0,/imu_data_acquisition2,78545.0,-0.0413208007812,0.01953125,0.6220703125,0.781677246094,-24.6875,-4.5625,-10.625,-0.38,-1.36,9.26
1541715152725457906,229,0,/imu_data_acquisition2,78564.0,-0.0448608398438,0.0179443359375,-6.103515625e-05,0.7822265625,-17.375,8.3125,-6.6875,-0.66,-1.3,9.27
1541715152729962110,230,0,/imu_data_acquisition2,78570.0,-0.0448608398438,0.0179443359375,0.62109375,0.7822265625,-14.1875,13.5625,-5.0625,-0.94,-1.62,9.73
1541715152741852045,231,0,/imu_data_acquisition2,78581.0,-0.0465698242188,0.01806640625,0.620727539062,0.782409667969,-13.875,16.9375,-3.75,-1.72,-1.28,10.52
1541715152751405000,232,0,/imu_data_acquisition2,78591.0,-0.0497436523438,0.01904296875,0.620056152344,0.78271484375,-8.0,16.25,-4.625,-1.4,-1.07,9.35
1541715152760433912,233,0,/imu_data_acquisition2,78600.0,-0.0512084960938,0.01953125,0.619750976562,0.782836914062,-9.5625,15.1875,-3.8125,-1.93,-1.52,9.93
1541715152773026943,234,0,/imu_data_acquisition2,78611.0,-0.052490234375,0.0202026367188,0.619384765625,0.783081054688,-7.125,16.125,-4.6875,-1.12,-0.55,9.72
1541715152784084081,235,0,/imu_data_acquisition2,78620.0,-0.052490234375,0.0202026367188,0.619384765625,0.783081054688,-4.375,16.125,-4.25,-1.34,-0.87,9.68
1541715152790544033,236,0,/imu_data_acquisition2,78630.0,-0.0536499023438,0.0210571289062,0.619079589844,0.783203125,-4.25,-0.0625,-0.0625,-1.72,-0.73,9.82
1541715152801510095,237,0,/imu_data_acquisition2,78641.0,-0.0560302734375,0.0228271484375,0.618530273438,0.783447265625,-4.5,16.875,-2.375,-2.17,-0.61,10.06
1541715152811218976,238,0,/imu_data_acquisition2,78650.0,-0.0570678710938,0.0235595703125,0.618347167969,0.783447265625,-4.4375,14.625,-1.8125,-1.73,-0.51,9.97
1541715152820868968,239,0,/imu_data_acquisition2,78661.0,-0.0581665039062,0.0240478515625,0.618225097656,0.783508300781,-6.0625,12.375,-1.25,-1.85,-0.84,9.64
1541715152831799030,240,0,/imu_data_acquisition2,78671.0,-0.0581665039062,0.0240478515625,0.618225097656,0.783508300781,-5.6875,12.5,-1.4375,-1.6,-0.47,9.9
1541715152840528011,241,0,/imu_data_acquisition2,78680.0,-0.0592041015625,0.0245361328125,0.618103027344,0.783508300781,-5.4375,11.4375,-0.625,-1.7,-0.88,9.7
1541715152851079940,242,0,/imu_data_acquisition2,78691.0,-0.0614013671875,0.0257568359375,0.617858886719,0.783447265625,-4.875,11.8125,-0.875,-1.6,-0.86,9.71
1541715152862556934,243,0,/imu_data_acquisition2,78702.0,-0.06298828125,0.0267333984375,0.61767578125,0.783447265625,-4.1875,12.9375,-1.4375,-1.92,-1.08,9.7
1541715152871285915,244,0,/imu_data_acquisition2,78711.0,-0.0640258789062,0.02734375,0.617553710938,0.783447265625,-5.0,13.6875,-0.9375,-1.5,-1.07,9.7
1541715152881382942,245,0,/imu_data_acquisition2,78721.0,-0.0640258789062,0.02734375,0.617553710938,0.783447265625,-4.1875,14.125,-0.625,-1.67,-1.13,9.79
1541715152892251014,246,0,/imu_data_acquisition2,78732.0,-0.0650634765625,0.028076171875,0.617431640625,0.783386230469,-1.9375,15.875,-1.25,-1.74,-1.0,9.52
1541715152905459880,247,0,/imu_data_acquisition2,78744.0,-0.0670776367188,0.0300903320312,0.617126464844,0.783447265625,-2.0625,18.0,-1.3125,-1.5,-1.02,9.45
1541715152911698102,248,0,/imu_data_acquisition2,78751.0,-0.068603515625,0.0314331054688,0.616882324219,0.783447265625,-1.625,19.375,-1.5625,-1.97,-0.78,9.82
1541715152923114061,249,0,/imu_data_acquisition2,78762.0,-0.068603515625,0.0314331054688,0.616882324219,0.783447265625,-0.5,20.375,-1.9375,-1.63,-0.95,9.51
1541715152931057929,250,0,/imu_data_acquisition2,78771.0,-0.0700073242188,0.0328979492188,0.616577148438,0.783447265625,-1.5625,22.9375,-2.9375,-1.59,-0.62,9.83
1541715152941694974,251,0,/imu_data_acquisition2,78780.0,-0.0714111328125,0.0343627929688,0.616271972656,0.783508300781,-1.5625,22.9375,-2.9375,-2.36,-1.28,9.6
1541715152954968929,252,0,/imu_data_acquisition2,78791.0,-0.0728759765625,0.0357666015625,0.615966796875,0.783569335938,-1.3125,25.6875,-3.9375,-1.89,-0.45,9.7
1541715152964359045,253,0,/imu_data_acquisition2,78803.0,-0.0758666992188,0.0389404296875,0.615112304688,0.783813476562,-2.4375,26.0625,-4.3125,-1.79,-0.86,9.47
1541715152973371028,254,0,/imu_data_acquisition2,78813.0,-0.0758666992188,0.0389404296875,0.615112304688,0.783813476562,-3.1875,27.75,-5.0625,-2.05,-1.05,9.35
1541715152980499029,255,0,/imu_data_acquisition2,78820.0,-0.0775146484375,0.0405883789062,0.614562988281,0.783996582031,-2.8125,31.0,-6.25,-2.7,-0.97,10.04
1541715152994925022,256,0,/imu_data_acquisition2,78831.0,-0.079345703125,0.04248046875,0.613952636719,0.7841796875,-2.8125,31.0,-6.25,-2.26,-1.1,9.33
1541715153001815080,257,0,/imu_data_acquisition2,78841.0,-0.0812377929688,0.0442504882812,0.613403320312,0.784362792969,-4.1875,33.3125,-7.125,-2.49,-0.52,9.8
1541715153011130094,258,0,/imu_data_acquisition2,78851.0,-0.083251953125,0.0462036132812,0.612670898438,0.784545898438,-7.9375,33.875,-7.4375,-2.01,-0.77,9.29
1541715153026386022,259,0,/imu_data_acquisition2,78862.0,-0.0855712890625,0.0480346679688,0.611999511719,0.784790039062,-9.8125,36.125,-7.625,-2.53,-0.98,9.64
1541715153031146049,260,0,/imu_data_acquisition2,78870.0,-0.088134765625,0.0498657226562,0.611267089844,0.784912109375,-9.8125,36.125,-7.625,-2.69,-0.75,9.96
1541715153041620969,261,0,/imu_data_acquisition2,78881.0,-0.0907592773438,0.0518188476562,0.610473632812,0.785095214844,-9.125,38.9375,-8.375,-2.23,-1.01,-0.01
1541715153058254957,262,0,/imu_data_acquisition2,78891.0,-0.0936279296875,0.0540161132812,0.609619140625,0.785278320312,-8.5,40.5625,-8.625,-2.32,-0.79,9.07
1541715153063083887,263,0,/imu_data_acquisition2,78902.0,-0.096435546875,0.0563354492188,0.608764648438,0.785461425781,-11.75,42.4375,-8.25,-2.51,-1.06,9.45
1541715153073201894,264,0,/imu_data_acquisition2,78913.0,-0.0995483398438,0.0585327148438,0.60791015625,0.785522460938,-13.25,45.0625,-7.6875,-2.4,-0.6,9.3
1541715153088831901,265,0,/imu_data_acquisition2,78921.0,-0.102783203125,0.060791015625,-6.103515625e-05,0.785583496094,-13.25,45.0625,-7.6875,-2.4,-0.6,9.3
1541715153093239068,266,0,/imu_data_acquisition2,78932.0,-0.106262207031,0.0631713867188,0.606201171875,0.78564453125,-15.75,51.8125,-7.0,-3.67,-0.72,7.69
1541715153101603031,267,0,/imu_data_acquisition2,78941.0,-0.110046386719,0.0657958984375,0.605346679688,0.785583496094,-10.625,60.5625,-7.4375,-1.54,-0.97,9.0
1541715153112345933,268,0,/imu_data_acquisition2,78952.0,-0.0045166015625,-6.103515625e-05,-6.103515625e-05,0.785522460938,-20.1875,59.9375,-7.0625,-1.57,-2.77,10.35
1541715153123372077,269,0,/imu_data_acquisition2,78962.0,-0.118286132812,0.072021484375,0.603393554688,0.785339355469,-18.375,63.0,-5.875,-1.68,-3.07,9.57
1541715153130673885,270,0,/imu_data_acquisition2,78970.0,-0.122802734375,0.0752563476562,0.602478027344,0.785034179688,-18.375,63.0,-5.875,-2.53,-3.5,9.58
1541715153141618013,271,0,/imu_data_acquisition2,78981.0,-0.126770019531,0.0791015625,0.601501464844,0.784790039062,1.0625,76.75,-1.75,-3.57,-2.69,11.15
1541715153153563022,272,0,/imu_data_acquisition2,78992.0,-0.130615234375,0.084228515625,0.600524902344,0.784362792969,9.1875,81.25,2.75,-3.25,-1.35,9.84
1541715153161655902,273,0,/imu_data_acquisition2,79002.0,-0.134094238281,0.0901489257812,0.599731445312,0.78369140625,14.375,86.5,7.375,-1.89,-0.93,8.9
1541715153173397064,274,0,/imu_data_acquisition2,79013.0,-0.137451171875,0.0966796875,0.59912109375,0.782836914062,17.875,95.0,10.875,-2.68,-1.56,9.04
1541715153181159973,275,0,/imu_data_acquisition2,79020.0,-0.140991210938,0.10400390625,0.598571777344,0.781677246094,17.875,95.0,10.875,-2.68,-1.56,9.04
1541715153191127061,276,0,/imu_data_acquisition2,79031.0,-0.144775390625,0.112243652344,0.597961425781,0.7802734375,22.3125,106.0,13.4375,-3.05,-0.1,9.23
1541715153202440977,277,0,/imu_data_acquisition2,79042.0,-0.148498535156,0.121276855469,0.59716796875,0.778869628906,30.1875,123.9375,11.25,-3.34,0.15,9.75
1541715153213896036,278,0,/imu_data_acquisition2,79053.0,-0.152648925781,0.131103515625,0.596008300781,0.777404785156,30.625,137.0625,6.625,-3.49,0.39,9.95
1541715153223195075,279,0,/imu_data_acquisition2,79063.0,-0.157470703125,0.141723632812,0.594299316406,0.77587890625,23.0,149.75,0.625,-4.85,2.77,10.01
1541715153233030080,280,0,/imu_data_acquisition2,79071.0,-0.163452148438,0.152648925781,0.591979980469,0.774291992188,23.0,149.75,0.625,-4.85,2.77,10.01
1541715153242888927,281,0,/imu_data_acquisition2,79081.0,-0.172668457031,0.160827636719,0.590148925781,0.772033691406,-87.8125,142.75,-8.5,-2.27,-0.53,10.77
1541715153252557992,282,0,/imu_data_acquisition2,79092.0,-0.185607910156,0.165588378906,0.588623046875,0.769165039062,-70.6875,178.8125,-23.75,-3.6,0.7,11.23
1541715153263041019,283,0,/imu_data_acquisition2,79102.0,-0.199401855469,0.173278808594,0.585205078125,0.766662597656,-35.8125,222.5,-46.5625,-3.9,0.08,11.48
1541715153273442983,284,0,/imu_data_acquisition2,79112.0,-0.21337890625,0.185119628906,0.578857421875,0.764953613281,-38.0,246.5,-69.8125,-2.94,-2.19,11.76
1541715153282252073,285,0,/imu_data_acquisition2,79121.0,-0.228942871094,0.197875976562,0.5703125,0.763671875,-38.0,246.5,-69.8125,-4.34,2.09,10.51
1541715153292378902,286,0,/imu_data_acquisition2,79130.0,-0.244567871094,0.214965820312,0.557800292969,0.763427734375,3.125,294.75,-0.0625,-4.34,2.09,10.51
1541715153301877975,287,0,/imu_data_acquisition2,79142.0,-0.0135498046875,-6.103515625e-05,-6.103515625e-05,0.761962890625,-38.75,367.75,-136.5625,-4.91,5.21,12.1
1541715153312561988,288,0,/imu_data_acquisition2,79152.0,-0.285461425781,0.252319335938,0.526977539062,0.759704589844,-73.5625,369.3125,-124.625,-8.81,5.89,16.18
1541715153323898077,289,0,/imu_data_acquisition2,79162.0,-0.309143066406,0.269592285156,0.511352539062,0.755187988281,-101.9375,305.125,-40.6875,-4.03,27.61,32.12
1541715153331099987,290,0,/imu_data_acquisition2,79171.0,-0.32958984375,0.283447265625,0.5029296875,0.7470703125,-101.9375,305.125,-40.6875,-4.03,27.61,32.12
1541715153341902017,291,0,/imu_data_acquisition2,79182.0,-0.337463378906,0.291870117188,0.509948730469,0.735473632812,-88.125,132.625,137.4375,8.47,14.75,13.47
1541715153353813886,292,0,/imu_data_acquisition2,79193.0,-0.3349609375,0.298034667969,0.524536132812,0.723754882812,-44.9375,10.625,277.625,1.22,0.37,10.02
1541715153362373113,293,0,/imu_data_acquisition2,79202.0,-0.331115722656,0.304443359375,0.542175292969,0.709716796875,-59.5,24.0625,274.125,-1.52,-4.55,13.24
1541715153374258995,294,0,/imu_data_acquisition2,79214.0,-0.328674316406,0.310791015625,0.559326171875,0.694702148438,-63.0,9.1875,234.3125,-1.11,-8.27,14.1
1541715153381536006,295,0,/imu_data_acquisition2,79221.0,-0.326538085938,0.314758300781,0.574340820312,0.681457519531,-63.0,9.1875,234.3125,-1.11,-8.27,14.1
1541715153391885995,296,0,/imu_data_acquisition2,79232.0,-0.323486328125,0.317504882812,0.5849609375,0.672546386719,-30.5625,-6.5,168.625,-2.65,-1.98,19.15
1541715153403318881,297,0,/imu_data_acquisition2,79243.0,-0.319946289062,0.318237304688,0.591979980469,0.667785644531,3.3125,-61.9375,57.5,-2.03,1.42,17.66
1541715153413647890,298,0,/imu_data_acquisition2,79253.0,-0.315124511719,0.316467285156,0.596801757812,0.666625976562,0.0625,-98.125,36.3125,-1.73,4.33,16.09
1541715153423042058,299,0,/imu_data_acquisition2,79263.0,-0.309204101562,0.311889648438,0.601379394531,0.667419433594,-12.0625,-123.3125,37.0625,-2.69,7.58,13.17
1541715153432543039,300,0,/imu_data_acquisition2,79271.0,-0.302612304688,0.305297851562,0.606994628906,0.668395996094,-12.0625,-123.3125,37.0625,-2.69,7.58,13.17
1541715153442272901,301,0,/imu_data_acquisition2,79280.0,-0.29541015625,0.297607421875,0.614074707031,0.668701171875,-22.5625,-138.875,52.4375,-3.49,7.11,10.98
1541715153451973915,302,0,/imu_data_acquisition2,79292.0,-0.287353515625,0.289794921875,0.622497558594,0.667785644531,-25.5625,-146.625,74.125,-2.05,-0.01,-0.01
1541715153462837934,303,0,/imu_data_acquisition2,79303.0,-0.278259277344,0.282592773438,0.631713867188,0.666076660156,-19.375,-149.4375,92.125,-7.86,1.93,7.44
1541715153473164081,304,0,/imu_data_acquisition2,79313.0,-0.268249511719,0.276306152344,0.640930175781,0.664001464844,13.4375,-14.9375,-0.0625,-8.43,0.56,6.93
1541715153480226993,305,0,/imu_data_acquisition2,79320.0,-0.257385253906,0.271301269531,0.649475097656,0.662109375,13.4375,-142.9375,101.0625,-8.43,0.56,6.93
1541715153491306066,306,0,/imu_data_acquisition2,79331.0,-0.245971679688,0.267456054688,0.656921386719,0.660583496094,31.3125,-135.75,95.0,-7.79,0.61,7.73
1541715153502773046,307,0,/imu_data_acquisition2,79342.0,-0.234313964844,0.264526367188,0.663452148438,0.659545898438,44.75,-129.125,87.5625,-8.1,-0.51,8.92
1541715153515758037,308,0,/imu_data_acquisition2,79353.0,-0.222839355469,0.261962890625,0.669128417969,0.658813476562,53.5625,-121.9375,70.875,-8.19,-0.72,8.94
1541715153526295900,309,0,/imu_data_acquisition2,79366.0,-0.211364746094,0.259521484375,0.674133300781,0.658447265625,53.5625,-121.9375,70.875,-8.33,-3.53,8.61
1541715153534792900,310,0,/imu_data_acquisition2,79373.0,-0.200500488281,0.256713867188,0.678405761719,0.658508300781,48.6875,-119.75,59.3125,-8.32,-4.65,8.49
1541715153541865110,311,0,/imu_data_acquisition2,79382.0,-0.190185546875,0.253234863281,0.681762695312,0.659423828125,45.0625,-120.875,42.0,-8.32,-2.09,-0.01
1541715153557755947,312,0,/imu_data_acquisition2,79393.0,-0.180847167969,0.249206542969,0.683898925781,0.661437988281,38.0,-117.6875,19.375,-7.82,-4.23,8.55
1541715153572740077,314,0,/imu_data_acquisition2,79413.0,-0.162475585938,0.240112304688,0.683715820312,0.669677734375,55.4375,-128.0625,-40.4375,-6.4,-1.82,7.29
1541715153584760904,315,0,/imu_data_acquisition2,79423.0,-0.152709960938,0.235534667969,0.682006835938,0.67529296875,55.4375,-128.0625,-40.4375,-5.78,-1.24,6.72
1541715153594014883,316,0,/imu_data_acquisition2,79434.0,-0.142883300781,0.23095703125,0.679992675781,0.681030273438,57.625,-128.25,-43.25,-5.78,-1.24,6.72
1541715153603924989,317,0,/imu_data_acquisition2,79442.0,-0.133056640625,0.226440429688,0.678161621094,0.686401367188,57.0,-127.3125,-6.4375,-5.64,-2.05,6.5
1541715153615256071,318,0,/imu_data_acquisition2,79454.0,-0.123046875,0.222045898438,0.676513671875,0.691284179688,64.1875,-125.9375,-32.3125,-5.84,-3.67,6.58
1541715153624062061,319,0,/imu_data_acquisition2,79464.0,-0.112670898438,0.218017578125,0.674682617188,0.696105957031,70.75,-13.6875,-0.0625,-0.85,-0.01,-0.01
1541715153633522033,320,0,/imu_data_acquisition2,79473.0,-0.101989746094,0.214294433594,0.672424316406,0.701110839844,70.75,-125.6875,-36.0,-5.97,-4.57,6.84
1541715153643022060,321,0,/imu_data_acquisition2,79482.0,-0.0911865234375,0.210693359375,0.669555664062,0.706359863281,74.6875,-126.125,-42.375,-6.06,-4.66,7.09
1541715153653718948,322,0,/imu_data_acquisition2,79494.0,-0.0805053710938,0.20703125,0.666259765625,0.711853027344,70.875,-124.9375,-53.625,-6.76,-4.59,8.16
1541715153665185928,323,0,/imu_data_acquisition2,79504.0,-0.0701293945312,0.203125,0.66259765625,0.717529296875,65.3125,-126.4375,-56.375,-7.01,-4.6,8.14
1541715153674185037,324,0,/imu_data_acquisition2,79513.0,-0.06005859375,0.198791503906,0.658752441406,0.72314453125,65.3125,-126.4375,-56.375,-7.34,-4.41,7.96
1541715153683018922,325,0,/imu_data_acquisition2,79523.0,-0.05029296875,0.193969726562,0.654846191406,0.728698730469,59.0625,-127.9375,-57.0,-9.16,-4.54,8.19
1541715153693476915,326,0,/imu_data_acquisition2,79533.0,-0.0408935546875,0.188720703125,0.651062011719,0.734008789062,52.0625,-127.875,-55.25,-9.16,-4.54,8.19
1541715153703758955,327,0,/imu_data_acquisition2,79543.0,-0.0320434570312,0.183166503906,0.647583007812,0.738952636719,43.875,-125.9375,-51.0625,-9.87,-4.12,6.48
1541715153713633060,328,0,/imu_data_acquisition2,79553.0,-0.0234985351562,0.177368164062,0.64453125,0.743347167969,30.9375,-118.625,-33.9375,-11.64,-4.11,5.58
1541715153725289106,329,0,/imu_data_acquisition2,79564.0,-0.015625,0.171569824219,0.642150878906,0.747009277344,20.875,-111.25,-21.0,-12.57,-4.55,4.91
1541715153733249902,330,0,/imu_data_acquisition2,79572.0,-0.008544921875,0.165588378906,0.640625,0.749694824219,20.875,-111.25,-21.0,-12.57,-4.55,4.91
1541715153743305921,331,0,/imu_data_acquisition2,79583.0,-0.00262451171875,0.159606933594,0.64013671875,0.751525878906,8.4375,-101.75,-7.125,-13.58,-5.05,4.41
1541715153754184007,332,0,/imu_data_acquisition2,79594.0,0.00201416015625,0.153625488281,0.640502929688,0.75244140625,-5.0,-0.0625,-0.0625,-13.86,-5.6,3.23
1541715153763875961,333,0,/imu_data_acquisition2,79603.0,0.0050048828125,0.147827148438,0.641540527344,0.752685546875,-19.25,-74.8125,13.0,-17.37,-7.75,1.76
1541715153774523973,334,0,/imu_data_acquisition2,79614.0,0.0067138671875,0.141967773438,0.64306640625,0.752502441406,-44.25,-47.875,16.4375,-17.8,-8.25,0.81
1541715153783531904,335,0,/imu_data_acquisition2,79620.0,0.00665283203125,0.136535644531,0.644592285156,0.752197265625,-44.25,-47.875,16.4375,-17.8,-8.25,0.81
1541715153794187068,336,0,/imu_data_acquisition2,79634.0,0.00482177734375,0.131591796875,0.645812988281,0.752075195312,-56.0625,-29.125,8.875,-17.98,-7.36,1.74
1541715153804194927,337,0,/imu_data_acquisition2,79644.0,0.0015869140625,0.127197265625,0.646240234375,0.75244140625,-63.0,-15.4375,-0.0625,-17.41,-6.14,1.27
1541715153814620018,338,0,/imu_data_acquisition2,79654.0,-6.103515625e-05,-6.103515625e-05,-6.103515625e-05,0.753479003906,-67.5,-4.375,-18.1875,-39.95,24.8,30.78
1541715153824647903,339,0,/imu_data_acquisition2,79664.0,-0.00750732421875,0.119934082031,0.64453125,0.755065917969,-66.75,5.6875,-30.625,-10.69,22.92,-1.67
1541715153834021091,340,0,/imu_data_acquisition2,79673.0,-0.00457763671875,0.121826171875,0.644226074219,0.755065917969,41.1875,-5.875,1.6875,-10.69,22.92,-1.67
1541715153843915939,341,0,/imu_data_acquisition2,79680.0,0.017822265625,0.117980957031,0.651306152344,0.749389648438,160.125,-197.0625,138.75,-19.88,31.64,21.75
1541715153855062961,342,0,/imu_data_acquisition2,79694.0,0.0281982421875,0.106689453125,0.653503417969,0.748840332031,-56.0,-225.5625,-14.8125,19.24,9.3,-2.37
1541715153866765975,343,0,/imu_data_acquisition2,79705.0,0.0369873046875,0.08935546875,0.652404785156,0.751647949219,-22.0,-99.6875,-93.8125,5.57,9.21,6.35
1541715153878357887,344,0,/imu_data_acquisition2,79714.0,0.0404052734375,0.0820922851562,0.646240234375,0.757629394531,-162.0625,-16.125,-77.25,1.99,0.17,11.3
1541715153886957883,345,0,/imu_data_acquisition2,79725.0,0.0303344726562,0.072509765625,0.642333984375,0.762390136719,-203.6875,12.9375,-51.5,-1.98,-0.35,8.76
1541715153893558025,346,0,/imu_data_acquisition2,79732.0,0.0162353515625,0.0623779296875,0.640197753906,0.765502929688,-203.6875,12.9375,-51.5,-1.98,-0.35,8.76
1541715153902220964,347,0,/imu_data_acquisition2,79742.0,0.00445556640625,0.0616455078125,0.634826660156,0.770202636719,-109.375,77.4375,-92.125,-4.28,0.77,10.19
1541715153916387081,348,0,/imu_data_acquisition2,79754.0,-0.00701904296875,0.0611572265625,0.630859375,0.7734375,-92.875,55.5625,-32.9375,-5.8,-0.73,11.01
1541715153931745052,349,0,/imu_data_acquisition2,79765.0,-0.0162353515625,0.059814453125,0.629150390625,0.774841308594,-37.25,37.0625,-21.125,-3.49,-0.61,9.78
1541715153932615995,350,0,/imu_data_acquisition2,79771.0,-0.020751953125,0.0602416992188,0.627868652344,0.775695800781,-37.25,37.0625,-21.125,-3.49,-0.61,9.78
1541715153944132089,351,0,/imu_data_acquisition2,79783.0,-0.0237426757812,0.05908203125,0.627319335938,0.776123046875,-35.75,11.9375,-10.75,-2.23,0.96,10.09
1541715153954030036,352,0,/imu_data_acquisition2,79792.0,-0.0264282226562,0.0570068359375,0.626159667969,0.777160644531,-38.625,0.1875,-4.875,-2.41,0.22,9.8
1541715153964448928,353,0,/imu_data_acquisition2,79804.0,-0.0293579101562,0.0537719726562,0.62451171875,0.778625488281,-50.0625,-8.375,-29.0625,-1.96,-2.08,9.93
1541715153975732088,354,0,/imu_data_acquisition2,79814.0,-0.0325317382812,0.049560546875,0.622863769531,0.780090332031,-58.25,-15.875,-29.375,-0.97,-2.81,9.36
1541715153980309009,355,0,/imu_data_acquisition2,79820.0,-0.0347290039062,0.0458984375,0.621337890625,0.781433105469,-45.6875,-17.625,-26.1875,-0.97,-2.81,9.36
1541715153991794109,356,0,/imu_data_acquisition2,79831.0,-0.0361328125,0.0430908203125,0.620361328125,0.782287597656,-32.875,-16.0625,-17.5,-0.41,-2.12,9.14
1541715154003222942,357,0,/imu_data_acquisition2,79842.0,-0.036865234375,0.0413208007812,0.619689941406,0.782897949219,-19.0625,-10.5625,-11.75,-1.76,-1.09,9.01
1541715154015453100,358,0,/imu_data_acquisition2,79854.0,-0.0372924804688,0.0407104492188,0.618957519531,0.783447265625,-8.0625,-2.875,-11.3125,-2.36,0.75,10.0
1541715154024055957,359,0,/imu_data_acquisition2,79864.0,-0.0380249023438,0.0394897460938,-6.103515625e-05,0.783996582031,-15.0625,-5.9375,-11.0,-1.64,0.55,10.16
1541715154031889915,360,0,/imu_data_acquisition2,79871.0,-0.0389404296875,0.0377197265625,0.617553710938,0.784606933594,-20.625,-9.0,-12.5,-1.39,0.2,9.94
1541715154041241884,361,0,/imu_data_acquisition2,79880.0,-0.0400390625,0.0359497070312,0.616577148438,0.785461425781,-22.4375,-8.125,-16.6875,-1.1,0.32,9.93
1541715154052134990,362,0,/imu_data_acquisition2,79891.0,-0.0414428710938,0.0343017578125,0.615295410156,0.786437988281,-24.25,-5.3125,-0.0625,-1.61,0.02,10.07
1541715154063069105,363,0,/imu_data_acquisition2,79902.0,-0.0429077148438,0.0325927734375,0.614074707031,0.787414550781,-25.1875,-4.6875,-20.4375,-1.38,0.19,9.34
1541715154074836969,364,0,/imu_data_acquisition2,79914.0,-0.0442504882812,0.03076171875,0.612854003906,0.788330078125,-24.75,-7.125,-19.25,-1.15,-0.02,9.58
1541715154083698034,365,0,/imu_data_acquisition2,79921.0,-0.0459594726562,0.028564453125,0.61181640625,0.789123535156,-30.6875,-7.9375,-16.875,-1.32,-0.36,10.04
1541715154090178012,366,0,/imu_data_acquisition2,79930.0,-0.047607421875,0.0263671875,0.610961914062,0.789794921875,-31.0625,-8.4375,-15.0,-2.03,-1.55,9.7
1541715154101684093,367,0,/imu_data_acquisition2,79941.0,-0.0492553710938,0.0242919921875,0.610107421875,0.790405273438,-29.5,-7.0625,-13.75,-1.33,-0.59,10.57
1541715154113440036,368,0,/imu_data_acquisition2,79953.0,-0.00396728515625,-6.103515625e-05,-6.103515625e-05,0.790954589844,-29.125,-7.5,-12.75,0.13,-0.01,-0.01
1541715154122066974,369,0,/imu_data_acquisition2,79961.0,-0.0521240234375,0.0208129882812,0.608703613281,0.791442871094,-22.3125,-3.75,-10.5625,-1.35,-2.05,9.79
1541715154131525039,370,0,/imu_data_acquisition2,79971.0,-0.0538940429688,0.0196533203125,0.608215332031,0.791687011719,-24.4375,2.25,-7.75,-1.11,-1.24,9.12
1541715154141073942,371,0,/imu_data_acquisition2,79980.0,-0.055419921875,0.0194702148438,0.607849121094,0.791870117188,-15.375,8.875,-4.875,-1.0,-1.59,9.3
1541715154149869918,372,0,/imu_data_acquisition2,79990.0,-0.056884765625,0.0192260742188,0.607543945312,0.792053222656,-15.375,8.875,-4.875,-2.19,-1.89,9.94
1541715154164021015,373,0,/imu_data_acquisition2,80003.0,-0.0584106445312,0.0193481445312,0.607177734375,0.792175292969,-12.9375,11.75,-4.3125,-1.3,-0.71,9.57
1541715154174458980,374,0,/imu_data_acquisition2,80013.0,-0.059326171875,0.0198364257812,0.606811523438,0.792419433594,-5.0,11.5625,-5.0625,-1.46,-1.49,8.99
1541715154180435895,375,0,/imu_data_acquisition2,80020.0,-0.0602416992188,0.0205078125,0.6064453125,0.792541503906,-3.3125,13.125,-3.9375,-1.01,-0.81,9.22
1541715154190844058,376,0,/imu_data_acquisition2,80031.0,-0.0142211914062,-6.103515625e-05,-6.103515625e-05,0.792663574219,-1.5,14.75,-3.0,-1.77,-1.06,-0.01
1541715154200845956,377,0,/imu_data_acquisition2,80041.0,-0.0150756835938,-6.103515625e-05,-6.103515625e-05,0.792785644531,-1.5,14.75,-3.0,-1.57,-1.35,9.51
1541715154213788986,378,0,/imu_data_acquisition2,80054.0,-0.0626831054688,0.0233154296875,0.605773925781,0.792846679688,0.6875,14.5,-1.4375,-2.11,-1.03,10.19
1541715154220158100,379,0,/imu_data_acquisition2,80060.0,-0.0633544921875,0.024169921875,0.605651855469,0.792846679688,-0.25,13.375,-0.5,-1.95,-0.77,10.09
1541715154233715057,380,0,/imu_data_acquisition2,80072.0,-6.103515625e-05,-6.103515625e-05,-6.103515625e-05,0.792785644531,-1.3125,12.25,0.1875,-1.94,-0.91,-0.01
1541715154241555929,381,0,/imu_data_acquisition2,80081.0,-0.064697265625,0.0257568359375,0.605529785156,0.792785644531,-0.0625,11.8125,0.1875,-1.88,-0.67,9.89
1541715154257443904,382,0,/imu_data_acquisition2,80091.0,-0.0653076171875,0.0264282226562,-6.103515625e-05,0.792663574219,-1.375,11.1875,1.1875,-1.76,-1.13,9.69
1541715154266231060,383,0,/imu_data_acquisition2,80103.0,-0.06591796875,0.0272216796875,0.605590820312,0.792541503906,-0.4375,11.625,1.375,-2.11,-1.11,9.86
1541715154272311925,384,0,/imu_data_acquisition2,80110.0,-0.0668334960938,0.0281982421875,0.605651855469,0.792419433594,0.3125,10.6875,2.125,-1.45,-0.75,9.44
1541715154284117937,385,0,/imu_data_acquisition2,80121.0,-0.06787109375,0.0291748046875,0.605712890625,0.792236328125,-0.5625,12.125,2.1875,-1.75,-1.0,9.71
1541715154292733907,386,0,/imu_data_acquisition2,80131.0,-0.00592041015625,-6.103515625e-05,-6.103515625e-05,0.792114257812,1.375,12.625,2.3125,-1.65,-1.1,9.29
1541715154300192117,387,0,/imu_data_acquisition2,80140.0,-0.0691528320312,0.0311279296875,0.605834960938,0.791931152344,0.0625,15.0625,1.9375,-1.95,-1.03,9.8
1541715154312702894,388,0,/imu_data_acquisition2,80152.0,-0.0698852539062,0.0322875976562,0.605895996094,0.791809082031,1.0,15.875,2.3125,-1.47,-0.99,9.43
1541715154332190036,390,0,/imu_data_acquisition2,80172.0,-0.0721435546875,0.03515625,0.605895996094,0.79150390625,1.75,19.75,2.1875,-1.33,-0.75,9.24
1541715154343072891,391,0,/imu_data_acquisition2,80182.0,-0.07373046875,0.0368041992188,0.605895996094,0.791259765625,0.5,23.0625,2.25,-2.13,-1.21,9.68
1541715154351610898,392,0,/imu_data_acquisition2,80190.0,-0.0750732421875,0.03857421875,0.605834960938,0.791137695312,1.5625,24.125,1.5625,-1.58,-0.76,9.35
1541715154364953041,393,0,/imu_data_acquisition2,80205.0,-0.0765991210938,0.04052734375,0.605712890625,0.790954589844,1.3125,26.6875,0.75,-1.99,-1.0,9.4
1541715154384121894,395,0,/imu_data_acquisition2,80224.0,-0.0796508789062,0.0446166992188,0.605163574219,0.790832519531,0.1875,31.3125,-1.75,-2.03,-0.98,9.28
1541715154392970085,396,0,/imu_data_acquisition2,80233.0,-0.0814208984375,0.0467529296875,0.604736328125,0.790893554688,-0.8125,33.1875,-2.9375,-1.94,-0.65,9.49
1541715154403606891,397,0,/imu_data_acquisition2,80241.0,-0.0834350585938,0.0489501953125,0.604248046875,0.790893554688,-2.5,35.5,-3.5,-2.67,-1.02,-0.01
1541715154418989896,398,0,/imu_data_acquisition2,80256.0,-0.08544921875,0.0511474609375,0.603759765625,0.790954589844,-2.8125,35.5625,-4.125,-2.02,-0.6,9.4
1541715154434286117,400,0,/imu_data_acquisition2,80274.0,-0.090576171875,0.0553588867188,0.602600097656,0.790954589844,-10.375,39.6875,-4.625,-2.06,-0.94,9.26
1541715154441489934,401,0,/imu_data_acquisition2,80280.0,-0.093505859375,0.0576171875,0.601928710938,0.790954589844,-10.8125,42.625,-5.6875,-2.52,-0.65,9.97
1541715154451687097,402,0,/imu_data_acquisition2,80291.0,-0.0966186523438,0.0599975585938,0.601196289062,0.790954589844,-11.9375,45.0625,-6.75,-2.67,-0.59,10.04
1541715154462699890,403,0,/imu_data_acquisition2,80301.0,-0.0997314453125,0.0624389648438,0.600402832031,0.791015625,-11.3125,46.4375,-7.0625,-1.96,-0.77,8.7
1541715154477452039,404,0,/imu_data_acquisition2,80316.0,-0.103088378906,0.0650024414062,0.599548339844,0.791015625,-12.5,48.75,-7.1875,-2.52,-0.32,9.25
1541715154482121944,405,0,/imu_data_acquisition2,80321.0,-0.106567382812,0.0678100585938,0.598693847656,0.790954589844,-12.25,51.5625,-6.75,-2.52,-0.32,9.25
1541715154489748001,406,0,/imu_data_acquisition2,80329.0,-0.110229492188,0.07080078125,0.597900390625,0.790771484375,-12.25,55.4375,-5.5,-2.86,-0.6,7.49
1541715154507848978,407,0,/imu_data_acquisition2,80345.0,-0.114196777344,0.0743408203125,0.596862792969,0.790710449219,-11.3125,62.5,-8.0,-3.7,-1.34,7.93
1541715154514614105,408,0,/imu_data_acquisition2,80353.0,-0.11865234375,0.077392578125,0.595947265625,0.790405273438,-19.8125,61.3125,-6.5,-2.96,-3.8,11.6
1541715154519639015,409,0,/imu_data_acquisition2,80360.0,-0.0137329101562,-6.103515625e-05,-6.103515625e-05,0.790100097656,-17.0625,64.625,-5.5625,-2.83,-3.54,11.35
1541715154532201051,410,0,/imu_data_acquisition2,80372.0,-0.127136230469,0.0849609375,0.594055175781,0.789733886719,-7.8125,69.125,-3.875,-1.64,-2.96,9.67
1541715154546890974,411,0,/imu_data_acquisition2,80380.0,-0.0059814453125,-6.103515625e-05,-6.103515625e-05,0.789184570312,2.4375,80.1875,0.125,-2.88,-3.64,10.29
1541715154550570011,412,0,/imu_data_acquisition2,80390.0,-0.134399414062,0.0966186523438,-6.103515625e-05,0.788391113281,10.875,83.8125,4.75,-2.93,-0.43,9.63
1541715154561824083,413,0,/imu_data_acquisition2,80401.0,-0.1376953125,0.103210449219,0.592041015625,0.787292480469,14.25,86.8125,10.0625,-2.36,-0.93,8.3
1541715154576694011,414,0,/imu_data_acquisition2,80416.0,-0.141235351562,0.110656738281,0.591674804688,0.785949707031,17.6875,95.9375,13.6875,-1.98,-1.54,8.46
1541715154580648899,415,0,/imu_data_acquisition2,80420.0,-0.144836425781,0.119140625,0.59130859375,0.784301757812,23.1875,107.0625,17.8125,-3.66,-1.28,10.06
1541715154591933965,416,0,/imu_data_acquisition2,80431.0,-0.148315429688,0.128479003906,0.590759277344,0.782592773438,31.0,114.75,17.8125,-2.67,0.57,8.94
1541715154602348089,417,0,/imu_data_acquisition2,80441.0,-0.152404785156,0.138549804688,0.590026855469,0.780639648438,30.25,126.3125,18.3125,-2.94,-0.1,9.93
1541715154611258029,418,0,/imu_data_acquisition2,80450.0,-0.157409667969,0.149658203125,0.588806152344,0.778564453125,29.75,142.4375,14.875,-3.59,1.08,10.64
1541715154621953964,419,0,/imu_data_acquisition2,80461.0,-0.1640625,0.160583496094,0.587219238281,0.776184082031,13.0625,154.3125,11.0,-4.58,4.05,10.74
1541715154632056951,420,0,/imu_data_acquisition2,80471.0,-0.175598144531,0.166625976562,0.586975097656,0.772583007812,-70.25,143.5,12.8125,-4.16,2.95,10.64
1541715154641156911,421,0,/imu_data_acquisition2,80480.0,-0.190551757812,0.171203613281,0.587036132812,0.768005371094,-115.0,154.4375,11.9375,-2.42,-1.87,11.36
1541715154651468038,422,0,/imu_data_acquisition2,80491.0,-0.205322265625,0.18115234375,0.584228515625,0.764038085938,-68.1875,207.4375,-5.4375,-0.8,-0.01,-0.01
1541715154661925077,423,0,/imu_data_acquisition2,80501.0,-0.220642089844,0.194030761719,0.578674316406,0.760803222656,-45.875,243.25,-29.25,-3.76,0.15,11.46
1541715154672854900,424,0,/imu_data_acquisition2,80513.0,-0.237487792969,0.208801269531,0.570251464844,0.758178710938,-37.875,276.625,-57.875,-3.02,-2.41,11.03
1541715154681845903,425,0,/imu_data_acquisition2,80521.0,-0.254577636719,0.228210449219,0.558288574219,0.755920410156,1.0625,328.6875,-80.4375,-4.44,1.74,9.26
1541715154692277908,426,0,/imu_data_acquisition2,80531.0,-0.27587890625,0.247375488281,0.544982910156,0.752136230469,-39.4375,362.875,-93.4375,-7.3,-1.4,11.34
1541715154701129913,427,0,/imu_data_acquisition2,80540.0,-0.298950195312,0.265625,0.530029296875,0.747802734375,-57.9375,373.0625,-113.1875,-4.97,4.89,12.63
1541715154711297035,428,0,/imu_data_acquisition2,80551.0,-0.321594238281,0.281005859375,0.519653320312,0.739990234375,-99.0,339.8125,-59.8125,-5.57,27.68,35.18
1541715154721664905,429,0,/imu_data_acquisition2,80561.0,-0.334045410156,0.290588378906,0.522583007812,0.728637695312,-103.3125,187.125,90.375,-4.74,26.03,31.38
1541715154731127023,430,0,/imu_data_acquisition2,80570.0,-0.334777832031,0.296936035156,0.535949707031,0.715881347656,-63.375,50.0625,217.25,-0.33,16.3,23.26
1541715154741921901,431,0,/imu_data_acquisition2,80581.0,-0.331176757812,0.302978515625,0.552856445312,0.702087402344,-44.9375,9.875,267.5,3.0,3.48,9.38
1541715154751060962,432,0,/imu_data_acquisition2,80590.0,-0.329345703125,0.309265136719,0.569763183594,0.686462402344,-65.625,30.25,273.8125,-0.21,-1.12,10.46
1541715154761281967,433,0,/imu_data_acquisition2,80601.0,-6.103515625e-05,-6.103515625e-05,-6.103515625e-05,0.672302246094,-75.25,20.0,236.75,-2.47,-5.67,13.31
1541715154781394958,435,0,/imu_data_acquisition2,80621.0,-0.32421875,0.316650390625,0.602722167969,0.65673828125,-20.25,-15.3125,104.5625,-1.38,-4.46,17.2
1541715154791399002,436,0,/imu_data_acquisition2,80631.0,-0.32080078125,0.315368652344,0.606872558594,0.655212402344,-4.4375,-44.125,50.875,-1.25,-0.94,17.62
1541715154802231073,437,0,/imu_data_acquisition2,80641.0,-0.316345214844,0.3115234375,0.610290527344,0.656066894531,-2.1875,-77.75,22.5625,-0.85,2.83,16.71
1541715154812623023,438,0,/imu_data_acquisition2,80652.0,-0.311096191406,0.305603027344,0.614440917969,0.657470703125,-11.6875,-105.0,19.0625,-0.93,7.42,13.44
1541715154821923017,439,0,/imu_data_acquisition2,80661.0,-0.304992675781,0.298583984375,0.619995117188,0.658386230469,-20.6875,-123.0625,32.875,-1.44,8.44,11.87
1541715154833101987,440,0,/imu_data_acquisition2,80670.0,-0.2978515625,0.291320800781,0.627075195312,0.658203125,-22.9375,-133.5,55.6875,-2.31,8.75,10.72
1541715154842370033,441,0,/imu_data_acquisition2,80681.0,-0.289367675781,0.28466796875,0.635375976562,0.656921386719,-17.0625,-140.0,79.9375,-4.32,7.27,8.82
1541715154851752996,442,0,/imu_data_acquisition2,80691.0,-0.279541015625,0.278869628906,0.644470214844,0.65478515625,-4.4375,-142.625,99.875,-5.34,5.91,7.91
1541715154862345933,443,0,/imu_data_acquisition2,80699.0,-0.268493652344,0.2744140625,-6.103515625e-05,0.652282714844,13.125,-140.9375,111.625,-6.1,4.32,7.09
1541715154877367973,444,0,/imu_data_acquisition2,80716.0,-0.256591796875,0.271301269531,0.662048339844,0.649780273438,31.75,-0.0625,-0.0625,-6.48,1.31,6.2
1541715154882093906,445,0,/imu_data_acquisition2,80721.0,-0.244445800781,0.269348144531,0.669311523438,0.647827148438,49.125,-13.8125,-0.0625,-8.94,-0.12,8.4
1541715154891504049,446,0,/imu_data_acquisition2,80730.0,-0.232055664062,0.26806640625,0.675231933594,0.646789550781,62.6875,-122.0,89.1875,-8.02,-0.94,7.92
1541715154902677059,447,0,/imu_data_acquisition2,80741.0,-0.219848632812,0.266967773438,0.679809570312,0.646728515625,70.6875,-118.625,71.3125,-8.07,-1.11,8.8
1541715154912533044,448,0,/imu_data_acquisition2,80751.0,-0.208129882812,0.265502929688,0.683349609375,0.6474609375,68.5,-117.0,54.375,-8.76,-2.69,9.42
1541715154920378923,449,0,/imu_data_acquisition2,80760.0,-0.197204589844,0.26318359375,0.685974121094,0.649047851562,60.5,-117.1875,36.3125,-8.67,-3.73,9.44
1541715154931768894,450,0,/imu_data_acquisition2,80771.0,-0.187316894531,0.259948730469,0.687622070312,0.651550292969,50.25,-117.0,15.5625,-9.28,-4.85,9.49
1541715154941207885,451,0,/imu_data_acquisition2,80780.0,-0.187316894531,0.259948730469,0.687622070312,0.651550292969,50.375,-120.125,-7.25,-8.73,-2.43,-0.01
1541715154950310945,452,0,/imu_data_acquisition2,80790.0,-0.167907714844,0.252319335938,0.687072753906,0.660400390625,58.0,-122.6875,-26.6875,-8.45,-4.12,8.46
1541715154961746931,453,0,/imu_data_acquisition2,80801.0,-6.103515625e-05,-6.103515625e-05,-6.103515625e-05,0.666076660156,63.25,-125.4375,-37.3125,-8.3,-3.15,7.94
1541715154974024057,454,0,/imu_data_acquisition2,80813.0,-0.147827148438,0.244445800781,0.683532714844,0.671691894531,63.0,-126.4375,-37.8125,-7.93,-2.67,6.79
1541715154981290102,455,0,/imu_data_acquisition2,80821.0,-0.138000488281,0.240417480469,0.681945800781,0.676818847656,59.1875,-123.625,-32.5625,-8.05,-3.47,6.4
1541715154989859104,456,0,/imu_data_acquisition2,80829.0,-0.138000488281,0.240417480469,0.681945800781,0.676818847656,56.4375,-0.0625,-0.0625,-8.11,-4.65,5.92
1541715155000868082,457,0,/imu_data_acquisition2,80840.0,-0.128479003906,0.236511230469,0.680541992188,0.681457519531,55.25,-114.8125,-28.625,-8.12,-5.75,5.66
1541715155011652946,458,0,/imu_data_acquisition2,80851.0,-0.110412597656,0.229187011719,0.676940917969,0.690673828125,55.0625,-14.0,-0.0625,-8.3,-6.72,5.83
1541715155019978046,459,0,/imu_data_acquisition2,80860.0,-0.101928710938,0.225708007812,0.67431640625,0.695678710938,55.5,-106.0625,-43.5,-8.02,-6.56,6.02
1541715155031749010,460,0,/imu_data_acquisition2,80871.0,-0.093994140625,0.222290039062,0.671081542969,0.700988769531,53.125,-101.9375,-51.3125,-7.74,-6.12,6.65
1541715155041268110,461,0,/imu_data_acquisition2,80881.0,-0.0866088867188,0.218566894531,0.667663574219,0.706359863281,46.4375,-100.1875,-55.75,-7.14,-5.08,7.96
1541715155050184011,462,0,/imu_data_acquisition2,80890.0,-0.07958984375,0.214233398438,0.664245605469,0.711730957031,38.75,-6.0625,-0.0625,-6.91,-4.33,8.08
1541715155061419010,463,0,/imu_data_acquisition2,80901.0,-0.07275390625,0.209228515625,0.6611328125,0.716796875,30.9375,-105.375,-54.125,-6.56,-3.58,7.55
1541715155073144912,464,0,/imu_data_acquisition2,80913.0,-0.06640625,0.203796386719,0.658447265625,0.721496582031,21.8125,-105.375,-48.125,-6.35,-2.71,7.04
1541715155080997943,465,0,/imu_data_acquisition2,80921.0,-0.0606079101562,0.197937011719,0.656311035156,0.725524902344,12.5625,-103.5,-40.4375,-6.52,-2.53,7.21
1541715155091872930,466,0,/imu_data_acquisition2,80930.0,-0.0551147460938,0.191772460938,0.654724121094,0.729064941406,5.3125,-102.3125,-32.75,-6.85,-2.3,7.41
1541715155101310968,467,0,/imu_data_acquisition2,80941.0,-0.0498657226562,0.185302734375,0.653564453125,0.732116699219,0.0625,-103.0625,-25.375,-6.96,-2.02,7.15
1541715155111191034,468,0,/imu_data_acquisition2,80951.0,-0.0448608398438,0.178649902344,0.652954101562,0.734680175781,-5.8125,-101.4375,-18.3125,-7.54,-1.61,6.72
1541715155120117902,469,0,/imu_data_acquisition2,80960.0,-0.040283203125,0.171752929688,0.652709960938,0.736755371094,-11.375,-99.8125,-12.0,-8.11,-1.51,6.67
1541715155131807088,470,0,/imu_data_acquisition2,80971.0,-0.0358276367188,0.164733886719,0.65283203125,0.738525390625,-14.6875,-99.0625,-7.0,-8.67,-1.58,6.14
1541715155142628908,471,0,/imu_data_acquisition2,80981.0,-0.0358276367188,0.164733886719,0.65283203125,0.738525390625,-15.875,-96.625,-4.0625,-10.24,-1.79,4.79
1541715155150688886,472,0,/imu_data_acquisition2,80990.0,-0.0274047851562,0.151306152344,0.653259277344,0.741333007812,-14.0,-91.5625,-3.0625,-11.75,-2.05,3.62
1541715155161006927,473,0,/imu_data_acquisition2,81001.0,-0.0274047851562,0.151306152344,0.653259277344,0.741333007812,-13.3125,-83.4375,-2.375,-12.54,-2.04,3.07
1541715155175987958,474,0,/imu_data_acquisition2,81013.0,-0.023681640625,0.145324707031,0.653503417969,0.742492675781,-14.0625,-74.0625,-0.375,-14.07,-2.51,1.66
1541715155181627988,475,0,/imu_data_acquisition2,81021.0,-0.0180053710938,0.135314941406,0.654113769531,0.743957519531,-14.625,-60.8125,1.375,-14.46,-3.19,1.05
1541715155191690921,476,0,/imu_data_acquisition2,81031.0,-0.0180053710938,0.135314941406,0.654113769531,0.743957519531,-16.625,-45.8125,1.0,-16.4,-4.14,1.92
1541715155202014923,477,0,/imu_data_acquisition2,81041.0,-0.0164794921875,0.131469726562,0.654479980469,0.744384765625,-17.0625,-32.0625,-2.5,-26.5,-7.68,3.86
1541715155211661100,478,0,/imu_data_acquisition2,81051.0,-0.0157470703125,0.127746582031,0.653381347656,0.745971679688,-3.0,-8.8125,-18.75,-39.95,-5.58,26.92
1541715155220429897,479,0,/imu_data_acquisition2,81060.0,-0.0157470703125,0.127746582031,0.653381347656,0.745971679688,65.125,-83.375,18.1875,-33.97,-7.64,-13.08
1541715155231913089,480,0,/imu_data_acquisition2,81072.0,-0.0068359375,0.126159667969,0.653930664062,0.745971679688,145.6875,-57.4375,13.8125,-36.34,37.68,27.95
1541715155242610931,481,0,/imu_data_acquisition2,81081.0,0.00567626953125,0.130554199219,0.653198242188,0.745788574219,-74.3125,-227.125,30.4375,2.43,-5.98,11.89
1541715155250452041,482,0,/imu_data_acquisition2,81090.0,0.0225830078125,0.0963745117188,-6.103515625e-05,0.750549316406,-42.4375,-212.625,-38.125,20.93,5.04,3.12
1541715155261431932,483,0,/imu_data_acquisition2,81101.0,0.0225830078125,0.0963745117188,0.6533203125,0.750549316406,-22.5,-102.5625,-58.3125,16.83,8.61,-3.98
1541715155276194095,484,0,/imu_data_acquisition2,81114.0,0.0263671875,0.0887451171875,0.649597167969,0.754638671875,-133.4375,-4.5625,-44.375,-0.24,-2.63,8.74
1541715155281507968,485,0,/imu_data_acquisition2,81121.0,0.00677490234375,0.0748901367188,0.645690917969,0.759887695312,-145.4375,24.375,-47.1875,-3.18,-1.05,9.67
