%time,field.header.seq,field.header.stamp,field.header.frame_id,field.time_stamp,field.quat_x,field.quat_y,field.quat_z,field.quat_w,field.gyro_x,field.gyro_y,field.gyro_z,field.accel_x,field.accel_y,field.accel_z
1541715568355880975,822,0,/imu_data_acquisition2,62122.0,-0.0804443359375,0.221435546875,0.659973144531,0.71337890625,17.4375,-126.375,-17.9375,-9.14,-4.79,7.71
1541715568365266084,823,0,/imu_data_acquisition2,62132.0,-0.0733032226562,0.21435546875,0.659423828125,0.716796875,9.6875,-124.0625,-19.25,-9.84,-4.57,7.49
1541715568379160881,824,0,/imu_data_acquisition2,62142.0,-0.0665283203125,0.206970214844,0.658874511719,0.720153808594,3.75,-123.5625,-19.9375,-10.46,-4.31,6.96
1541715568387248039,825,0,/imu_data_acquisition2,62153.0,-0.0601806640625,0.199401855469,0.658508300781,0.723205566406,-1.1875,-121.4375,-17.625,-12.26,-3.63,5.45
1541715568398598909,826,0,/imu_data_acquisition2,62163.0,-0.0543212890625,0.191833496094,0.658447265625,0.725769042969,-6.6875,-116.375,-11.625,-11.91,-3.54,3.82
1541715568409715890,827,0,/imu_data_acquisition2,62175.0,-0.0493774414062,0.1845703125,0.658935546875,0.7275390625,-14.0,-104.875,-3.375,-15.63,-4.15,4.6
1541715568417691946,828,0,/imu_data_acquisition2,62183.0,-0.0455932617188,0.177734375,0.659912109375,0.728576660156,-22.5,-91.4375,4.875,-16.39,-5.68,2.19
1541715568435756921,829,0,/imu_data_acquisition2,62193.0,-0.0430908203125,0.171569824219,0.661193847656,0.729064941406,-29.1875,-74.625,8.75,-17.26,-6.62,0.94
1541715568439974069,830,0,/imu_data_acquisition2,62205.0,-0.0419921875,0.166320800781,0.662292480469,0.729309082031,-33.8125,-54.625,7.1875,-17.48,-7.19,0.37
1541715568448148965,831,0,/imu_data_acquisition2,62213.0,-0.0424194335938,0.162231445312,0.662902832031,0.729675292969,-36.4375,-32.625,0.3125,-18.73,-7.14,0.53
1541715568463100910,832,0,/imu_data_acquisition2,62227.0,-0.0442504882812,0.159240722656,0.662902832031,0.730224609375,-39.3125,-12.6875,-9.3125,-18.82,-6.83,1.33
1541715568470257997,833,0,/imu_data_acquisition2,62235.0,-0.0474853515625,0.156982421875,0.662353515625,0.731018066406,-44.1875,4.5,-18.3125,-18.98,-6.75,1.15
1541715568476027965,834,0,/imu_data_acquisition2,62242.0,-0.005126953125,-6.103515625e-05,-6.103515625e-05,0.732055664062,-49.5,18.875,-27.375,-18.77,-6.38,1.43
1541715568492053985,835,0,/imu_data_acquisition2,62253.0,-0.0573120117188,0.154174804688,0.659545898438,0.733459472656,-50.625,30.4375,-35.9375,-32.55,15.31,17.0
1541715568498449087,836,0,/imu_data_acquisition2,62264.0,-0.0560913085938,0.158874511719,0.658874511719,0.733154296875,48.125,32.5,1.75,-30.9,36.01,33.44
1541715568505578041,837,0,/imu_data_acquisition2,62272.0,-0.0332641601562,0.147338867188,0.670593261719,0.726257324219,81.3125,-273.25,191.1875,19.22,2.12,-28.25
1541715568518574953,838,0,/imu_data_acquisition2,62283.0,-0.0200805664062,0.141479492188,0.670776367188,0.727783203125,67.5,-157.6875,9.625,22.49,-14.55,-3.15
1541715568528949975,839,0,/imu_data_acquisition2,62295.0,-0.0121459960938,0.118957519531,0.672424316406,0.730407714844,-112.8125,-261.375,1.4375,28.83,7.93,-6.7
1541715568537147045,840,0,/imu_data_acquisition2,62302.0,-0.00872802734375,0.114929199219,0.665954589844,0.737060546875,7.75,-71.125,-104.375,6.79,15.12,1.9
1541715568547656059,841,0,/imu_data_acquisition2,62313.0,-0.0224609375,0.104309082031,0.664123535156,0.739990234375,-201.375,12.0625,-58.6875,1.79,-10.12,10.05
1541715568559596061,842,0,/imu_data_acquisition2,62326.0,-0.0393676757812,0.0956420898438,0.663513183594,0.740966796875,-215.0,55.8125,-0.0625,-2.33,0.87,7.31
1541715568570322990,843,0,/imu_data_acquisition2,62333.0,-0.0499267578125,0.0987548828125,0.658508300781,0.744384765625,-60.625,108.8125,-80.8125,-3.69,1.99,10.28
1541715568579513072,844,0,/imu_data_acquisition2,62344.0,-0.06298828125,0.0980224609375,0.656005859375,0.745666503906,-116.9375,95.3125,-47.9375,-2.42,-2.68,11.43
1541715568588121891,845,0,/imu_data_acquisition2,62354.0,-0.0726928710938,0.0984497070312,0.654052734375,0.746459960938,-79.4375,79.75,-34.125,-7.49,2.28,12.4
1541715568599339962,846,0,/imu_data_acquisition2,62364.0,-0.0786743164062,0.0994262695312,0.652038574219,0.747497558594,-42.4375,55.375,-32.3125,-5.57,-0.56,11.46
1541715568606976985,847,0,/imu_data_acquisition2,62372.0,-0.083740234375,0.0963134765625,0.650756835938,0.748474121094,-66.5,11.375,-27.3125,-2.9,-1.35,9.86
1541715568616753101,848,0,/imu_data_acquisition2,62383.0,-0.087158203125,0.092529296875,0.649047851562,0.750061035156,-55.5625,-7.25,-35.375,-1.08,-0.3,8.93
1541715568628233909,849,0,/imu_data_acquisition2,62393.0,-0.090087890625,0.0884399414062,0.647216796875,0.751770019531,-53.9375,-13.5,-0.0625,-0.78,-2.04,9.32
1541715568639885902,850,0,/imu_data_acquisition2,62403.0,-0.0930786132812,0.0841064453125,0.64599609375,0.752990722656,-56.8125,-15.625,-28.0625,-0.6,-2.52,9.6
1541715568647697925,851,0,/imu_data_acquisition2,62413.0,-0.0950317382812,0.0814208984375,0.644897460938,0.753967285156,-35.8125,-8.875,-21.8125,-1.02,-1.85,9.6
1541715568659564018,852,0,/imu_data_acquisition2,62424.0,-0.0963745117188,0.080078125,0.644104003906,0.754638671875,-21.0625,-1.6875,-15.625,-1.42,-1.31,9.86
1541715568670044898,853,0,/imu_data_acquisition2,62433.0,-0.0972900390625,0.0794677734375,0.643249511719,0.755310058594,-11.0,2.3125,-13.8125,-1.6,-0.21,9.6
1541715568675995111,854,0,/imu_data_acquisition2,62442.0,-0.0979614257812,0.0789794921875,0.642395019531,0.755920410156,-8.375,1.0625,-13.625,-1.26,0.58,-0.01
1541715568687768936,855,0,/imu_data_acquisition2,62453.0,-0.09912109375,0.07763671875,0.641845703125,0.756469726562,-19.25,-3.5625,-11.5625,-0.94,0.46,9.8
1541715568697690963,856,0,/imu_data_acquisition2,62463.0,-0.100402832031,0.076171875,0.64111328125,0.757019042969,-21.0,-2.5,-13.4375,-1.24,0.53,10.0
1541715568706584930,857,0,/imu_data_acquisition2,62472.0,-0.101806640625,0.0751342773438,0.64013671875,0.757751464844,-19.25,1.6875,-16.9375,-1.43,0.16,9.93
1541715568717159986,858,0,/imu_data_acquisition2,62483.0,-0.103454589844,0.073974609375,0.639038085938,0.758605957031,-5.4375,-0.0625,-0.0625,-1.26,0.61,9.98
1541715568727685928,859,0,/imu_data_acquisition2,62493.0,-0.10498046875,0.0726318359375,0.637756347656,0.759582519531,-21.0625,-0.25,-21.5,-1.52,0.58,-0.01
1541715568739492893,860,0,/imu_data_acquisition2,62503.0,-0.106628417969,0.0708618164062,0.636596679688,0.760498046875,-26.4375,-3.0,-20.6875,-1.47,0.33,10.09
1541715568748214006,861,0,/imu_data_acquisition2,62513.0,-0.108459472656,0.068603515625,0.635559082031,0.761291503906,-31.4375,-5.8125,-20.1875,-1.92,-0.91,10.52
1541715568758166074,862,0,/imu_data_acquisition2,62524.0,-0.110534667969,0.0660400390625,0.634521484375,0.762084960938,-36.4375,-6.8125,-19.875,-0.45,0.2,9.4
1541715568770312070,863,0,/imu_data_acquisition2,62533.0,-0.112121582031,0.0636596679688,0.633544921875,0.762939453125,-29.875,-8.5,-19.6875,-0.82,-0.8,8.79
1541715568777421951,864,0,/imu_data_acquisition2,62543.0,-0.113952636719,0.0617065429688,0.632690429688,0.763488769531,-30.25,-3.4375,-15.8125,-0.24,-1.71,9.19
1541715568787913084,865,0,/imu_data_acquisition2,62554.0,-0.115844726562,0.06005859375,0.632080078125,0.763854980469,-28.25,-0.5,-11.5,-0.66,-0.94,9.12
1541715568799156904,866,0,/imu_data_acquisition2,62564.0,-0.117370605469,0.0596313476562,0.631408691406,0.76416015625,-16.3125,8.1875,-10.125,-0.68,-1.64,9.37
1541715568808073997,867,0,/imu_data_acquisition2,62573.0,-0.119323730469,0.059326171875,0.631042480469,0.764221191406,-18.9375,12.125,-6.125,-1.14,-1.41,10.17
1541715568816792964,868,0,/imu_data_acquisition2,62583.0,-0.121032714844,0.0595092773438,0.630554199219,0.764343261719,-13.8125,15.1875,-0.0625,-0.81,-1.01,9.16
1541715568828461885,869,0,/imu_data_acquisition2,62593.0,-0.122680664062,0.059814453125,0.630065917969,0.764465332031,-12.1875,15.875,-6.125,-1.29,-1.36,9.7
1541715568837172031,870,0,/imu_data_acquisition2,62603.0,-0.122680664062,0.059814453125,0.630065917969,0.764465332031,-11.0,18.25,-5.6875,-1.05,-0.9,9.83
1541715568846349954,871,0,/imu_data_acquisition2,62612.0,-0.124389648438,0.0603637695312,0.629516601562,0.764587402344,-5.1875,18.5,-5.6875,-1.63,-1.04,10.04
1541715568859738111,872,0,/imu_data_acquisition2,62625.0,-0.127075195312,0.0621948242188,0.628479003906,0.764831542969,-4.25,19.125,-0.0625,-1.11,-1.02,9.42
1541715568867995023,873,0,/imu_data_acquisition2,62633.0,-0.128295898438,0.0632934570312,0.628051757812,0.764953613281,-2.0,19.3125,-4.1875,-1.83,-0.88,10.02
1541715568876029968,874,0,/imu_data_acquisition2,62642.0,-0.129455566406,0.064453125,0.627624511719,0.764953613281,-1.75,19.8125,-3.25,-1.83,-0.83,9.73
1541715568888463020,875,0,/imu_data_acquisition2,62654.0,-0.0054931640625,-6.103515625e-05,-6.103515625e-05,0.765014648438,-1.625,17.75,-2.1875,-1.7,-0.3,10.15
1541715568898201942,876,0,/imu_data_acquisition2,62663.0,-0.130493164062,0.0654907226562,0.627258300781,0.765014648438,-2.75,16.3125,-2.0,-1.67,-0.48,9.53
1541715568907229900,877,0,/imu_data_acquisition2,62673.0,-0.132568359375,0.0671997070312,0.626708984375,0.764953613281,-2.375,15.75,-1.625,-1.64,-0.58,9.89
1541715568918195962,878,0,/imu_data_acquisition2,62683.0,-0.133605957031,0.0679931640625,0.62646484375,0.764892578125,-3.3125,14.875,-1.375,-1.38,-0.64,9.45
1541715568928575992,879,0,/imu_data_acquisition2,62693.0,-0.134460449219,0.06884765625,0.626220703125,0.764892578125,-1.625,14.5625,-1.75,-2.03,-1.04,9.56
1541715568935996055,880,0,/imu_data_acquisition2,62702.0,-0.134460449219,0.06884765625,0.626220703125,0.764892578125,-3.0,15.6875,-1.625,-1.64,-0.63,10.06
1541715568947880029,881,0,/imu_data_acquisition2,62713.0,-0.135498046875,0.0696411132812,0.625915527344,0.764831542969,-2.8125,15.3125,-1.1875,-1.69,-0.98,9.76
1541715568958812952,882,0,/imu_data_acquisition2,62723.0,-0.137512207031,0.0714111328125,0.62548828125,0.764709472656,-2.5,16.0625,-0.875,-1.6,-0.95,9.39
1541715568966434955,883,0,/imu_data_acquisition2,62732.0,-0.138549804688,0.0724487304688,0.625183105469,0.7646484375,-1.3125,17.4375,-1.0625,-1.39,-0.79,9.58
1541715568977900028,884,0,/imu_data_acquisition2,62743.0,-0.1396484375,0.073486328125,0.624938964844,0.764526367188,-2.3125,18.5625,-0.6875,-1.64,-0.83,-0.01
1541715568988943099,885,0,/imu_data_acquisition2,62753.0,-0.1396484375,0.073486328125,0.624938964844,0.764526367188,-1.5625,20.9375,-1.1875,-1.3,-0.71,9.5
1541715568996398925,886,0,/imu_data_acquisition2,62762.0,-0.139038085938,0.073486328125,0.624816894531,0.764770507812,-2.0,23.0,-1.5625,-1.93,-1.07,9.61
1541715569008725881,887,0,/imu_data_acquisition2,62774.0,-0.138854980469,0.0743408203125,0.624389648438,0.765075683594,-2.125,26.625,-1.875,-1.66,-0.59,9.49
1541715569018697023,888,0,/imu_data_acquisition2,62783.0,-0.139038085938,0.0751342773438,0.6240234375,0.765258789062,-1.3125,27.75,-2.5,-2.02,-0.97,9.82
1541715569040285110,890,0,/imu_data_acquisition2,62803.0,-0.13916015625,0.075927734375,0.623718261719,0.765441894531,-1.375,31.625,-3.8125,-1.75,-0.56,9.33
1541715569049274921,891,0,/imu_data_acquisition2,62815.0,-0.139282226562,0.0769653320312,0.623291015625,0.765625,-1.375,31.625,-3.8125,-1.59,-0.62,9.37
1541715569056186914,892,0,/imu_data_acquisition2,62822.0,-0.139587402344,0.0780639648438,0.622802734375,0.765869140625,-5.5,36.3125,-5.125,-2.47,-0.01,-0.01
1541715569073415040,893,0,/imu_data_acquisition2,62836.0,-0.140808105469,0.0794677734375,0.622192382812,0.765991210938,-4.75,39.625,-5.5,-2.77,-1.02,9.85
1541715569079118967,894,0,/imu_data_acquisition2,62845.0,-0.143249511719,0.0816650390625,0.621398925781,0.765930175781,-4.9375,40.5,-6.5,-2.11,-0.98,9.27
1541715569088341951,895,0,/imu_data_acquisition2,62855.0,-0.145751953125,0.083984375,0.620544433594,0.765930175781,-10.5,43.9375,-6.125,-2.43,-0.73,9.78
1541715569098576068,896,0,/imu_data_acquisition2,62862.0,-0.148742675781,0.086181640625,0.61962890625,0.765808105469,-10.5,43.9375,-6.125,-2.67,-1.05,9.66
1541715569108561038,897,0,/imu_data_acquisition2,62875.0,-0.151794433594,0.08837890625,0.618774414062,0.765686035156,-9.6875,46.1875,-6.5625,-2.85,-0.6,9.96
1541715569119759082,898,0,/imu_data_acquisition2,62886.0,-0.154846191406,0.0908203125,0.617797851562,0.765563964844,-13.625,47.625,-7.625,-2.26,-0.73,9.52
1541715569127370119,899,0,/imu_data_acquisition2,62894.0,-0.158325195312,0.0930786132812,0.616821289062,0.765380859375,-12.3125,49.625,-7.75,-2.32,-0.73,9.01
1541715569139288902,900,0,/imu_data_acquisition2,62905.0,-0.161743164062,0.0955200195312,0.61572265625,0.765258789062,-12.25,50.5,-8.375,-1.96,-0.46,9.08
1541715569151432991,901,0,/imu_data_acquisition2,62915.0,-0.165222167969,0.0980224609375,0.614562988281,0.765075683594,-17.125,51.625,-8.0,-3.03,-0.82,9.91
1541715569157742977,902,0,/imu_data_acquisition2,62924.0,-0.169067382812,0.100402832031,0.613464355469,0.764831542969,-14.3125,52.3125,-7.1875,-1.82,-0.35,8.94
1541715569173131942,903,0,/imu_data_acquisition2,62936.0,-0.172790527344,0.102905273438,0.612365722656,0.764526367188,-10.5625,61.5,-5.4375,-2.89,-0.4,6.9
1541715569179215908,904,0,/imu_data_acquisition2,62945.0,-0.176696777344,0.106262207031,0.611206054688,0.76416015625,-18.1875,63.4375,-6.75,0.0,-1.1,9.19
1541715569188286066,905,0,/imu_data_acquisition2,62955.0,-0.181213378906,0.109313964844,0.609985351562,0.763610839844,-21.3125,70.25,-6.25,-2.93,-4.05,11.85
1541715569198402881,906,0,/imu_data_acquisition2,62962.0,-0.186279296875,0.112609863281,0.608703613281,0.762939453125,-21.3125,70.25,-0.0625,-2.93,-4.05,11.85
1541715569208009004,907,0,/imu_data_acquisition2,62974.0,-6.103515625e-05,-6.103515625e-05,-6.103515625e-05,0.762390136719,-2.0625,83.8125,-1.75,-3.18,-3.42,10.72
1541715569219444036,908,0,/imu_data_acquisition2,62985.0,-0.195190429688,0.1220703125,0.605773925781,0.761596679688,6.4375,-0.0625,-0.0625,-4.32,-2.48,11.24
1541715569227965116,909,0,/imu_data_acquisition2,62994.0,-0.199462890625,0.128295898438,0.604370117188,0.760620117188,15.4375,95.25,7.875,-3.01,-0.69,9.7
1541715569238584041,910,0,/imu_data_acquisition2,63005.0,-0.203186035156,0.135375976562,0.603088378906,0.759399414062,26.3125,106.75,11.25,-2.54,-1.52,9.05
1541715569249550104,911,0,/imu_data_acquisition2,63013.0,-0.206848144531,0.143737792969,0.601623535156,0.758056640625,26.3125,106.75,11.25,-2.53,-0.7,9.57
1541715569257777929,912,0,/imu_data_acquisition2,63024.0,-0.210754394531,0.153198242188,0.599792480469,0.756530761719,29.875,130.5625,10.625,-3.5,0.39,9.09
1541715569273161888,913,0,/imu_data_acquisition2,63038.0,-0.215270996094,0.163269042969,0.597717285156,0.754760742188,-3.0,130.875,13.375,-3.27,1.77,10.29
1541715569279994010,914,0,/imu_data_acquisition2,63045.0,-0.221862792969,0.171691894531,0.596252441406,0.752197265625,-48.125,132.0,19.0,-4.03,0.29,10.22
1541715569287488937,915,0,/imu_data_acquisition2,63053.0,-0.231323242188,0.177978515625,0.595642089844,0.748352050781,-48.125,132.0,19.0,-3.01,0.94,11.13
1541715569298835039,916,0,/imu_data_acquisition2,63062.0,-0.242248535156,0.184265136719,0.595397949219,0.743530273438,-65.4375,143.5,26.0,-3.01,0.94,11.13
1541715569308072090,917,0,/imu_data_acquisition2,63074.0,-0.254821777344,0.192993164062,0.593811035156,0.738342285156,-43.25,218.125,6.0625,-4.01,0.94,11.04
1541715569318730115,918,0,/imu_data_acquisition2,63084.0,-0.268310546875,0.204528808594,0.590148925781,0.7333984375,-63.875,237.625,-6.125,-3.54,-0.73,11.69
1541715569328092098,919,0,/imu_data_acquisition2,63094.0,-0.30078125,0.230163574219,0.577392578125,0.723327636719,-39.875,276.625,-30.25,-3.4,-1.51,11.63
1541715569337265968,920,0,/imu_data_acquisition2,63103.0,-0.30078125,0.230163574219,0.577392578125,0.723327636719,-39.875,276.625,-30.25,-3.89,3.59,10.28
1541715569348226070,921,0,/imu_data_acquisition2,63112.0,-0.318237304688,0.247497558594,0.565063476562,0.719848632812,-9.375,321.375,-67.375,-3.89,3.59,10.28
1541715569359050989,922,0,/imu_data_acquisition2,63125.0,-0.360046386719,0.281616210938,0.537841796875,0.708374023438,-52.4375,359.9375,-76.75,-6.66,1.99,11.49
1541715569368519067,923,0,/imu_data_acquisition2,63134.0,-0.360046386719,0.281616210938,0.537841796875,0.708374023438,-88.5625,330.9375,-39.9375,-5.2,18.68,31.24
1541715569378298044,924,0,/imu_data_acquisition2,63144.0,-0.381164550781,0.296020507812,0.527282714844,0.699340820312,-93.0,202.5,69.3125,-8.01,20.3,32.28
1541715569391069889,925,0,/imu_data_acquisition2,63157.0,-0.395080566406,0.312622070312,0.534912109375,0.678283691406,-42.625,59.9375,151.25,-2.02,8.12,27.89
1541715569396833896,926,0,/imu_data_acquisition2,63162.0,-0.395080566406,0.312622070312,0.534912109375,0.678283691406,-42.625,59.9375,151.25,-2.02,8.12,27.89
1541715569408130884,927,0,/imu_data_acquisition2,63174.0,-0.390441894531,0.3193359375,0.544677734375,0.669982910156,-37.1875,23.75,193.875,-0.22,1.91,11.39
1541715569421186923,928,0,/imu_data_acquisition2,63187.0,-0.386169433594,0.329956054688,0.56640625,0.648986816406,-39.75,11.4375,179.1875,-0.36,-1.39,11.21
1541715569428881883,929,0,/imu_data_acquisition2,63195.0,-0.386169433594,0.329956054688,0.56640625,0.648986816406,-32.6875,-0.9375,144.6875,-0.08,-3.48,11.24
1541715569438071966,930,0,/imu_data_acquisition2,63203.0,-0.383850097656,0.3330078125,0.575256347656,0.640991210938,-32.6875,-0.9375,144.6875,-1.24,-2.71,15.24
1541715569452800035,931,0,/imu_data_acquisition2,63217.0,-0.379211425781,0.334716796875,0.585327148438,0.633728027344,-3.125,-28.0625,54.6875,0.06,0.45,13.97
1541715569459522008,932,0,/imu_data_acquisition2,63225.0,-6.103515625e-05,-6.103515625e-05,-6.103515625e-05,0.633728027344,1.1875,-50.25,29.4375,0.23,2.2,14.04
1541715569471131086,933,0,/imu_data_acquisition2,63235.0,-0.375854492188,0.3330078125,0.588439941406,0.633728027344,-0.3125,-74.9375,21.8125,0.35,6.27,12.78
1541715569487127065,935,0,/imu_data_acquisition2,63253.0,-0.366149902344,0.325439453125,0.596496582031,0.635803222656,-2.3125,-93.6875,28.9375,0.03,7.67,12.11
1541715569497787952,936,0,/imu_data_acquisition2,63264.0,-0.359680175781,0.320983886719,-6.103515625e-05,0.636169433594,-3.875,-106.375,47.3125,-1.12,8.46,10.81
1541715569516515970,937,0,/imu_data_acquisition2,63282.0,-0.35205078125,0.316650390625,0.609802246094,0.635559082031,1.375,-123.125,91.375,-3.03,6.59,10.19
1541715569522279977,938,0,/imu_data_acquisition2,63287.0,-6.103515625e-05,-6.103515625e-05,-6.103515625e-05,0.63232421875,12.5,-129.375,105.0625,-3.92,5.25,10.13
1541715569528186082,939,0,/imu_data_acquisition2,63294.0,-0.332946777344,0.3095703125,0.627258300781,0.63232421875,28.1875,-133.6875,110.4375,-4.39,4.18,9.99
1541715569549184083,941,0,/imu_data_acquisition2,63314.0,-0.309204101562,0.305053710938,0.644409179688,0.62939453125,41.8125,-133.375,108.8125,-8.13,-0.99,8.61
1541715569559448957,942,0,/imu_data_acquisition2,63324.0,-0.296325683594,0.303161621094,-6.103515625e-05,0.628540039062,60.625,-133.125,81.6875,-9.91,-2.91,10.67
1541715569572375059,943,0,/imu_data_acquisition2,63337.0,-0.28369140625,0.301452636719,0.658142089844,0.62890625,66.6875,-129.75,55.25,-10.64,-2.98,11.06
1541715569580473899,944,0,/imu_data_acquisition2,63345.0,-0.271484375,0.299560546875,0.662414550781,0.630676269531,67.875,-129.125,32.75,-9.05,-1.53,10.43
1541715569585599899,945,0,/imu_data_acquisition2,63352.0,-0.259765625,0.297241210938,0.665344238281,0.633605957031,67.875,-129.125,32.75,-9.05,-1.53,10.43
1541715569597162961,946,0,/imu_data_acquisition2,63363.0,-0.248168945312,0.294494628906,0.667663574219,0.637084960938,68.3125,-131.1875,22.625,-8.04,0.28,11.13
1541715569608772039,947,0,/imu_data_acquisition2,63375.0,-0.236511230469,0.291564941406,0.670104980469,0.640319824219,65.625,-132.3125,24.8125,-7.45,-0.68,9.75
1541715569619545936,948,0,/imu_data_acquisition2,63385.0,-0.224914550781,0.288940429688,0.672546386719,0.643127441406,66.25,-128.875,29.0,-7.16,-1.69,9.15
1541715569628570079,949,0,/imu_data_acquisition2,63395.0,-0.213012695312,0.286560058594,0.674865722656,0.645812988281,73.1875,-123.0625,27.375,-7.08,-2.82,8.67
1541715569638227939,950,0,/imu_data_acquisition2,63403.0,-0.201354980469,0.284484863281,0.6767578125,0.648498535156,73.1875,-123.0625,27.375,-7.08,-2.82,8.67
1541715569645591020,951,0,/imu_data_acquisition2,63412.0,-0.189697265625,0.2822265625,0.67822265625,0.651489257812,73.5625,-124.0625,20.625,-7.53,-4.14,9.42
1541715569658060073,952,0,/imu_data_acquisition2,63424.0,-0.178405761719,0.279541015625,0.679077148438,0.654907226562,70.5625,-124.75,10.9375,-7.71,-4.95,8.87
1541715569673017978,953,0,/imu_data_acquisition2,63439.0,-0.167602539062,0.276245117188,0.679443359375,0.658752441406,64.5,-125.625,0.6875,-7.42,-5.39,7.8
1541715569678337097,954,0,/imu_data_acquisition2,63444.0,-0.157592773438,0.272399902344,0.679321289062,0.662963867188,55.8125,-124.0,-9.375,-7.03,-5.61,7.47
1541715569686840057,955,0,/imu_data_acquisition2,63453.0,-0.148498535156,0.268127441406,0.6787109375,0.667419433594,46.5,-120.0,-19.4375,-7.03,-5.61,7.47
1541715569696528911,956,0,/imu_data_acquisition2,63463.0,-0.140319824219,0.263427734375,0.677551269531,0.672180175781,39.5625,-116.0625,-29.75,-6.8,-5.51,7.79
1541715569708034992,957,0,/imu_data_acquisition2,63474.0,-0.132507324219,0.258422851562,0.675842285156,0.677429199219,35.375,-115.875,-39.1875,-6.01,-3.9,8.32
1541715569719815015,958,0,/imu_data_acquisition2,63485.0,-0.124816894531,0.252990722656,0.673828125,0.682922363281,33.75,-119.125,-45.75,-5.74,-3.16,7.96
1541715569730791091,959,0,/imu_data_acquisition2,63496.0,-0.116821289062,0.247192382812,0.671630859375,0.688598632812,32.875,-123.875,-47.625,-5.51,-2.56,7.58
1541715569737240076,960,0,/imu_data_acquisition2,63503.0,-0.108764648438,0.241149902344,0.669555664062,0.694091796875,31.3125,-126.875,-45.0,-5.51,-2.56,7.58
1541715569746871948,961,0,/imu_data_acquisition2,63513.0,-0.100646972656,0.23486328125,0.667785644531,0.699096679688,28.75,-128.0625,-39.0,-5.48,-1.96,7.22
1541715569759731054,962,0,/imu_data_acquisition2,63525.0,-0.092529296875,0.228454589844,0.66650390625,0.703552246094,20.8125,-127.5625,-23.3125,-0.9,-0.01,-0.01
1541715569769642114,963,0,/imu_data_acquisition2,63536.0,-0.0845336914062,0.221862792969,0.665649414062,0.707458496094,16.1875,-127.5625,-16.4375,-6.93,-2.29,-0.01
1541715569780863046,964,0,/imu_data_acquisition2,63545.0,-0.0767211914062,0.215026855469,0.665283203125,0.710876464844,16.1875,-127.5625,-16.4375,-7.5,-2.49,7.19
1541715569787976980,965,0,/imu_data_acquisition2,63553.0,-0.0690307617188,0.207946777344,0.665161132812,0.713806152344,11.8125,-127.5,-10.75,-7.5,-2.49,7.19
1541715569797472953,966,0,/imu_data_acquisition2,63563.0,-0.0617065429688,0.20068359375,0.665405273438,0.716369628906,6.125,-125.5,-6.1875,-8.17,-2.72,7.07
1541715569819515943,968,0,/imu_data_acquisition2,63585.0,-0.0487060546875,0.185668945312,0.666442871094,0.720397949219,-7.625,-117.4375,-0.25,-11.45,-3.54,6.01
1541715569829127073,969,0,/imu_data_acquisition2,63595.0,-0.0431518554688,0.178100585938,0.667175292969,0.721984863281,-13.125,-112.5,1.625,-14.9,-3.27,6.48
1541715569837801933,970,0,/imu_data_acquisition2,63603.0,-0.0382080078125,0.170776367188,-6.103515625e-05,0.723327636719,-16.0625,-104.5,2.9375,-14.9,-3.27,6.48
1541715569846252918,971,0,/imu_data_acquisition2,63612.0,-0.0338745117188,0.163818359375,0.669006347656,0.724182128906,-19.6875,-96.5,7.375,-14.19,-3.21,3.11
1541715569858829021,972,0,/imu_data_acquisition2,63625.0,-0.0305786132812,0.157531738281,0.670288085938,0.724548339844,-23.9375,-80.5,12.3125,-16.86,-4.4,2.4
1541715569870637893,973,0,/imu_data_acquisition2,63635.0,-0.0286865234375,0.152221679688,0.671813964844,0.724365234375,-28.4375,-61.0625,15.75,-19.55,-6.12,2.5
1541715569879297971,974,0,/imu_data_acquisition2,63645.0,-0.0283203125,0.148071289062,0.673217773438,0.723937988281,-32.75,-38.25,14.9375,-19.22,-6.4,1.33
1541715569887995958,975,0,/imu_data_acquisition2,63653.0,-0.0293579101562,0.14501953125,0.674255371094,0.723510742188,-35.5,-17.75,9.5,-19.22,-6.4,1.33
1541715569895803928,976,0,/imu_data_acquisition2,63662.0,-0.0321655273438,0.143005371094,0.674743652344,0.723327636719,-40.8125,5.125,-0.25,-20.06,-7.0,1.79
1541715569908457040,977,0,/imu_data_acquisition2,63674.0,-0.0364379882812,0.141845703125,0.674438476562,0.723693847656,-45.3125,24.0,-13.4375,-24.46,-4.79,4.88
1541715569936008930,979,0,/imu_data_acquisition2,63702.0,-0.0284423828125,0.143920898438,0.679321289062,0.719055175781,66.625,-204.9375,65.25,-20.43,16.58,31.53
1541715569940706014,980,0,/imu_data_acquisition2,63707.0,-0.0118408203125,0.135437011719,0.682861328125,0.7177734375,-102.4375,-219.3125,6.8125,18.73,-12.72,1.46
1541715569949268102,981,0,/imu_data_acquisition2,63715.0,-6.103515625e-05,-6.103515625e-05,-6.103515625e-05,0.719665527344,-102.4375,-219.3125,6.8125,18.73,-12.72,1.46
1541715569959827899,982,0,/imu_data_acquisition2,63722.0,0.0032958984375,0.105346679688,0.680725097656,0.724914550781,-8.6875,-169.375,-63.9375,25.64,8.78,-7.06
1541715569969928979,983,0,/imu_data_acquisition2,63736.0,-0.00299072265625,0.0978393554688,0.677185058594,0.729248046875,-110.6875,-18.8125,-72.6875,1.86,-7.55,7.62
1541715569982567071,984,0,/imu_data_acquisition2,63747.0,-0.0197143554688,0.0880126953125,0.676879882812,0.730590820312,-110.375,109.25,-67.0,-3.84,0.94,10.48
1541715569988678932,985,0,/imu_data_acquisition2,63754.0,-0.0332641601562,0.0883178710938,0.673278808594,0.733337402344,-110.375,109.25,-67.0,-1.28,-0.01,-0.01
1541715569998743057,986,0,/imu_data_acquisition2,63765.0,-0.0464477539062,0.0884399414062,0.669982910156,0.735595703125,-109.375,105.0625,-60.1875,-3.67,-0.79,11.43
1541715570010323047,987,0,/imu_data_acquisition2,63776.0,-0.0567626953125,0.0889892578125,0.66748046875,0.737121582031,-81.9375,86.25,-44.5,-4.02,0.02,11.44
1541715570021605968,988,0,/imu_data_acquisition2,63787.0,-0.0642700195312,0.0903930664062,0.665466308594,0.738098144531,-51.375,72.0,-32.25,-5.27,-1.0,11.55
1541715570030158042,989,0,/imu_data_acquisition2,63796.0,-0.0704345703125,0.0897827148438,-6.103515625e-05,0.738830566406,-56.9375,43.5625,-24.1875,-2.4,0.29,9.73
1541715570040498971,990,0,/imu_data_acquisition2,63803.0,-0.07470703125,0.0875854492188,0.66259765625,0.740051269531,-51.75,14.0625,-30.0,-2.4,0.29,9.73
1541715570045990943,991,0,/imu_data_acquisition2,63812.0,-0.0780639648438,0.0838012695312,0.6611328125,0.741516113281,-56.25,-6.9375,-31.0,-0.97,-0.78,9.19
1541715570059953927,992,0,/imu_data_acquisition2,63826.0,-0.0811767578125,0.0796508789062,0.659729003906,0.742858886719,-57.25,-12.1875,-29.4375,-1.5,-1.59,10.3
1541715570071499109,993,0,/imu_data_acquisition2,63837.0,-0.0836181640625,0.0758666992188,0.658569335938,0.744018554688,-48.625,-13.8125,-25.4375,-0.85,-2.51,9.74
1541715570079400062,994,0,/imu_data_acquisition2,63845.0,-0.00714111328125,-6.103515625e-05,-6.103515625e-05,0.744873046875,-35.8125,-13.4375,-18.5,-0.85,-2.51,9.74
1541715570087945938,995,0,/imu_data_acquisition2,63853.0,-0.086181640625,0.0712890625,0.656982421875,0.745544433594,-19.5,-7.0625,-14.3125,-0.74,-1.88,9.36
1541715570096479892,996,0,/imu_data_acquisition2,63862.0,-0.0867919921875,0.0704956054688,0.65625,0.746215820312,-10.3125,-2.1875,-12.5625,-1.27,-0.42,9.98
1541715570107645988,997,0,/imu_data_acquisition2,63873.0,-0.0873413085938,0.0697021484375,0.655578613281,0.746826171875,-9.375,-2.25,-11.625,-1.19,1.14,10.19
1541715570120877027,998,0,/imu_data_acquisition2,63886.0,-0.0882568359375,0.0682983398438,-6.103515625e-05,0.747314453125,-18.625,-5.1875,-10.75,-1.28,0.54,10.12
1541715570130726099,999,0,/imu_data_acquisition2,63896.0,-0.0895385742188,0.067138671875,0.654235839844,0.747924804688,-18.4375,-0.5,-14.4375,-1.28,0.54,10.12
1541715570137979984,1000,0,/imu_data_acquisition2,63903.0,-0.0908813476562,0.06591796875,0.653259277344,0.748779296875,-20.0,-0.5,-17.4375,-1.39,0.67,10.46
1541715570148267984,1001,0,/imu_data_acquisition2,63913.0,-0.0924072265625,0.0641479492188,0.652282714844,0.749572753906,-25.5,-3.1875,-18.125,-1.51,0.51,10.21
1541715570157258987,1002,0,/imu_data_acquisition2,63923.0,-0.09375,0.0623168945312,0.651245117188,0.75048828125,-24.25,-5.9375,-19.375,-1.64,0.84,-0.01
1541715570170089006,1003,0,/imu_data_acquisition2,63936.0,-0.0953369140625,0.059814453125,0.650329589844,0.751281738281,-31.75,-9.25,-18.375,-1.25,-0.13,10.13
1541715570179699897,1004,0,/imu_data_acquisition2,63944.0,-0.0970458984375,0.0571899414062,0.6494140625,0.752014160156,-33.5625,-9.6875,-17.6875,-1.38,-0.32,9.79
1541715570187890052,1005,0,/imu_data_acquisition2,63953.0,-0.0986328125,0.0546875,0.648559570312,0.752746582031,-32.625,-9.6875,-16.9375,-1.43,-0.76,10.2
1541715570199106931,1006,0,/imu_data_acquisition2,63964.0,-0.100158691406,0.0521850585938,0.647888183594,0.753356933594,-31.3125,-10.25,-14.8125,-0.58,-0.64,10.01
1541715570207139968,1007,0,/imu_data_acquisition2,63972.0,-0.101440429688,0.0502319335938,0.647277832031,0.753845214844,-25.4375,-7.1875,-12.25,0.05,-1.43,9.2
1541715570222090959,1008,0,/imu_data_acquisition2,63987.0,-0.103210449219,0.0486450195312,0.646850585938,0.754028320312,-16.1875,5.6875,-6.625,-0.69,-1.15,9.11
1541715570230617046,1009,0,/imu_data_acquisition2,63997.0,-0.104614257812,0.0480346679688,0.646423339844,0.754211425781,-16.1875,5.6875,-6.625,-0.6,-1.79,10.02
1541715570237478017,1010,0,/imu_data_acquisition2,64003.0,-0.106079101562,0.0477905273438,0.646179199219,0.754272460938,-14.75,9.375,-4.125,-0.6,-1.79,10.02
1541715570252084016,1011,0,/imu_data_acquisition2,64017.0,-0.107421875,0.0478515625,0.645935058594,0.754272460938,-11.75,11.25,-3.0625,-1.2,-1.16,9.35
1541715570259058952,1012,0,/imu_data_acquisition2,64025.0,-0.108337402344,0.0485229492188,0.645568847656,0.75439453125,-2.8125,13.25,-3.1875,-1.2,-1.16,9.35
1541715570270323991,1013,0,/imu_data_acquisition2,64034.0,-0.0155029296875,-6.103515625e-05,-6.103515625e-05,0.754455566406,-2.4375,13.6875,-2.5625,-1.04,-1.03,9.82
1541715570282655954,1014,0,/imu_data_acquisition2,64047.0,-6.103515625e-05,-6.103515625e-05,-6.103515625e-05,0.754516601562,0.1875,15.125,-2.25,-1.01,-0.73,9.82
1541715570287739038,1015,0,/imu_data_acquisition2,64054.0,-0.11083984375,0.0513305664062,0.644775390625,0.754577636719,2.6875,16.0625,-1.4375,-1.01,-0.73,9.82
1541715570297564029,1016,0,/imu_data_acquisition2,64062.0,-0.111633300781,0.0526123046875,0.644592285156,0.754516601562,2.8125,17.875,-0.3125,-1.15,-0.35,10.12
1541715570308567047,1017,0,/imu_data_acquisition2,64073.0,-0.112243652344,0.0538940429688,0.644409179688,0.754455566406,4.3125,16.5625,0.5625,-1.67,-0.67,9.52
1541715570319681882,1018,0,/imu_data_acquisition2,64085.0,-0.112854003906,0.0552368164062,0.644287109375,0.75439453125,4.4375,17.0,0.8125,-1.65,-0.27,10.16
1541715570329133987,1019,0,/imu_data_acquisition2,64094.0,-0.113464355469,0.0563354492188,0.644226074219,0.754272460938,2.625,14.3125,1.25,-1.46,-0.48,9.6
1541715570337522983,1020,0,/imu_data_acquisition2,64103.0,-0.114074707031,0.0573120117188,0.644104003906,0.754211425781,2.5,13.4375,0.75,-1.43,-0.65,9.55
1541715570350475072,1021,0,/imu_data_acquisition2,64115.0,-0.114685058594,0.0582885742188,0.64404296875,0.754089355469,1.5,13.4375,0.8125,-1.75,-0.62,10.17
1541715570356997013,1022,0,/imu_data_acquisition2,64122.0,-0.115417480469,0.05908203125,0.643920898438,0.754028320312,0.375,12.8125,0.5625,-0.92,-0.41,9.66
1541715570368676900,1023,0,/imu_data_acquisition2,64134.0,-0.114624023438,0.0592041015625,0.643920898438,0.754089355469,1.1875,14.25,0.6875,-1.33,-0.72,9.59
1541715570382067918,1024,0,/imu_data_acquisition2,64147.0,-0.113891601562,0.0592651367188,0.643920898438,0.754211425781,0.4375,14.3125,0.4375,-1.21,-0.53,9.56
1541715570386038064,1025,0,/imu_data_acquisition2,64152.0,-0.11474609375,0.0602416992188,0.643798828125,0.754150390625,0.4375,16.0625,0.0625,-1.4,-0.74,9.6
1541715570397845029,1026,0,/imu_data_acquisition2,64163.0,-0.11572265625,0.0614013671875,0.643615722656,0.754028320312,0.375,17.875,-0.1875,-1.14,-0.52,9.68
1541715570409491062,1027,0,/imu_data_acquisition2,64174.0,-0.116760253906,0.0626831054688,0.643371582031,0.754028320312,0.75,19.4375,-1.0,-1.33,-0.62,9.67
1541715570421375989,1028,0,/imu_data_acquisition2,64184.0,-0.116455078125,0.0630493164062,0.643188476562,0.754150390625,0.5,21.125,-1.25,-1.39,-0.63,9.36
1541715570430176973,1029,0,/imu_data_acquisition2,64196.0,-0.116333007812,0.063720703125,0.642944335938,0.754333496094,0.25,23.375,-2.1875,-1.53,-0.49,9.63
1541715570440042972,1030,0,/imu_data_acquisition2,64203.0,-0.117797851562,0.065185546875,0.642517089844,0.754333496094,-1.0,25.0,-3.0625,-1.76,-0.52,9.79
1541715570447195053,1031,0,/imu_data_acquisition2,64212.0,-0.119262695312,0.0667724609375,0.642028808594,0.75439453125,-1.0,25.9375,-3.75,-1.54,-0.57,9.62
1541715570457766056,1032,0,/imu_data_acquisition2,64223.0,-0.120910644531,0.0684204101562,0.641479492188,0.754455566406,-1.5,27.875,-4.125,-1.76,-0.66,9.6
1541715570471625089,1033,0,/imu_data_acquisition2,64238.0,-0.122741699219,0.0701293945312,0.640869140625,0.754516601562,-2.6875,30.0,-5.0,-1.75,-0.45,9.53
1541715570478770971,1034,0,/imu_data_acquisition2,64245.0,-0.124816894531,0.0718383789062,0.640197753906,0.754577636719,-5.1875,31.75,-5.625,-1.86,-0.78,9.48
1541715570487374067,1035,0,/imu_data_acquisition2,64253.0,-0.127014160156,0.073486328125,0.639526367188,0.754638671875,-6.5,32.6875,-6.1875,-1.82,-0.61,9.65
1541715570501154899,1036,0,/imu_data_acquisition2,64263.0,-0.128173828125,0.07470703125,0.638854980469,0.7548828125,-6.1875,34.5,-7.5,-1.94,-0.55,9.55
1541715570512898921,1037,0,/imu_data_acquisition2,64278.0,-0.130554199219,0.0764770507812,0.637939453125,0.755065917969,-6.4375,35.0625,-8.3125,-1.67,-0.59,9.74
1541715570522413969,1038,0,/imu_data_acquisition2,64289.0,-0.132995605469,0.0782470703125,0.637023925781,0.755249023438,-7.3125,35.4375,-9.1875,-1.96,-1.0,9.28
1541715570532047033,1039,0,/imu_data_acquisition2,64297.0,-0.135437011719,0.0802001953125,0.635986328125,0.755493164062,-5.9375,37.375,-10.0,-1.96,-1.0,9.28
1541715570537306070,1040,0,/imu_data_acquisition2,64303.0,-0.137023925781,0.0814819335938,0.635009765625,0.755859375,-6.6875,40.25,-11.0625,-1.96,-0.75,9.56
1541715570547501087,1041,0,/imu_data_acquisition2,64313.0,-0.139892578125,0.0836181640625,0.633911132812,0.756042480469,-8.6875,41.8125,-10.5625,-2.25,-0.97,9.56
1541715570555658102,1042,0,/imu_data_acquisition2,64322.0,-0.142883300781,0.0858154296875,0.632751464844,0.756225585938,-8.25,43.6875,-10.9375,-1.95,-0.61,9.34
1541715570569982051,1043,0,/imu_data_acquisition2,64335.0,-0.146118164062,0.0880126953125,0.631591796875,0.75634765625,-11.0625,45.9375,-10.625,-2.28,-0.6,9.49
1541715570577773094,1044,0,/imu_data_acquisition2,64342.0,-0.149475097656,0.0902709960938,0.630432128906,0.75634765625,-12.1875,46.9375,-9.9375,-2.32,-0.01,-0.01
1541715570588893890,1045,0,/imu_data_acquisition2,64354.0,-0.152893066406,0.0926513671875,0.629272460938,0.75634765625,-11.5,48.8125,-10.0625,-2.44,-0.57,9.92
1541715570597161054,1046,0,/imu_data_acquisition2,64363.0,-0.156311035156,0.0950927734375,0.628051757812,0.75634765625,-10.625,49.9375,-10.0625,-2.49,-0.66,-0.01
1541715570607702016,1047,0,/imu_data_acquisition2,64374.0,-0.159851074219,0.0980224609375,0.626770019531,0.756286621094,-9.125,54.75,-9.75,-2.6,0.19,7.26
1541715570618567943,1048,0,/imu_data_acquisition2,64382.0,-0.163757324219,0.101257324219,0.625427246094,0.756164550781,-9.375,60.625,-8.9375,-2.25,-0.58,7.9
1541715570626722097,1049,0,/imu_data_acquisition2,64392.0,-0.168151855469,0.104553222656,0.624206542969,0.755737304688,-14.5,64.6875,-7.25,-3.33,-2.46,11.91
1541715570637744903,1050,0,/imu_data_acquisition2,64403.0,-0.172790527344,0.107971191406,0.623107910156,0.755126953125,-15.625,68.1875,-4.0625,-1.4,-4.28,10.33
1541715570648682117,1051,0,/imu_data_acquisition2,64412.0,-0.177124023438,0.111755371094,0.621826171875,0.754638671875,-10.875,69.0625,-5.75,-1.67,-2.93,9.23
1541715570656764030,1052,0,/imu_data_acquisition2,64422.0,-0.181457519531,0.11669921875,-6.103515625e-05,0.753967285156,-1.3125,79.6875,-1.875,-3.35,-3.54,11.35
1541715570668340921,1053,0,/imu_data_acquisition2,64433.0,-0.185180664062,0.12255859375,0.619323730469,0.753112792969,9.25,83.3125,3.125,-2.88,-0.96,9.42
1541715570677669048,1054,0,/imu_data_acquisition2,64442.0,-0.188415527344,0.129028320312,0.618286132812,0.752014160156,17.8125,85.25,8.5,-2.45,-0.88,8.77
1541715570687361955,1055,0,/imu_data_acquisition2,64453.0,-0.191589355469,0.136352539062,0.617431640625,0.750671386719,23.375,92.4375,13.1875,-3.16,-1.31,9.37
1541715570697576045,1056,0,/imu_data_acquisition2,64463.0,-6.103515625e-05,-6.103515625e-05,-6.103515625e-05,0.749206542969,30.4375,99.4375,15.0,-2.36,-0.45,9.07
1541715570706109046,1057,0,/imu_data_acquisition2,64472.0,-0.197631835938,0.153137207031,0.614990234375,0.747863769531,36.5,103.875,12.625,-3.0,0.1,8.85
1541715570716866016,1058,0,/imu_data_acquisition2,64483.0,-0.200805664062,0.162353515625,0.613403320312,0.746337890625,38.125,111.1875,12.4375,-3.48,0.0,9.47
1541715570728874921,1059,0,/imu_data_acquisition2,64495.0,-0.20458984375,0.172058105469,0.611572265625,0.74462890625,36.1875,120.875,12.0625,-3.82,2.5,9.73
1541715570735769033,1060,0,/imu_data_acquisition2,64502.0,-0.210083007812,0.181213378906,0.609924316406,0.742309570312,15.8125,128.625,13.5625,-3.48,1.88,10.32
1541715570746872901,1061,0,/imu_data_acquisition2,64513.0,-0.218444824219,0.187805175781,0.609130859375,0.738891601562,-32.6875,128.375,15.5625,-3.07,0.54,10.46
1541715570758100986,1062,0,/imu_data_acquisition2,64524.0,-0.22900390625,0.194274902344,0.608337402344,0.734680175781,-54.875,143.4375,16.75,-2.66,1.65,10.93
1541715570765650033,1063,0,/imu_data_acquisition2,64532.0,-0.241333007812,0.202575683594,0.606384277344,0.730102539062,-55.1875,177.0,10.1875,-3.71,0.09,11.39
1541715570777705907,1064,0,/imu_data_acquisition2,64544.0,-0.253784179688,0.214782714844,0.601501464844,0.726440429688,-19.25,217.875,-10.8125,-3.14,0.99,11.19
1541715570788016080,1065,0,/imu_data_acquisition2,64554.0,-0.268432617188,0.227111816406,0.59521484375,0.722595214844,-33.25,238.875,-26.625,-3.62,-1.34,11.19
1541715570795994997,1066,0,/imu_data_acquisition2,64562.0,-0.283447265625,0.242736816406,0.585205078125,0.719909667969,0.5625,278.75,-57.75,-5.36,2.09,10.74
1541715570808449029,1067,0,/imu_data_acquisition2,64575.0,-0.299743652344,0.260070800781,0.571899414062,0.717956542969,12.5625,311.0625,-88.4375,-2.94,2.12,11.16
1541715570819608926,1068,0,/imu_data_acquisition2,64585.0,-0.31884765625,0.277526855469,0.557434082031,0.714599609375,-11.0625,339.5,-97.0625,-4.83,0.96,10.55
1541715570825954914,1069,0,/imu_data_acquisition2,64592.0,-0.339782714844,0.294677734375,0.542236328125,0.709716796875,-32.75,356.6875,-100.25,-8.14,4.38,16.4
1541715570838280916,1070,0,/imu_data_acquisition2,64604.0,-0.361572265625,0.309265136719,0.530151367188,0.701843261719,-78.6875,338.875,-68.5625,-4.92,22.01,33.89
1541715570848890066,1071,0,/imu_data_acquisition2,64614.0,-0.376708984375,0.319030761719,0.527160644531,0.691711425781,-97.0625,225.5625,25.5,-6.38,17.25,31.82
1541715570857108116,1072,0,/imu_data_acquisition2,64623.0,-0.380615234375,0.324035644531,0.534484863281,0.681518554688,-74.0625,71.4375,130.875,7.13,13.43,13.1
1541715570867630958,1073,0,/imu_data_acquisition2,64633.0,-0.376342773438,0.3291015625,0.544250488281,0.673706054688,-5.8125,0.5,167.5625,4.26,4.36,10.54
1541715570877624034,1074,0,/imu_data_acquisition2,64643.0,-0.374145507812,0.333557128906,0.556335449219,0.662719726562,-49.625,10.375,195.4375,0.98,2.86,11.03
1541715570886879920,1075,0,/imu_data_acquisition2,64653.0,-0.3720703125,0.337280273438,0.568176269531,0.651916503906,-54.125,5.4375,188.625,0.64,-0.51,11.58
1541715570898036003,1076,0,/imu_data_acquisition2,64664.0,-0.369689941406,0.339599609375,0.578918457031,0.642517089844,-50.0,-7.8125,166.125,1.38,-2.71,12.36
1541715570907517910,1077,0,/imu_data_acquisition2,64672.0,-0.367309570312,0.340698242188,0.587341308594,0.635681152344,-38.25,-17.5,125.25,-0.34,-2.27,15.11
1541715570917071104,1078,0,/imu_data_acquisition2,64683.0,-0.364440917969,0.340576171875,0.593322753906,0.6318359375,-20.125,-31.4375,82.5,0.45,0.59,14.95
1541715570928284883,1079,0,/imu_data_acquisition2,64693.0,-0.360656738281,0.338623046875,0.598266601562,0.63037109375,-11.6875,-56.625,54.125,0.71,4.72,14.98
1541715570936451911,1080,0,/imu_data_acquisition2,64702.0,-0.356079101562,0.334777832031,-6.103515625e-05,0.630065917969,-15.0,-81.5,42.4375,0.81,6.33,13.94
1541715570948081970,1081,0,/imu_data_acquisition2,64713.0,-0.3505859375,0.329528808594,0.609497070312,0.630065917969,-20.3125,-103.75,45.0,-0.52,7.62,14.06
1541715570958707094,1082,0,/imu_data_acquisition2,64723.0,-0.343872070312,0.323608398438,0.616882324219,0.629699707031,-22.875,-122.1875,59.375,-1.43,8.25,11.84
1541715570966145992,1083,0,/imu_data_acquisition2,64732.0,-0.00775146484375,-6.103515625e-05,-6.103515625e-05,0.628601074219,-22.0,-133.5,78.1875,-2.25,7.72,10.95
1541715570977282047,1084,0,/imu_data_acquisition2,64743.0,-0.326599121094,0.31201171875,0.634948730469,0.626770019531,-15.375,-141.4375,96.875,-3.1,6.85,10.49
1541715570988104104,1085,0,/imu_data_acquisition2,64753.0,-6.103515625e-05,-6.103515625e-05,-6.103515625e-05,0.624389648438,-5.1875,-145.5,111.0625,-4.03,5.64,10.18
1541715570995870113,1086,0,/imu_data_acquisition2,64762.0,-0.304565429688,0.302856445312,0.65478515625,0.621887207031,7.9375,-147.125,118.0625,-5.54,3.17,9.5
1541715571006957054,1087,0,/imu_data_acquisition2,64773.0,-0.292297363281,0.299255371094,0.664123535156,0.61962890625,20.6875,-0.0625,-0.0625,-4.99,1.92,8.7
1541715571017370939,1088,0,/imu_data_acquisition2,64783.0,-0.279602050781,0.296264648438,0.672424316406,0.617980957031,34.3125,-144.6875,108.75,-7.93,1.04,10.29
1541715571025862932,1089,0,/imu_data_acquisition2,64792.0,-0.266723632812,0.29345703125,0.679626464844,0.617065429688,44.0625,-143.5,95.625,-8.42,-1.01,10.95
1541715571037235021,1090,0,/imu_data_acquisition2,64803.0,-0.253601074219,0.290954589844,0.685363769531,0.617492675781,57.0625,-143.5625,76.125,-7.53,-1.17,10.42
1541715571045885086,1091,0,/imu_data_acquisition2,64812.0,-0.240295410156,0.2880859375,0.68994140625,0.619079589844,62.625,-148.5,57.9375,-7.41,-0.84,10.43
1541715571056051969,1092,0,/imu_data_acquisition2,64822.0,-0.2275390625,0.28466796875,0.693664550781,0.621276855469,59.375,-146.6875,43.125,-8.96,-1.38,10.5
1541715571065412044,1093,0,/imu_data_acquisition2,64832.0,-0.215209960938,0.281005859375,0.696594238281,0.6240234375,57.875,-145.75,30.4375,-8.5,-1.91,9.25
1541715571076056957,1094,0,/imu_data_acquisition2,64842.0,-0.202941894531,0.276977539062,0.698913574219,0.627380371094,58.6875,-147.9375,20.0,-8.84,-2.31,8.94
1541715571085736989,1095,0,/imu_data_acquisition2,64852.0,-0.191040039062,0.273010253906,0.700500488281,0.631103515625,59.5,-144.0,10.4375,-9.1,-3.62,8.55
1541715571095726966,1096,0,/imu_data_acquisition2,64862.0,-0.179443359375,0.269165039062,0.701354980469,0.635192871094,60.8125,-139.875,1.1875,-9.15,-4.38,8.46
1541715571106029033,1097,0,/imu_data_acquisition2,64872.0,-0.168334960938,0.265380859375,0.701416015625,0.639770507812,61.6875,-135.6875,-9.75,-8.73,-4.95,8.16
1541715571115417003,1098,0,/imu_data_acquisition2,64882.0,-6.103515625e-05,-6.103515625e-05,-6.103515625e-05,0.644897460938,62.4375,-132.0625,-22.9375,-9.54,-5.73,7.92
1541715571125780105,1099,0,/imu_data_acquisition2,64892.0,-0.147338867188,0.257751464844,0.698852539062,0.650756835938,62.8125,-129.5,-37.5,-8.41,-5.41,7.41
1541715571135941028,1100,0,/imu_data_acquisition2,64902.0,-0.137390136719,0.253784179688,0.696228027344,0.657287597656,63.125,-127.9375,-50.6875,-7.91,-4.86,7.08
1541715571146042108,1101,0,/imu_data_acquisition2,64912.0,-0.127868652344,0.249816894531,0.692932128906,0.664123535156,62.3125,-124.5625,-59.375,-7.59,-4.36,7.26
1541715571155405998,1102,0,/imu_data_acquisition2,64922.0,-0.118774414062,0.245727539062,0.689453125,0.6708984375,58.75,-121.25,-14.75,-6.86,-3.45,7.47
1541715571166205883,1103,0,/imu_data_acquisition2,64932.0,-0.110107421875,0.241577148438,0.68603515625,0.677429199219,53.75,-118.3125,-60.9375,-6.64,-3.27,7.48
1541715571175719976,1104,0,/imu_data_acquisition2,64942.0,-0.101806640625,0.237182617188,0.682861328125,0.683410644531,47.6875,-115.8125,-56.0,-6.46,-3.26,7.65
1541715571185776948,1105,0,/imu_data_acquisition2,64952.0,-0.0939331054688,0.232482910156,0.68017578125,0.688842773438,39.75,-113.5625,-49.0625,-6.57,-3.55,8.05
1541715571196022987,1106,0,/imu_data_acquisition2,64962.0,-0.0939331054688,0.232482910156,0.68017578125,0.688842773438,31.125,-111.875,-42.6875,-6.79,-3.69,8.22
1541715571205495119,1107,0,/imu_data_acquisition2,64972.0,-0.0865478515625,0.227355957031,0.677917480469,0.693725585938,22.5625,-110.9375,-37.8125,-7.13,-3.74,8.33
1541715571215955018,1108,0,/imu_data_acquisition2,64982.0,-0.072998046875,0.215942382812,0.674499511719,0.702209472656,14.625,-110.75,-34.125,-7.38,-3.7,8.1
1541715571225661039,1109,0,/imu_data_acquisition2,64992.0,-0.0042724609375,-6.103515625e-05,-6.103515625e-05,0.7060546875,8.25,-110.5625,-15.375,-7.96,-3.08,7.86
1541715571236167907,1110,0,/imu_data_acquisition2,65002.0,-0.0608520507812,0.203186035156,0.671936035156,0.709594726562,3.625,-13.4375,-0.0625,-8.25,-2.49,7.56
1541715571245302915,1111,0,/imu_data_acquisition2,65012.0,-0.0608520507812,0.203186035156,0.671936035156,0.709594726562,-1.5625,-107.625,-22.1875,-8.7,-1.81,7.29
1541715571255964994,1112,0,/imu_data_acquisition2,65022.0,-0.0552368164062,0.196472167969,0.671203613281,0.712646484375,-8.9375,-104.375,-11.75,-10.43,-1.29,6.81
1541715571265881061,1113,0,/imu_data_acquisition2,65032.0,-0.0453491210938,0.182678222656,0.671875,0.716369628906,-17.0625,-99.6875,2.125,-1.06,-0.01,-0.01
1541715571275840997,1114,0,/imu_data_acquisition2,65042.0,-0.0411987304688,0.175659179688,0.673645019531,0.716674804688,-24.125,-94.25,17.4375,-12.48,-1.58,5.02
1541715571285727024,1115,0,/imu_data_acquisition2,65052.0,-0.0379028320312,0.168762207031,0.676391601562,0.715942382812,-33.0,-84.5,32.25,-16.13,-4.04,4.37
1541715571295670986,1116,0,/imu_data_acquisition2,65062.0,-0.0379028320312,0.168762207031,0.676391601562,0.715942382812,-43.3125,-67.5,41.125,-15.71,-5.31,1.98
1541715571306123018,1117,0,/imu_data_acquisition2,65072.0,-0.0360717773438,0.162353515625,0.6796875,0.714416503906,-49.8125,-54.1875,42.75,-16.56,-1.0,-0.01
1541715571316040039,1118,0,/imu_data_acquisition2,65082.0,-0.0361938476562,0.151123046875,0.68603515625,0.710815429688,-54.875,-35.25,35.0625,-18.65,-7.29,2.28
1541715571325943946,1119,0,/imu_data_acquisition2,65092.0,-0.038330078125,0.146728515625,0.68798828125,0.709655761719,-57.875,-18.875,20.3125,-18.72,-7.1,2.06
1541715571336061954,1120,0,/imu_data_acquisition2,65102.0,-0.04150390625,0.142944335938,0.688903808594,0.709411621094,-58.5625,-5.75,2.125,-19.87,-6.6,2.25
1541715571345796108,1121,0,/imu_data_acquisition2,65112.0,-0.04150390625,0.142944335938,0.688903808594,0.709411621094,-52.625,10.1875,-16.375,-27.52,0.47,7.21
1541715571355978012,1122,0,/imu_data_acquisition2,65122.0,-0.04541015625,0.140441894531,0.6884765625,0.710083007812,39.625,33.3125,-1.625,-8.39,28.18,1.98
1541715571369621992,1123,0,/imu_data_acquisition2,65133.0,-0.0291137695312,0.145202636719,0.693603515625,0.704956054688,124.625,-120.1875,116.8125,-16.16,26.08,21.66
1541715571376775026,1124,0,/imu_data_acquisition2,65142.0,-0.0202026367188,0.134338378906,0.695861816406,0.705200195312,-18.75,-164.9375,28.25,-4.4,-9.93,14.35
1541715571387734889,1125,0,/imu_data_acquisition2,65153.0,-0.0113525390625,0.114868164062,0.696533203125,0.708190917969,-86.8125,-240.625,-9.1875,22.4,12.44,-8.55
1541715571402296066,1126,0,/imu_data_acquisition2,65168.0,-0.00396728515625,0.107055664062,0.691955566406,0.713989257812,4.5625,-133.625,-77.625,9.72,8.95,2.85
1541715571408040046,1127,0,/imu_data_acquisition2,65172.0,-0.00396728515625,0.107055664062,0.691955566406,0.713989257812,-173.625,-0.9375,-49.625,3.54,-2.7,10.37
1541715571418801069,1128,0,/imu_data_acquisition2,65183.0,-0.0309448242188,0.08984375,0.689514160156,0.718017578125,-192.3125,71.5,-38.125,-4.39,0.06,11.11
1541715571439485073,1130,0,/imu_data_acquisition2,65205.0,-0.0568237304688,0.0897216796875,0.681579589844,0.723999023438,-107.8125,94.0,-66.625,-2.51,-0.56,11.33
1541715571449295043,1131,0,/imu_data_acquisition2,65214.0,-0.0668334960938,0.0888061523438,0.678649902344,0.726013183594,-88.875,72.9375,-52.375,-4.37,0.45,11.59
1541715571460000991,1132,0,/imu_data_acquisition2,65225.0,-0.0743408203125,0.0887451171875,0.67626953125,0.727478027344,-61.25,59.5625,-40.5625,-5.89,-2.08,10.94
1541715571470587015,1133,0,/imu_data_acquisition2,65235.0,-0.0799560546875,0.0859985351562,0.674621582031,0.728759765625,-67.75,21.875,-32.375,-2.91,-2.57,9.77
1541715571479969024,1134,0,/imu_data_acquisition2,65244.0,-0.0834350585938,0.0814208984375,0.673461914062,0.72998046875,-63.625,-12.0,-27.75,-1.41,-1.81,8.98
1541715571491729974,1135,0,/imu_data_acquisition2,65256.0,-0.0851440429688,0.0774536132812,0.672180175781,0.731384277344,-44.1875,-21.125,-27.8125,-1.14,-1.84,9.5
1541715571497288942,1136,0,/imu_data_acquisition2,65263.0,-0.0851440429688,0.0774536132812,0.672180175781,0.731384277344,-29.4375,-15.875,-16.5,-0.81,-2.3,10.02
1541715571508368968,1137,0,/imu_data_acquisition2,65274.0,-0.0861206054688,0.0746459960938,0.671447753906,0.732238769531,-29.4375,-15.875,-16.5,-0.42,-2.36,9.05
1541715571516895055,1138,0,/imu_data_acquisition2,65283.0,-0.087158203125,0.0718994140625,-6.103515625e-05,0.733032226562,-12.4375,-9.0625,-12.0625,-1.09,-1.37,9.4
1541715571528840065,1139,0,/imu_data_acquisition2,65293.0,-0.0875244140625,0.0704956054688,0.670104980469,0.733703613281,-2.6875,-2.375,-8.875,-1.18,0.03,9.74
1541715571538041114,1140,0,/imu_data_acquisition2,65304.0,-0.0875854492188,0.0701293945312,-6.103515625e-05,0.734191894531,2.0,-0.5625,-7.0625,-1.09,0.51,9.43
1541715571546842098,1141,0,/imu_data_acquisition2,65312.0,-0.0875244140625,0.0701904296875,0.669189453125,0.734619140625,2.0,-0.5625,-7.0625,-0.92,0.65,9.96
1541715571558038949,1142,0,/imu_data_acquisition2,65323.0,-0.0880737304688,0.0697021484375,0.668823242188,0.73486328125,-8.25,0.5,-5.875,-1.36,0.93,10.39
1541715571568141937,1143,0,/imu_data_acquisition2,65334.0,-0.088623046875,0.0692138671875,0.668518066406,0.735168457031,-7.625,3.25,-9.375,-1.14,0.33,9.99
1541715571577203035,1144,0,/imu_data_acquisition2,65343.0,-0.0892944335938,0.0689086914062,0.66796875,0.735595703125,-11.6875,1.875,-14.5625,-1.39,0.78,10.41
1541715571589553117,1145,0,/imu_data_acquisition2,65354.0,-0.0902099609375,0.0682373046875,0.667114257812,0.736328125,-18.0625,-2.375,-15.625,-1.69,0.99,10.22
1541715571598882913,1146,0,/imu_data_acquisition2,65363.0,-0.09130859375,0.0669555664062,0.666259765625,0.737060546875,-24.375,-6.5625,-16.25,-1.52,0.5,9.91
1541715571606522083,1147,0,/imu_data_acquisition2,65372.0,-0.092529296875,0.0650634765625,0.665466308594,0.737854003906,-28.625,-9.8125,-17.1875,-1.4,0.44,10.26
1541715571618882894,1148,0,/imu_data_acquisition2,65384.0,-0.0938720703125,0.0626831054688,0.664611816406,0.738647460938,-28.0625,-9.5,-16.3125,-1.32,-0.75,9.59
1541715571629739999,1149,0,/imu_data_acquisition2,65393.0,-0.0951538085938,0.0603637695312,0.663818359375,0.739379882812,-29.0,-7.875,-14.25,-1.52,-0.72,10.64
1541715571637669086,1150,0,/imu_data_acquisition2,65404.0,-0.0966186523438,0.0581665039062,0.6630859375,0.739990234375,-21.25,-6.1875,-13.75,0.13,-0.39,8.8
1541715571647875070,1151,0,/imu_data_acquisition2,65414.0,-0.09765625,0.0564575195312,0.662414550781,0.740600585938,-23.75,1.4375,-10.6875,-0.41,-1.32,9.93
1541715571657490968,1152,0,/imu_data_acquisition2,65423.0,-0.0993041992188,0.0551147460938,0.661865234375,0.740966796875,-18.5625,7.5,-9.9375,-0.76,-1.07,9.31
1541715571667026042,1153,0,/imu_data_acquisition2,65433.0,-0.100891113281,0.054443359375,0.661254882812,0.741333007812,-15.0,12.4375,-9.3125,-0.67,-0.62,9.05
1541715571708600997,1155,0,/imu_data_acquisition2,65463.0,-0.106323242188,0.0547485351562,0.659484863281,0.7421875,-8.1875,17.75,-7.8125,-1.07,-0.56,9.77
1541715571710246086,1156,0,/imu_data_acquisition2,65475.0,-0.107849121094,0.0553588867188,0.658874511719,0.742431640625,-7.1875,19.5625,-6.8125,-0.8,-1.0,9.36
1541715571714183092,1157,0,/imu_data_acquisition2,65479.0,-6.103515625e-05,-6.103515625e-05,-6.103515625e-05,0.74267578125,-7.1875,19.5625,-6.8125,-0.8,-1.0,9.36
1541715571718790054,1158,0,/imu_data_acquisition2,65485.0,-0.110961914062,0.05712890625,0.657653808594,0.742919921875,-4.875,22.0,-7.4375,-0.97,-0.31,9.61
1541715571736813068,1159,0,/imu_data_acquisition2,65501.0,-0.110961914062,0.05712890625,0.657653808594,0.742919921875,-6.6875,23.25,-6.3125,-1.44,-0.94,9.96
1541715571746093034,1160,0,/imu_data_acquisition2,65506.0,-0.114379882812,0.0592651367188,0.656433105469,0.743286132812,-4.875,23.0625,-6.4375,-1.62,-0.95,10.24
1541715571747350931,1161,0,/imu_data_acquisition2,65513.0,-0.114379882812,0.0592651367188,0.656433105469,0.743286132812,-3.375,22.375,-5.8125,-1.69,-0.6,9.86
1541715571762710094,1162,0,/imu_data_acquisition2,65524.0,-0.115844726562,0.0604248046875,0.655883789062,0.743469238281,-5.5,20.375,-5.0,-1.32,-0.29,9.66
1541715571770524024,1163,0,/imu_data_acquisition2,65534.0,-0.117370605469,0.0613403320312,0.655395507812,0.743591308594,-4.625,21.0625,-5.3125,-2.15,-0.67,9.97
1541715571777112007,1164,0,/imu_data_acquisition2,65543.0,-0.118835449219,0.0623779296875,0.654846191406,0.743774414062,-4.625,-0.0625,-0.0625,-1.34,-0.47,9.56
1541715571788253068,1165,0,/imu_data_acquisition2,65554.0,-0.1201171875,0.0631713867188,-6.103515625e-05,0.743896484375,-4.8125,17.9375,-5.375,-1.9,-0.77,10.38
1541715571797019004,1166,0,/imu_data_acquisition2,65563.0,-0.121459960938,0.0640258789062,0.653869628906,0.744079589844,-4.8125,17.9375,-5.375,-1.69,-1.01,9.49
1541715571806374073,1167,0,/imu_data_acquisition2,65573.0,-0.122680664062,0.0648193359375,0.653381347656,0.744201660156,-3.75,17.0625,-4.875,-1.45,-0.45,9.98
1541715571818692922,1168,0,/imu_data_acquisition2,65584.0,-0.123840332031,0.065673828125,0.652954101562,0.744323730469,-2.875,18.0625,-3.625,-1.93,-1.0,9.86
1541715571828061103,1169,0,/imu_data_acquisition2,65594.0,-0.125,0.0665893554688,0.652526855469,0.744384765625,-1.5625,17.75,-0.0625,-1.43,-0.64,9.64
1541715571837341070,1170,0,/imu_data_acquisition2,65604.0,-0.126098632812,0.0675659179688,-6.103515625e-05,0.744506835938,-0.875,19.0,-3.8125,-1.67,-0.82,9.6
1541715571847054004,1171,0,/imu_data_acquisition2,65613.0,-0.127258300781,0.0687255859375,0.651672363281,0.744567871094,-0.875,19.0,-3.8125,-1.45,-0.73,9.66
1541715571856916904,1172,0,/imu_data_acquisition2,65623.0,-0.12841796875,0.0698852539062,0.651245117188,0.744689941406,-0.9375,19.9375,-4.0625,-1.78,-0.54,9.83
1541715571867744922,1173,0,/imu_data_acquisition2,65634.0,-0.128234863281,0.0703125,0.650817871094,0.744995117188,-2.5,23.125,-3.875,-1.51,-0.61,9.47
1541715571879270076,1174,0,/imu_data_acquisition2,65644.0,-0.128112792969,0.0706787109375,0.650512695312,0.745239257812,-2.25,26.1875,-4.5,-1.7,-0.43,9.75
1541715571888422012,1175,0,/imu_data_acquisition2,65654.0,-0.128173828125,0.0713500976562,0.650146484375,0.745544433594,-2.375,26.9375,-4.375,-1.71,-0.64,9.66
1541715571898885965,1176,0,/imu_data_acquisition2,65665.0,-0.130065917969,0.0736083984375,0.649169921875,0.745849609375,-2.4375,28.625,-4.8125,-2.21,-0.71,9.97
1541715571909472942,1177,0,/imu_data_acquisition2,65673.0,-0.130065917969,0.0736083984375,0.649169921875,0.745849609375,-2.4375,28.625,-4.8125,-1.46,-0.48,9.55
1541715571919399023,1178,0,/imu_data_acquisition2,65684.0,-6.103515625e-05,-6.103515625e-05,-6.103515625e-05,0.745910644531,-3.5,32.5625,-5.9375,-2.06,-0.7,9.64
1541715571928776025,1179,0,/imu_data_acquisition2,65694.0,-0.133911132812,0.0770263671875,0.647766113281,0.745971679688,-4.0625,33.6875,-6.1875,-1.74,-0.61,9.46
1541715571939696073,1180,0,/imu_data_acquisition2,65705.0,-0.134521484375,0.0780029296875,0.647216796875,0.746276855469,-3.1875,36.125,-6.125,-2.6,-1.09,9.85
1541715571946639060,1181,0,/imu_data_acquisition2,65713.0,-0.13671875,0.0800170898438,0.646423339844,0.746337890625,-3.1875,36.125,-6.125,-2.6,-1.09,9.85
1541715571957721948,1182,0,/imu_data_acquisition2,65723.0,-0.138977050781,0.0820922851562,0.645629882812,0.746398925781,-2.9375,36.4375,-6.3125,-1.77,-0.69,9.18
1541715571968040943,1183,0,/imu_data_acquisition2,65734.0,-0.141540527344,0.084228515625,0.644775390625,0.746398925781,-7.6875,42.4375,-6.75,-2.65,-0.76,9.89
1541715571977700948,1184,0,/imu_data_acquisition2,65744.0,-6.103515625e-05,-6.103515625e-05,-6.103515625e-05,0.746337890625,-7.6875,42.4375,-6.75,-2.73,-0.77,9.76
1541715571991966009,1185,0,/imu_data_acquisition2,65758.0,-0.147338867188,0.0886840820312,0.643005371094,0.746337890625,-8.125,46.125,-7.375,-2.13,-0.47,9.57
1541715571996489048,1186,0,/imu_data_acquisition2,65763.0,-0.150451660156,0.091064453125,0.641967773438,0.746276855469,-8.125,46.125,-7.375,-2.13,-0.47,9.57
1541715572008696079,1187,0,/imu_data_acquisition2,65775.0,-0.153625488281,0.093505859375,0.641052246094,0.746154785156,-8.8125,47.4375,-6.6875,-2.82,-0.95,9.62
1541715572020340919,1188,0,/imu_data_acquisition2,65787.0,-0.156860351562,0.0961303710938,0.640014648438,0.746032714844,-8.3125,50.5,-6.8125,-2.54,-0.01,-0.01
1541715572030891895,1189,0,/imu_data_acquisition2,65797.0,-0.16015625,0.0987548828125,0.638977050781,0.745849609375,-8.3125,50.5,-6.8125,-2.66,-1.08,9.75
1541715572038685083,1190,0,/imu_data_acquisition2,65805.0,-0.00738525390625,-6.103515625e-05,-6.103515625e-05,0.745666503906,-9.75,52.1875,-5.5,-2.58,-0.65,9.42
1541715572049783945,1191,0,/imu_data_acquisition2,65816.0,-0.167114257812,0.10400390625,0.636962890625,0.745361328125,-11.0625,53.6875,-3.5625,-2.08,-0.54,7.67
1541715572057332038,1192,0,/imu_data_acquisition2,65822.0,-0.170715332031,0.106750488281,0.636047363281,0.744934082031,-11.0625,53.6875,-3.5625,-2.08,-0.54,7.67
1541715572070594072,1193,0,/imu_data_acquisition2,65835.0,-0.174682617188,0.110595703125,0.635070800781,0.744262695312,-15.25,69.9375,-1.8125,-1.09,-1.28,9.47
1541715572077528953,1194,0,/imu_data_acquisition2,65844.0,-6.103515625e-05,-6.103515625e-05,-6.103515625e-05,0.743469238281,-15.25,69.9375,-1.8125,-2.73,-3.58,11.09
1541715572087877988,1195,0,/imu_data_acquisition2,65854.0,-0.0123291015625,-6.103515625e-05,-6.103515625e-05,0.74267578125,-12.375,74.75,-2.8125,-2.05,-2.4,10.28
1541715572099148988,1196,0,/imu_data_acquisition2,65863.0,-0.188842773438,0.122863769531,0.631408691406,0.742004394531,-4.9375,80.6875,-3.5,-2.05,-2.4,10.28
1541715572111529111,1197,0,/imu_data_acquisition2,65874.0,-0.193603515625,0.128662109375,0.6298828125,0.741088867188,1.625,91.0625,-1.0,-2.29,-2.96,10.11
1541715572118545055,1198,0,/imu_data_acquisition2,65885.0,-0.198120117188,0.135620117188,0.62841796875,0.739929199219,20.0625,105.8125,8.5,-1.81,-0.96,8.72
1541715572130108118,1199,0,/imu_data_acquisition2,65895.0,-0.014892578125,-6.103515625e-05,-6.103515625e-05,0.738525390625,20.0625,105.8125,8.5,-2.58,-1.38,8.72
1541715572141037940,1200,0,/imu_data_acquisition2,65905.0,-6.103515625e-05,-6.103515625e-05,-6.103515625e-05,0.737060546875,28.9375,120.0,9.125,-3.07,-1.0,9.61
1541715572146655082,1201,0,/imu_data_acquisition2,65912.0,-0.211547851562,0.162902832031,0.62255859375,0.735595703125,35.6875,134.0,5.5625,-3.07,-1.0,9.61
1541715572159153938,1202,0,/imu_data_acquisition2,65923.0,-0.216979980469,0.173950195312,0.619506835938,0.734069824219,36.375,146.5625,2.125,-3.14,0.29,10.16
1541715572171478986,1203,0,/imu_data_acquisition2,65936.0,-0.223449707031,0.185424804688,0.615905761719,0.732360839844,31.0,159.875,-2.25,-5.12,2.83,10.34
1541715572179169893,1204,0,/imu_data_acquisition2,65945.0,-0.232177734375,0.195129394531,0.612976074219,0.729614257812,-62.4375,156.375,1.9375,-3.23,-0.14,10.76
1541715572190828084,1205,0,/imu_data_acquisition2,65956.0,-0.244018554688,0.201538085938,0.610961914062,0.725646972656,-62.4375,156.375,1.9375,-3.27,-0.08,11.28
