%time,field.header.seq,field.header.stamp,field.header.frame_id,field.time_stamp,field.quat_x,field.quat_y,field.quat_z,field.quat_w,field.gyro_x,field.gyro_y,field.gyro_z,field.accel_x,field.accel_y,field.accel_z
1542407894085954904,81,0,/imu_data_acquisition2,28911.0,-0.327575683594,0.288269042969,0.580810546875,0.687194824219,-80.3125,464.1875,-141.0,-5.68,6.19,11.68
1542407894095973014,82,0,/imu_data_acquisition2,28921.0,-0.363708496094,0.302124023438,0.562194824219,0.678527832031,-168.6875,463.375,-0.0625,-1.71,3.53,10.69
1542407894109725952,83,0,/imu_data_acquisition2,28931.0,-0.404113769531,0.311950683594,0.544128417969,0.665832519531,-249.8125,471.3125,-162.4375,-7.99,-0.5,13.42
1542407894116166114,84,0,/imu_data_acquisition2,28941.0,-0.0142822265625,-6.103515625e-05,-6.103515625e-05,0.652038574219,-232.1875,366.5,-93.375,-6.96,1.56,28.64
1542407894127542018,85,0,/imu_data_acquisition2,28951.0,-0.454956054688,0.321655273438,0.526672363281,0.642028808594,-155.8125,208.875,-33.375,-5.75,-1.22,28.45
1542407894135808944,86,0,/imu_data_acquisition2,28961.0,-0.4619140625,0.325866699219,0.523254394531,0.6376953125,-36.9375,110.5,-2.0625,-5.16,0.42,25.23
1542407894147192001,87,0,/imu_data_acquisition2,28971.0,-0.459655761719,0.329528808594,0.522216796875,0.638305664062,46.875,17.0625,17.0,0.66,2.84,14.66
1542407894159548044,88,0,/imu_data_acquisition2,28980.0,-0.453308105469,0.33203125,0.522766113281,0.64111328125,76.375,-34.4375,24.875,1.74,3.24,10.14
1542407894166521072,89,0,/imu_data_acquisition2,28991.0,-0.445922851562,0.333068847656,0.524719238281,0.644104003906,70.8125,-60.1875,30.5,2.09,2.89,7.89
1542407894174508094,90,0,/imu_data_acquisition2,29000.0,-0.438781738281,0.33251953125,0.52783203125,0.646728515625,52.75,-75.4375,32.875,1.82,1.9,6.72
1542407894186024904,91,0,/imu_data_acquisition2,29011.0,-0.431579589844,0.330627441406,0.531921386719,0.649230957031,40.5,-90.0625,34.25,1.12,0.55,7.51
1542407894197726964,92,0,/imu_data_acquisition2,29023.0,-0.423706054688,0.327880859375,0.536560058594,0.651977539062,38.3125,-105.0625,35.0,0.71,0.46,8.81
1542407894204480886,93,0,/imu_data_acquisition2,29030.0,-0.414794921875,0.324157714844,0.541870117188,0.655212402344,40.875,-124.875,36.4375,-0.24,0.52,10.47
1542407894217099905,94,0,/imu_data_acquisition2,29042.0,-0.404235839844,0.319152832031,0.548095703125,0.659057617188,44.875,-151.25,39.375,-1.85,0.55,12.87
1542407894235634088,96,0,/imu_data_acquisition2,29061.0,-6.103515625e-05,-6.103515625e-05,-6.103515625e-05,0.668823242188,53.1875,-216.75,45.625,-2.41,-0.16,12.28
1542407894246488094,97,0,/imu_data_acquisition2,29071.0,-0.361206054688,0.294860839844,0.572326660156,0.674560546875,58.9375,-242.8125,46.1875,-2.7,-1.01,9.59
1542407894258929014,98,0,/imu_data_acquisition2,29081.0,-0.0155029296875,-6.103515625e-05,-6.103515625e-05,0.680786132812,64.625,-262.0,43.8125,-2.93,-1.14,8.6
1542407894265033960,99,0,/imu_data_acquisition2,29090.0,-0.3251953125,0.273071289062,0.589416503906,0.687194824219,69.125,-273.4375,39.625,-3.25,-1.05,8.03
1542407894277297019,100,0,/imu_data_acquisition2,29101.0,-0.306274414062,0.26123046875,0.597351074219,0.693603515625,70.75,-279.5,35.1875,-4.13,-0.87,8.99
1542407894289876937,101,0,/imu_data_acquisition2,29111.0,-0.287109375,0.248657226562,0.604797363281,0.699951171875,68.1875,-285.3125,30.4375,-4.83,-1.43,10.07
1542407894294764041,102,0,/imu_data_acquisition2,29120.0,-0.287109375,0.248657226562,0.604797363281,0.699951171875,67.625,-0.0625,-0.0625,-5.61,-2.42,11.03
1542407894306454896,103,0,/imu_data_acquisition2,29131.0,-0.267578125,0.2353515625,0.611694335938,0.706298828125,72.625,-302.1875,13.375,-5.89,-3.32,11.06
1542407894319669961,104,0,/imu_data_acquisition2,29142.0,-0.22607421875,0.206970214844,0.622253417969,0.720336914062,83.5625,-308.5625,-1.875,-6.03,-4.02,9.08
1542407894325793027,105,0,/imu_data_acquisition2,29151.0,-0.204528808594,0.19287109375,0.624938964844,0.728271484375,94.625,-305.5625,-20.125,-6.45,-3.6,9.35
1542407894336673021,106,0,/imu_data_acquisition2,29161.0,-0.183227539062,0.179382324219,0.625854492188,0.736572265625,102.25,-295.125,-37.5625,-6.87,-2.9,10.22
1542407894347259998,107,0,/imu_data_acquisition2,29171.0,-0.162109375,0.166625976562,0.625305175781,0.744995117188,109.0,-284.4375,-49.9375,-7.47,-1.44,12.4
1542407894355055093,108,0,/imu_data_acquisition2,29180.0,-0.162109375,0.166625976562,0.625305175781,0.744995117188,115.9375,-275.8125,-54.5,-7.94,-0.8,13.93
1542407894366779088,109,0,/imu_data_acquisition2,29191.0,-0.119567871094,0.143371582031,0.621765136719,0.760620117188,124.0625,-269.0,-53.125,-8.69,-0.42,15.54
1542407894376832008,110,0,/imu_data_acquisition2,29201.0,-0.0973510742188,0.132751464844,0.61962890625,0.767395019531,134.875,-267.8125,-46.6875,-10.04,0.42,18.39
1542407894385626077,111,0,/imu_data_acquisition2,29211.0,-0.0739135742188,0.122375488281,0.617736816406,0.773254394531,146.8125,-273.0,-35.1875,-10.23,0.98,18.55
1542407894397185087,112,0,/imu_data_acquisition2,29222.0,-0.0739135742188,0.122375488281,0.617736816406,0.773254394531,154.875,-278.6875,-20.75,-10.19,1.46,18.24
1542407894404884099,113,0,/imu_data_acquisition2,29230.0,-0.0494384765625,0.112060546875,0.616333007812,0.777893066406,157.25,-279.9375,-4.0,-10.19,2.16,17.67
1542407894416282892,114,0,/imu_data_acquisition2,29241.0,6.103515625e-05,0.0916748046875,0.615600585938,0.782653808594,154.5625,-275.25,16.75,-10.29,3.26,16.08
1542407894428278923,115,0,/imu_data_acquisition2,29252.0,0.0239868164062,0.0819091796875,0.617065429688,0.7822265625,148.3125,-264.625,42.6875,-10.92,3.38,15.15
1542407894436248064,116,0,/imu_data_acquisition2,29261.0,0.0465698242188,0.0724487304688,0.620239257812,0.779663085938,138.375,-249.25,72.8125,-11.12,2.48,13.88
1542407894446012020,117,0,/imu_data_acquisition2,29271.0,0.0465698242188,0.0724487304688,0.620239257812,0.779663085938,127.875,-231.0,104.0625,-12.93,1.82,11.91
1542407894456799983,118,0,/imu_data_acquisition2,29281.0,0.0677490234375,0.0635375976562,0.625244140625,0.77490234375,110.0625,-209.25,130.0,-14.08,1.59,10.54
1542407894466197967,119,0,/imu_data_acquisition2,29291.0,0.086669921875,0.0548706054688,0.631774902344,0.768310546875,81.0,-185.75,146.4375,-15.1,0.02,8.24
1542407894476278066,120,0,/imu_data_acquisition2,29301.0,0.115478515625,0.0374755859375,0.647521972656,0.752319335938,57.5625,-0.0625,-0.0625,-17.52,-9.36,4.0
1542407894487215042,121,0,/imu_data_acquisition2,29311.0,0.127563476562,0.0309448242188,0.655395507812,0.743835449219,65.25,-136.5,149.9375,-19.97,-14.33,2.06
1542407894497042894,122,0,/imu_data_acquisition2,29322.0,0.141052246094,0.0288696289062,0.662475585938,0.735107421875,114.0,-109.0,137.6875,-23.03,-14.5,-0.61
1542407894508125066,123,0,/imu_data_acquisition2,29333.0,0.154846191406,0.0313720703125,0.668395996094,0.726806640625,151.5,-73.6875,117.375,-24.21,-11.33,-4.35
1542407894516565084,124,0,/imu_data_acquisition2,29341.0,0.163940429688,0.035400390625,0.67333984375,0.720031738281,120.625,-25.5625,91.9375,-19.87,-6.83,-7.21
1542407894531012058,125,0,/imu_data_acquisition2,29355.0,-6.103515625e-05,-6.103515625e-05,-6.103515625e-05,0.715637207031,38.125,37.9375,66.4375,-17.94,-6.78,-4.21
1542407894538695096,126,0,/imu_data_acquisition2,29362.0,0.156616210938,0.0416870117188,0.681823730469,0.71337890625,-40.9375,93.375,43.5625,-15.88,-6.11,-0.41
1542407894546508073,127,0,/imu_data_acquisition2,29371.0,0.156616210938,0.0416870117188,0.681823730469,0.71337890625,-93.875,136.3125,24.75,-10.1,-6.45,12.04
1542407894559587001,128,0,/imu_data_acquisition2,29382.0,0.130310058594,0.045654296875,0.688354492188,0.712158203125,-97.0625,122.625,19.625,15.37,3.76,22.7
1542407894570996999,129,0,/imu_data_acquisition2,29396.0,0.119750976562,0.048583984375,0.69091796875,0.711303710938,-65.625,114.9375,18.0,8.9,11.18,24.09
1542407894576744079,130,0,/imu_data_acquisition2,29401.0,0.119750976562,0.048583984375,0.69091796875,0.711303710938,-102.3125,148.5625,-21.0625,0.88,-5.67,-3.24
1542407894589195966,131,0,/imu_data_acquisition2,29412.0,0.08642578125,0.0538330078125,0.690490722656,0.716186523438,-141.375,165.3125,-49.1875,2.43,-3.29,1.28
1542407894599700927,132,0,/imu_data_acquisition2,29425.0,0.0682373046875,0.0588989257812,0.690002441406,0.718200683594,-114.625,189.3125,-37.25,3.72,-3.76,9.42
1542407894605302095,133,0,/imu_data_acquisition2,29431.0,0.0682373046875,0.0588989257812,0.690002441406,0.718200683594,-62.4375,230.625,-31.5,-2.67,-6.67,15.78
1542407894618621110,134,0,/imu_data_acquisition2,29443.0,0.03515625,0.0819702148438,0.687927246094,0.720275878906,-30.1875,233.25,-43.8125,-9.27,-4.82,19.93
1542407894625689029,135,0,/imu_data_acquisition2,29451.0,0.03515625,0.0819702148438,0.687927246094,0.720275878906,0.3125,218.625,-51.625,-7.78,1.71,19.98
1542407894635778903,136,0,/imu_data_acquisition2,29461.0,0.0220947265625,0.0953979492188,0.685363769531,0.721618652344,-6.375,178.625,-47.125,-9.07,7.43,20.81
1542407894644555091,137,0,/imu_data_acquisition2,29470.0,0.010986328125,0.106018066406,0.682739257812,0.722839355469,-6.375,-0.0625,-0.0625,-8.53,4.84,14.01
1542407894654784917,138,0,/imu_data_acquisition2,29480.0,0.00018310546875,0.1123046875,0.681030273438,0.723571777344,-39.25,140.0625,-34.875,-2.75,-2.42,12.59
1542407894665605068,139,0,/imu_data_acquisition2,29491.0,-0.009521484375,0.11376953125,0.680358886719,0.723937988281,-73.9375,60.625,-16.6875,-4.05,-4.65,15.26
1542407894676107883,140,0,/imu_data_acquisition2,29501.0,-0.0177001953125,0.113220214844,0.679992675781,0.724243164062,-51.0625,45.0625,-11.375,-3.05,0.88,10.77
1542407894685734987,141,0,/imu_data_acquisition2,29511.0,-0.0234985351562,0.113037109375,0.6796875,0.724365234375,-30.9375,29.375,-5.1875,-2.47,0.97,10.37
1542407894694399118,142,0,/imu_data_acquisition2,29520.0,-0.027099609375,0.113037109375,0.679626464844,0.724304199219,-30.9375,29.375,-5.1875,-2.47,0.97,10.37
1542407894705022096,143,0,/imu_data_acquisition2,29530.0,-0.014404296875,-6.103515625e-05,-6.103515625e-05,0.724243164062,-24.0625,24.4375,-4.1875,-2.83,0.19,11.51
1542407894716002941,144,0,/imu_data_acquisition2,29541.0,-0.0322265625,0.113403320312,0.679321289062,0.724304199219,-8.75,13.0625,-5.0,-2.29,0.54,10.01
1542407894726083993,145,0,/imu_data_acquisition2,29551.0,-0.0335693359375,0.113708496094,0.679077148438,0.724426269531,-4.8125,11.75,-4.75,-2.46,-0.01,-0.01
1542407894735982894,146,0,/imu_data_acquisition2,29561.0,-0.0346069335938,0.114135742188,0.678771972656,0.724609375,-2.25,9.0,-3.4375,-2.35,1.09,10.12
1542407894745702028,147,0,/imu_data_acquisition2,29570.0,-0.0352783203125,0.114501953125,0.678588867188,0.724731445312,-2.25,9.0,-0.0625,-1.92,1.12,9.99
1542407894754854917,148,0,/imu_data_acquisition2,29580.0,-0.0357666015625,0.11474609375,0.678405761719,0.724792480469,-1.9375,5.4375,-2.375,-1.92,1.12,9.99
1542407894766475915,149,0,/imu_data_acquisition2,29591.0,-0.0361328125,0.114990234375,0.678283691406,0.724853515625,-1.125,4.6875,-1.8125,-1.96,1.35,9.51
1542407894776007890,150,0,/imu_data_acquisition2,29601.0,-0.0364990234375,0.115173339844,0.678161621094,0.724914550781,-1.5625,4.4375,-1.375,-1.78,0.95,9.59
1542407894786735057,151,0,/imu_data_acquisition2,29611.0,-0.036865234375,0.115356445312,0.678100585938,0.724914550781,-2.9375,4.9375,-1.3125,-1.86,1.08,9.62
1542407894794956922,152,0,/imu_data_acquisition2,29620.0,-0.037353515625,0.115539550781,0.678039550781,0.724975585938,-2.9375,4.9375,-1.3125,-1.86,1.08,9.62
1542407894806217908,153,0,/imu_data_acquisition2,29630.0,-0.0379638671875,0.115661621094,0.677917480469,0.724975585938,-4.0625,6.125,-1.5625,-2.05,1.18,9.9
1542407894816010951,154,0,/imu_data_acquisition2,29641.0,-0.0386352539062,0.11572265625,0.677856445312,0.724975585938,-6.0625,5.6875,-2.375,-2.04,1.04,9.77
1542407894827358961,155,0,/imu_data_acquisition2,29651.0,-0.0393676757812,0.11572265625,0.677795410156,0.725036621094,-7.25,4.625,-3.3125,-1.66,1.13,9.71
1542407894836533069,156,0,/imu_data_acquisition2,29662.0,-0.0399169921875,0.115478515625,0.677673339844,0.725158691406,-7.875,5.0625,-3.0,-1.86,1.07,-0.01
1542407894845074892,157,0,/imu_data_acquisition2,29670.0,-0.04052734375,0.115234375,0.677551269531,0.725280761719,-7.875,5.0625,-3.0,-1.86,1.07,9.88
1542407894854505062,158,0,/imu_data_acquisition2,29680.0,-0.0413818359375,0.115051269531,0.677429199219,0.725341796875,-8.125,6.25,-3.0625,-2.21,0.87,9.97
1542407894865959882,159,0,/imu_data_acquisition2,29690.0,-0.0421142578125,0.114868164062,0.677307128906,0.725463867188,-8.0,4.6875,-2.625,-2.36,0.75,9.72
1542407894876537084,160,0,/imu_data_acquisition2,29701.0,-0.0427856445312,0.114685058594,0.67724609375,0.725463867188,-5.3125,-0.0625,-0.0625,-2.23,0.93,10.09
1542407894886439085,161,0,/imu_data_acquisition2,29712.0,-0.0432739257812,0.114562988281,0.677185058594,0.725524902344,-4.125,1.5,-1.0625,-2.25,0.83,9.8
1542407894894608974,162,0,/imu_data_acquisition2,29720.0,-0.0436401367188,0.114379882812,0.677185058594,0.7255859375,-4.125,1.5,-1.0625,-2.25,0.83,9.8
1542407894905380010,163,0,/imu_data_acquisition2,29730.0,-0.0438842773438,0.114318847656,0.677185058594,0.725524902344,-2.875,1.1875,-0.4375,-1.94,0.82,10.01
1542407894916145086,164,0,/imu_data_acquisition2,29741.0,-0.0441284179688,0.1142578125,0.677185058594,0.725524902344,-2.4375,1.625,-0.5,-2.12,0.91,9.77
1542407894926707029,165,0,/imu_data_acquisition2,29752.0,-0.0443725585938,0.114196777344,0.67724609375,0.725524902344,-2.3125,1.5,-0.25,-2.24,0.97,-0.01
1542407894936814069,166,0,/imu_data_acquisition2,29762.0,-0.0446166992188,0.114135742188,0.67724609375,0.725463867188,-2.3125,1.375,-0.5625,-2.26,0.79,9.58
1542407894944411039,167,0,/imu_data_acquisition2,29770.0,-0.0447998046875,0.114074707031,0.67724609375,0.725463867188,-2.3125,1.375,-0.5625,-2.26,0.79,9.58
1542407894955383062,168,0,/imu_data_acquisition2,29780.0,-0.0450439453125,0.114013671875,0.67724609375,0.725463867188,-2.1875,1.1875,-0.75,-2.15,0.87,9.81
1542407894966604948,169,0,/imu_data_acquisition2,29792.0,-0.0452270507812,0.113952636719,0.677185058594,0.725524902344,-2.25,0.9375,-0.75,-2.37,0.78,9.53
1542407894977487087,170,0,/imu_data_acquisition2,29802.0,-0.0454711914062,0.113891601562,0.677185058594,0.725524902344,-2.4375,1.4375,-0.6875,-1.84,0.94,9.54
1542407894986644029,171,0,/imu_data_acquisition2,29812.0,-0.0457153320312,0.11376953125,0.677124023438,0.7255859375,-3.1875,1.1875,-1.0,-2.3,1.06,9.48
1542407894995349884,172,0,/imu_data_acquisition2,29820.0,-0.0460815429688,0.113647460938,0.677062988281,0.725646972656,-4.1875,2.3125,-1.8125,-2.3,1.06,9.48
1542407895004777908,173,0,/imu_data_acquisition2,29830.0,-0.046630859375,0.113586425781,0.677001953125,0.725708007812,-5.25,4.25,-2.25,-2.11,0.85,9.78
1542407895015764951,174,0,/imu_data_acquisition2,29840.0,-0.0472412109375,0.113525390625,0.676879882812,0.725769042969,-5.8125,4.1875,-2.5,-2.45,0.76,9.56
1542407895026849031,175,0,/imu_data_acquisition2,29852.0,-0.0479125976562,0.113464355469,0.676696777344,0.725891113281,-5.9375,4.75,-2.875,-2.03,0.87,9.67
1542407895037503957,176,0,/imu_data_acquisition2,29862.0,-0.0485229492188,0.113342285156,0.676574707031,0.725952148438,-6.0625,3.625,-3.0,-2.04,0.75,9.71
1542407895049745082,177,0,/imu_data_acquisition2,29870.0,-0.0491333007812,0.113159179688,0.676513671875,0.726013183594,-6.0625,4.0,-2.125,-2.04,0.75,9.71
1542407895056710004,178,0,/imu_data_acquisition2,29881.0,-0.0497436523438,0.113037109375,0.676391601562,0.726135253906,-5.875,3.4375,-2.25,-2.68,0.52,9.84
1542407895065664052,179,0,/imu_data_acquisition2,29890.0,-0.0503540039062,0.112915039062,0.67626953125,0.726196289062,-5.75,4.125,-2.5625,-2.01,0.73,9.76
1542407895078068971,180,0,/imu_data_acquisition2,29903.0,-0.0509033203125,0.11279296875,0.676147460938,0.726257324219,-5.375,3.375,-2.25,-2.17,0.55,9.83
1542407895087541103,181,0,/imu_data_acquisition2,29913.0,-0.051513671875,0.112670898438,0.676086425781,0.726318359375,-4.4375,3.4375,-1.8125,-2.4,0.47,9.67
1542407895103068113,182,0,/imu_data_acquisition2,29921.0,-0.052001953125,0.112548828125,0.675964355469,0.726379394531,-4.4375,3.4375,-1.8125,-2.4,0.47,9.67
1542407895108772039,183,0,/imu_data_acquisition2,29933.0,-0.0526123046875,0.112487792969,0.676513671875,0.725891113281,-4.0,4.0625,-1.3125,-2.52,0.57,9.71
1542407895117090940,184,0,/imu_data_acquisition2,29942.0,-0.0530395507812,0.112426757812,0.676513671875,0.725891113281,-3.8125,2.5,-0.375,-2.36,0.63,9.48
1542407895128415107,185,0,/imu_data_acquisition2,29953.0,-0.0535278320312,0.112365722656,0.676452636719,0.725891113281,-4.125,-0.0625,-0.0625,-2.07,0.78,-0.01
1542407895138787984,186,0,/imu_data_acquisition2,29963.0,-0.053955078125,0.1123046875,0.676452636719,0.725891113281,-4.0625,3.0,-1.125,-2.48,0.64,9.58
1542407895145044088,187,0,/imu_data_acquisition2,29970.0,-0.054443359375,0.1123046875,0.676391601562,0.725891113281,-4.25,3.25,-1.1875,-2.48,0.64,9.58
1542407895158371925,188,0,/imu_data_acquisition2,29983.0,-0.0549926757812,0.112243652344,0.676513671875,0.725708007812,-4.625,4.375,-1.75,-2.06,0.66,9.71
1542407895168103933,189,0,/imu_data_acquisition2,29993.0,-0.0556030273438,0.112182617188,0.676391601562,0.725830078125,-5.1875,4.75,-2.5,-2.28,0.73,9.59
1542407895179073095,190,0,/imu_data_acquisition2,30003.0,-0.0562744140625,0.112243652344,0.67626953125,0.725891113281,-5.375,5.6875,-2.5,-2.41,0.68,9.57
1542407895188318014,191,0,/imu_data_acquisition2,30013.0,-0.0570678710938,0.1123046875,0.676086425781,0.725952148438,-5.875,7.0625,-2.9375,-2.17,0.54,9.68
1542407895196897029,192,0,/imu_data_acquisition2,30022.0,-0.0579223632812,0.1123046875,0.675903320312,0.72607421875,-6.375,7.375,-3.375,-2.17,0.54,9.68
1542407895208380937,193,0,/imu_data_acquisition2,30033.0,-0.058837890625,0.112426757812,0.675598144531,0.726257324219,-6.5,8.375,-3.75,-2.14,0.66,9.66
1542407895222553014,194,0,/imu_data_acquisition2,30043.0,-0.059814453125,0.112609863281,0.675415039062,0.726318359375,-6.625,10.125,-3.5,-2.55,0.54,9.65
1542407895228281021,195,0,/imu_data_acquisition2,30053.0,-0.0608520507812,0.112854003906,0.675170898438,0.726440429688,-7.375,12.5,-4.8125,-2.56,0.75,9.77
1542407895238619089,196,0,/imu_data_acquisition2,30063.0,-0.0620727539062,0.113159179688,0.674865722656,0.7265625,-7.375,12.5,-4.8125,-2.62,0.69,9.81
1542407895245606899,197,0,/imu_data_acquisition2,30070.0,-0.0633544921875,0.113464355469,0.674560546875,0.726684570312,-7.4375,12.75,-5.125,-2.62,0.69,9.81
1542407895255249023,198,0,/imu_data_acquisition2,30080.0,-0.0645751953125,0.113891601562,0.674194335938,0.726806640625,-7.0,13.5625,-5.3125,-2.55,0.54,9.8
1542407895267626047,199,0,/imu_data_acquisition2,30092.0,-0.0658569335938,0.114318847656,0.673828125,0.726989746094,-7.125,13.8125,-6.0625,-2.43,0.54,9.75
1542407895278588056,200,0,/imu_data_acquisition2,30103.0,-0.0671997070312,0.114807128906,0.673400878906,0.727233886719,-6.875,15.1875,-6.875,-2.58,0.47,9.17
1542407895289792060,201,0,/imu_data_acquisition2,30113.0,-0.0687866210938,0.115478515625,0.6728515625,0.727478027344,-6.875,18.0625,-7.875,-2.08,0.05,9.65
1542407895299561977,202,0,/imu_data_acquisition2,30121.0,-0.0704345703125,0.116333007812,0.672302246094,0.727661132812,-6.375,20.875,-8.3125,-2.08,0.05,9.65
1542407895306555032,203,0,/imu_data_acquisition2,30132.0,-0.0722045898438,0.117431640625,0.671691894531,0.727905273438,-5.8125,23.3125,-8.5,-1.65,0.25,10.11
1542407895320786952,204,0,/imu_data_acquisition2,30143.0,-0.073974609375,0.11865234375,0.671081542969,0.728088378906,-4.4375,25.4375,-8.0625,-2.18,0.42,8.6
1542407895332056999,205,0,/imu_data_acquisition2,30157.0,-0.07568359375,0.119995117188,0.670471191406,0.728271484375,-2.0625,26.875,-9.625,-2.48,0.21,9.38
1542407895339293003,206,0,/imu_data_acquisition2,30164.0,-0.0774536132812,0.121459960938,0.669677734375,0.728515625,-2.0625,26.875,-9.625,-2.05,0.61,9.2
1542407895346374988,207,0,/imu_data_acquisition2,30171.0,-0.0792846679688,0.123291015625,0.668823242188,0.728820800781,-0.25,31.1875,-10.4375,-2.05,0.61,9.2
1542407895360017061,208,0,/imu_data_acquisition2,30185.0,-0.0813598632812,0.125549316406,0.668029785156,0.728942871094,1.3125,36.0,-9.3125,-2.47,0.98,10.44
1542407895370522022,209,0,/imu_data_acquisition2,30192.0,-0.0836791992188,0.128295898438,0.667114257812,0.729064941406,3.0625,42.875,-9.375,-2.47,0.98,10.44
1542407895390583992,211,0,/imu_data_acquisition2,30216.0,-0.09228515625,0.139282226562,0.664184570312,0.728637695312,6.8125,63.0,-7.4375,-2.28,0.35,9.91
1542407895398888111,212,0,/imu_data_acquisition2,30222.0,-0.09228515625,0.139282226562,0.664184570312,0.728637695312,6.8125,63.0,-7.4375,-2.28,0.35,9.91
1542407895412326097,213,0,/imu_data_acquisition2,30237.0,-0.095947265625,0.144287109375,0.663024902344,0.728210449219,12.5625,88.9375,-5.6875,-2.85,1.13,9.86
1542407895418158054,214,0,/imu_data_acquisition2,30243.0,-0.100219726562,0.150451660156,0.661804199219,0.7275390625,12.5625,88.9375,-5.6875,-2.85,1.13,9.86
1542407895431109905,215,0,/imu_data_acquisition2,30254.0,-0.104858398438,0.157348632812,0.660461425781,0.726684570312,15.3125,98.9375,-5.0,-2.63,1.72,11.08
1542407895446162939,216,0,/imu_data_acquisition2,30269.0,-0.117004394531,0.173217773438,0.656860351562,0.724426269531,9.0,128.25,-10.0,-2.97,2.22,10.48
1542407895454112052,217,0,/imu_data_acquisition2,30279.0,-0.127990722656,0.181640625,0.653869628906,0.723205566406,-24.25,164.75,-26.5625,-2.34,2.79,10.43
1542407895460325002,218,0,/imu_data_acquisition2,30285.0,-0.127990722656,0.181640625,0.653869628906,0.723205566406,-24.25,164.75,-26.5625,-2.3,2.84,9.28
1542407895466840982,219,0,/imu_data_acquisition2,30291.0,-0.138977050781,0.190063476562,0.650817871094,0.721801757812,-24.25,164.75,-26.5625,-2.3,2.84,9.28
1542407895480146884,220,0,/imu_data_acquisition2,30304.0,-0.155456542969,0.198547363281,0.647094726562,0.719482421875,-71.375,210.75,-36.5,-2.12,2.94,13.35
1542407895490855932,221,0,/imu_data_acquisition2,30314.0,-0.174926757812,0.207214355469,0.641052246094,0.718017578125,-87.5,237.625,-70.3125,-2.15,3.56,14.4
1542407895496670961,222,0,/imu_data_acquisition2,30322.0,-0.197326660156,0.21875,0.632629394531,0.716247558594,-86.125,289.625,-89.3125,-2.15,3.56,14.4
1542407895506266117,223,0,/imu_data_acquisition2,30331.0,-0.222778320312,0.233337402344,0.621948242188,0.713500976562,-85.0625,346.8125,-101.6875,-2.95,2.4,14.08
1542407895518024921,224,0,/imu_data_acquisition2,30343.0,-0.250122070312,0.251708984375,0.608276367188,0.7099609375,-67.3125,402.5,-116.8125,-2.75,0.94,12.89
1542407895530992984,225,0,/imu_data_acquisition2,30356.0,-0.279296875,0.273742675781,0.591247558594,0.705322265625,-76.25,481.75,-150.875,-7.24,5.83,11.71
1542407895539820909,226,0,/imu_data_acquisition2,30365.0,-0.311157226562,0.294799804688,0.572143554688,0.699279785156,-76.25,481.75,-150.875,-0.34,2.56,11.43
1542407895547018051,227,0,/imu_data_acquisition2,30372.0,-0.347106933594,0.310180664062,0.552490234375,0.69140625,-153.8125,471.6875,-178.5,-0.34,2.56,11.43
1542407895557742118,228,0,/imu_data_acquisition2,30382.0,-0.384582519531,0.322326660156,0.532531738281,0.681579589844,-194.375,463.125,-187.125,-9.04,-1.76,16.9
1542407895570746898,229,0,/imu_data_acquisition2,30394.0,-0.409729003906,0.328125,0.518981933594,0.674621582031,-147.125,293.4375,-134.875,-2.55,1.27,29.78
1542407895579485893,230,0,/imu_data_acquisition2,30404.0,-0.419372558594,0.329223632812,0.512329101562,0.673217773438,-50.9375,106.0625,-76.5,-1.32,4.13,21.2
1542407895589875936,231,0,/imu_data_acquisition2,30415.0,-0.419311523438,0.329162597656,0.50830078125,0.676330566406,31.625,7.1875,-51.5625,2.04,4.92,13.67
1542407895598021984,232,0,/imu_data_acquisition2,30421.0,-0.415222167969,0.326904296875,0.506896972656,0.680969238281,47.5,-54.0,-34.25,2.04,4.92,13.67
1542407895604392051,233,0,/imu_data_acquisition2,30430.0,-0.410827636719,0.323120117188,0.50732421875,0.685119628906,31.1875,-75.0625,-22.8125,2.48,4.31,7.85
1542407895615964889,234,0,/imu_data_acquisition2,30440.0,-0.406921386719,0.318237304688,0.509460449219,0.688171386719,9.125,-85.625,-9.9375,1.71,3.46,7.92
1542407895638573884,235,0,/imu_data_acquisition2,30454.0,-0.402404785156,0.312316894531,-6.103515625e-05,0.690795898438,0.3125,-102.6875,3.375,0.61,2.34,9.42
1542407895639373064,236,0,/imu_data_acquisition2,30464.0,-0.396179199219,0.305847167969,0.518310546875,0.693420410156,5.0,-124.9375,17.5,0.61,2.34,9.42
1542407895645034074,237,0,/imu_data_acquisition2,30470.0,-0.387939453125,0.298706054688,0.524780273438,0.696350097656,13.875,-150.0,31.9375,0.21,2.25,10.95
1542407895655790090,238,0,/imu_data_acquisition2,30481.0,-0.377746582031,0.290832519531,0.532531738281,0.699401855469,21.375,-174.6875,44.5625,-0.38,1.91,11.25
1542407895669771909,239,0,/imu_data_acquisition2,30495.0,-0.365661621094,0.281799316406,0.541381835938,0.702697753906,27.5,-201.9375,53.625,-1.25,0.13,10.25
1542407895690584897,241,0,/imu_data_acquisition2,30515.0,-0.3369140625,0.260192871094,0.560852050781,0.710083007812,35.625,-246.4375,58.8125,-2.15,-0.99,9.46
1542407895698376893,242,0,/imu_data_acquisition2,30523.0,-0.320861816406,0.247863769531,0.570617675781,0.714111328125,39.1875,-261.9375,55.4375,-2.15,-0.99,9.46
1542407895706775903,243,0,/imu_data_acquisition2,30531.0,-0.304016113281,0.234741210938,0.579956054688,0.718383789062,42.625,-273.0,49.6875,-2.89,-1.91,7.8
1542407895720932006,244,0,/imu_data_acquisition2,30545.0,-0.286804199219,0.221008300781,0.588500976562,0.722900390625,44.4375,-277.625,40.0625,-3.67,-3.72,6.35
1542407895730252027,245,0,/imu_data_acquisition2,30555.0,-0.269653320312,0.20751953125,0.595642089844,0.727661132812,59.8125,-265.25,13.25,-4.77,-3.71,8.13
1542407895740055084,246,0,/imu_data_acquisition2,30565.0,-0.252319335938,0.194458007812,0.601318359375,0.732788085938,59.8125,-265.25,13.25,-6.04,-2.38,11.18
1542407895745368957,247,0,/imu_data_acquisition2,30571.0,-0.234497070312,0.181457519531,0.605651855469,0.738403320312,68.4375,-265.5625,0.375,-6.04,-2.38,11.18
1542407895755769968,248,0,/imu_data_acquisition2,30580.0,-0.216247558594,0.168212890625,0.609008789062,0.744323730469,73.875,-268.875,-10.875,-6.23,-1.55,11.77
1542407895764852046,249,0,/imu_data_acquisition2,30590.0,-0.19775390625,0.154846191406,0.611511230469,0.750305175781,77.25,-269.625,-17.875,-6.61,-0.84,11.72
1542407895777640104,250,0,/imu_data_acquisition2,30603.0,-0.179016113281,0.141906738281,0.613586425781,0.755920410156,82.0,-265.8125,-18.4375,-7.21,0.11,11.03
1542407895789465904,251,0,/imu_data_acquisition2,30615.0,-0.159973144531,0.129943847656,0.615295410156,0.760864257812,91.1875,-257.0625,-13.6875,-7.63,0.48,11.34
1542407895796139955,252,0,/imu_data_acquisition2,30620.0,-0.140319824219,0.119323730469,0.617126464844,0.765014648438,104.375,-248.5625,-3.875,-8.28,0.64,12.44
1542407895806186914,253,0,/imu_data_acquisition2,30631.0,-0.119873046875,0.109741210938,0.619140625,0.768249511719,117.8125,-244.0625,7.8125,-9.69,1.11,15.21
1542407895816351890,254,0,/imu_data_acquisition2,30641.0,-0.0988159179688,0.100524902344,0.62158203125,0.770568847656,124.375,-244.875,19.0,-9.98,1.41,16.06
1542407895828985929,255,0,/imu_data_acquisition2,30653.0,-0.0774536132812,0.0911254882812,0.624206542969,0.772033691406,123.8125,-248.0,28.0625,-9.7,1.13,15.74
1542407895838603019,256,0,/imu_data_acquisition2,30663.0,-0.0560302734375,0.081787109375,0.627014160156,0.772644042969,124.3125,-7.25,-0.0625,-9.36,0.11,15.54
1542407895846489906,257,0,/imu_data_acquisition2,30671.0,-0.034423828125,0.0728759765625,0.629821777344,0.772521972656,128.5625,-243.5625,41.625,-9.46,0.13,15.99
1542407895856966972,258,0,/imu_data_acquisition2,30681.0,-0.0125732421875,0.0643920898438,0.632751464844,0.771606445312,134.25,-240.875,49.125,-9.53,0.49,16.25
1542407895867717027,259,0,/imu_data_acquisition2,30690.0,0.0093994140625,0.0562133789062,0.635864257812,0.769653320312,136.6875,-238.0625,58.6875,-9.57,0.97,15.97
1542407895878323078,260,0,/imu_data_acquisition2,30704.0,0.031005859375,0.04833984375,0.639465332031,0.766662597656,135.4375,-232.3125,70.75,-9.19,1.14,13.96
1542407895888014078,261,0,/imu_data_acquisition2,30712.0,0.0518798828125,-6.103515625e-05,-6.103515625e-05,0.762451171875,132.5625,-221.375,83.875,-9.46,0.75,13.3
1542407895895225048,262,0,/imu_data_acquisition2,30720.0,0.0718994140625,0.0342407226562,0.648315429688,0.757202148438,130.8125,-207.5,96.25,-9.57,-0.47,12.66
1542407895906575918,263,0,/imu_data_acquisition2,30731.0,0.0911865234375,0.0285034179688,0.653381347656,0.7509765625,131.6875,-192.75,106.375,-10.29,-2.64,11.39
1542407895916786909,264,0,/imu_data_acquisition2,30741.0,0.109375,0.0235595703125,0.658569335938,0.744201660156,129.125,-176.875,109.5625,-11.08,-3.73,10.77
1542407895926636934,265,0,/imu_data_acquisition2,30752.0,0.126159667969,0.0192260742188,0.663330078125,0.737365722656,121.8125,-160.375,105.3125,-11.34,-4.76,9.47
1542407895938621997,266,0,/imu_data_acquisition2,30763.0,0.141052246094,0.0156860351562,0.667236328125,0.731201171875,110.3125,-140.9375,91.6875,-12.35,-8.29,6.11
1542407895946204900,267,0,/imu_data_acquisition2,30770.0,0.154052734375,0.013427734375,0.669860839844,0.726196289062,102.6875,-117.1875,68.3125,-13.2,-10.05,4.5
1542407895955590009,268,0,/imu_data_acquisition2,30781.0,0.165466308594,0.0132446289062,0.670837402344,0.722778320312,102.9375,-89.6875,37.5625,-13.99,-10.67,2.87
1542407895966856002,269,0,/imu_data_acquisition2,30791.0,0.175109863281,0.0153198242188,0.670288085938,0.721008300781,102.0625,-59.4375,6.5625,-14.65,-9.67,1.5
1542407895976490020,270,0,/imu_data_acquisition2,30800.0,0.181884765625,0.0186767578125,0.668579101562,0.720825195312,85.5625,-28.6875,-18.875,-15.63,-5.17,0.8
1542407895987999916,271,0,/imu_data_acquisition2,30813.0,0.184936523438,0.0221557617188,0.666564941406,0.721801757812,51.8125,0.9375,-31.875,-14.8,-3.43,0.88
1542407895997315883,272,0,/imu_data_acquisition2,30821.0,0.184204101562,0.0253295898438,0.664794921875,0.723510742188,15.4375,28.25,-35.8125,-13.86,-2.6,1.29
1542407896005577087,273,0,/imu_data_acquisition2,30830.0,0.1806640625,0.028564453125,0.663696289062,0.725341796875,-7.9375,52.9375,-31.5625,-11.45,-1.0,2.91
1542407896015988111,274,0,/imu_data_acquisition2,30841.0,0.175231933594,0.032470703125,0.66357421875,0.7265625,-18.625,75.5,-20.625,-10.66,0.02,3.97
1542407896029026031,275,0,/imu_data_acquisition2,30851.0,0.168518066406,0.0369873046875,0.664672851562,0.726928710938,-23.625,93.6875,-0.0625,-10.16,0.92,5.12
1542407896034776926,276,0,/imu_data_acquisition2,30860.0,0.160949707031,0.0418701171875,0.667236328125,0.72607421875,-26.6875,107.0,-0.0625,-8.43,3.73,6.24
1542407896045931100,277,0,/imu_data_acquisition2,30871.0,0.151977539062,0.0463256835938,0.671569824219,0.723693847656,-39.125,118.6875,43.0,-6.51,7.97,7.94
1542407896055608987,278,0,/imu_data_acquisition2,30880.0,0.141235351562,0.0482788085938,0.677978515625,0.719787597656,-72.9375,115.9375,76.5625,3.65,6.92,10.65
1542407896064773082,279,0,/imu_data_acquisition2,30890.0,0.129333496094,0.049560546875,0.685363769531,0.714904785156,-87.0,121.75,93.6875,17.76,11.62,19.38
1542407896076592922,280,0,/imu_data_acquisition2,30901.0,0.115112304688,0.0502319335938,0.691223144531,0.711608886719,-113.3125,131.6875,66.5625,10.55,3.3,1.65
1542407896092483043,281,0,/imu_data_acquisition2,30918.0,0.0945434570312,0.05224609375,0.695190429688,0.710693359375,-151.75,218.1875,9.5,4.2,-14.08,1.97
1542407896096649885,282,0,/imu_data_acquisition2,30922.0,0.0726318359375,0.0563354492188,0.697998046875,0.710144042969,-151.75,218.1875,9.5,4.2,-14.08,1.97
1542407896109461069,283,0,/imu_data_acquisition2,30933.0,0.0518188476562,0.0661010742188,0.698364257812,0.710754394531,-94.875,253.875,-24.125,-4.03,-16.84,20.15
1542407896115650892,284,0,/imu_data_acquisition2,30940.0,0.0341796875,0.0787353515625,0.696044921875,0.712829589844,-43.875,248.875,-58.0,-10.82,-10.26,20.77
1542407896125147104,285,0,/imu_data_acquisition2,30950.0,0.0206298828125,0.0902709960938,0.69287109375,0.715087890625,-16.8125,206.0625,-63.125,-6.43,3.14,16.68
1542407896139004945,286,0,/imu_data_acquisition2,30963.0,0.00811767578125,0.0996704101562,0.690612792969,0.716247558594,-27.1875,180.3125,-44.1875,-12.32,12.45,19.19
1542407896145272016,287,0,/imu_data_acquisition2,30970.0,-0.00390625,0.103210449219,0.689758300781,0.716613769531,-71.5625,128.0,-24.6875,-9.67,0.6,18.61
1542407896155320882,288,0,/imu_data_acquisition2,30980.0,-0.0130004882812,0.102600097656,0.689147949219,0.717224121094,-82.4375,68.75,-16.875,-5.89,-6.68,17.3
1542407896166546106,289,0,/imu_data_acquisition2,30991.0,-0.0184326171875,0.10205078125,0.68896484375,0.717346191406,-50.125,39.3125,-9.25,-2.74,0.54,11.35
1542407896174789905,290,0,/imu_data_acquisition2,31000.0,-0.0220947265625,0.10205078125,0.688842773438,0.717346191406,-31.0,30.0,-5.3125,-2.58,-0.73,11.4
1542407896185586929,291,0,/imu_data_acquisition2,31011.0,-0.0248413085938,0.102661132812,0.688720703125,0.71728515625,-17.75,27.625,-4.125,-3.09,-1.73,11.85
1542407896196696996,292,0,/imu_data_acquisition2,31021.0,-0.0264282226562,0.103820800781,0.688537597656,0.717224121094,-4.0625,22.8125,-2.625,-2.86,0.91,9.83
1542407896205344915,293,0,/imu_data_acquisition2,31030.0,-0.0276489257812,0.104675292969,0.688232421875,0.717346191406,-2.875,17.1875,-4.375,-2.6,0.74,10.78
1542407896216053962,294,0,/imu_data_acquisition2,31041.0,-0.0285034179688,0.105346679688,0.68798828125,0.717529296875,-1.5625,12.0,-4.5,-2.19,0.73,10.55
1542407896228173017,295,0,/imu_data_acquisition2,31052.0,-0.0291137695312,0.105895996094,0.687683105469,0.717651367188,0.25,9.875,-4.125,-2.36,0.72,9.86
1542407896235435962,296,0,/imu_data_acquisition2,31060.0,-0.0294189453125,0.1064453125,0.6875,0.7177734375,1.75,7.5,-2.625,-2.0,0.89,9.27
1542407896246252059,297,0,/imu_data_acquisition2,31071.0,-0.0297241210938,0.106994628906,0.687377929688,0.7177734375,2.4375,6.875,-1.0,-2.2,0.96,9.52
1542407896256458044,298,0,/imu_data_acquisition2,31081.0,-0.0299682617188,0.107482910156,0.687377929688,0.717712402344,1.8125,6.0625,-0.1875,-2.03,1.01,9.35
1542407896265228986,299,0,/imu_data_acquisition2,31090.0,-0.0301513671875,0.107971191406,0.687316894531,0.717651367188,2.125,5.6875,0.0,-2.41,1.1,9.53
1542407896275433063,300,0,/imu_data_acquisition2,31101.0,-0.0303955078125,0.1083984375,0.687316894531,0.717590332031,1.4375,6.0625,-0.125,-2.1,0.83,9.9
1542407896285970926,301,0,/imu_data_acquisition2,31111.0,-0.0307006835938,0.108703613281,0.687255859375,0.717529296875,0.5,4.5,0.0625,-2.05,0.88,9.82
1542407896295063018,302,0,/imu_data_acquisition2,31120.0,-0.0310668945312,0.108947753906,0.687255859375,0.717529296875,-0.1875,4.1875,0.0,-2.37,0.83,9.86
1542407896307178020,303,0,/imu_data_acquisition2,31132.0,-0.0314331054688,0.109130859375,0.687255859375,0.717468261719,-1.3125,2.75,0.0,-2.27,1.09,9.78
1542407896319590091,304,0,/imu_data_acquisition2,31142.0,-0.0317993164062,0.109191894531,0.687255859375,0.717468261719,-2.4375,2.375,-0.375,-2.4,1.14,9.78
1542407896325880050,305,0,/imu_data_acquisition2,31150.0,-0.0321655273438,0.109191894531,0.687194824219,0.717468261719,-3.0,1.3125,-0.8125,-2.34,1.07,-0.01
1542407896335402965,306,0,/imu_data_acquisition2,31160.0,-0.0325317382812,0.109252929688,0.687133789062,0.717529296875,-3.25,0.8125,-1.0,-2.46,1.18,9.76
1542407896344410896,307,0,/imu_data_acquisition2,31170.0,-0.032958984375,0.109252929688,0.687072753906,0.717590332031,-3.1875,1.4375,-0.0625,-2.39,0.85,9.95
1542407896354933977,308,0,/imu_data_acquisition2,31180.0,-0.0331420898438,0.109069824219,0.68701171875,0.717651367188,-2.5625,0.1875,-1.0,-1.91,0.99,9.81
1542407896364711999,309,0,/imu_data_acquisition2,31190.0,-0.033203125,0.109008789062,0.68701171875,0.717651367188,-1.5625,0.3125,-0.75,-1.93,0.97,10.07
1542407896374532938,310,0,/imu_data_acquisition2,31200.0,-0.033203125,0.109008789062,0.68701171875,0.717651367188,-0.5625,-0.0625,-0.125,-2.82,0.77,9.75
1542407896385335922,311,0,/imu_data_acquisition2,31210.0,-0.033203125,0.108947753906,0.68701171875,0.717651367188,0.5625,-0.8125,0.3125,-2.1,0.84,9.89
1542407896394676923,312,0,/imu_data_acquisition2,31220.0,-0.0331420898438,0.108947753906,0.68701171875,0.717651367188,1.75,-1.5,0.8125,-2.27,0.76,9.96
1542407896404582977,313,0,/imu_data_acquisition2,31230.0,-0.0330200195312,0.109069824219,0.687072753906,0.717651367188,2.6875,-1.125,1.0,-2.17,0.89,9.94
1542407896414747953,314,0,/imu_data_acquisition2,31240.0,-6.103515625e-05,-6.103515625e-05,-6.103515625e-05,0.717590332031,3.3125,-1.625,1.5,-1.89,0.72,9.78
1542407896427866935,315,0,/imu_data_acquisition2,31250.0,-0.0324096679688,0.109313964844,0.687194824219,0.717468261719,3.6875,-1.0,1.625,-2.43,0.78,9.63
1542407896434652090,316,0,/imu_data_acquisition2,31260.0,-0.0321044921875,0.109436035156,0.687255859375,0.717407226562,3.375,-1.4375,1.875,-2.28,1.03,9.55
1542407896445497989,317,0,/imu_data_acquisition2,31270.0,-0.0317993164062,0.109497070312,0.687316894531,0.717346191406,3.125,-1.625,1.6875,-2.19,1.16,9.53
1542407896454292058,318,0,/imu_data_acquisition2,31280.0,-0.0315551757812,0.109497070312,0.687377929688,0.71728515625,1.875,-0.0625,-0.0625,-2.18,1.31,9.61
1542407896465063095,319,0,/imu_data_acquisition2,31290.0,-6.103515625e-05,-6.103515625e-05,-6.103515625e-05,0.717346191406,0.5625,-2.3125,-0.0625,-2.23,1.3,9.47
1542407896474764108,320,0,/imu_data_acquisition2,31300.0,-0.0313110351562,0.109130859375,0.687316894531,0.717407226562,-0.9375,-2.375,-1.3125,-2.11,1.09,9.31
1542407896484862089,321,0,/imu_data_acquisition2,31310.0,-0.0313720703125,0.10888671875,0.687255859375,0.717529296875,-2.0625,-2.1875,-2.0,-2.11,1.09,9.57
1542407896494390964,322,0,/imu_data_acquisition2,31320.0,-0.031494140625,0.108581542969,0.687133789062,0.717712402344,-3.0625,-1.375,-2.3125,-2.17,0.83,9.68
1542407896504652023,323,0,/imu_data_acquisition2,31330.0,-0.03173828125,0.108276367188,0.687438964844,0.717407226562,-4.0625,-1.4375,-1.875,-2.04,0.82,9.88
1542407896515160083,324,0,/imu_data_acquisition2,31340.0,-0.0319213867188,0.107971191406,0.687377929688,0.717529296875,-4.3125,-0.875,-2.3125,-2.0,0.87,9.73
1542407896524550914,325,0,/imu_data_acquisition2,31350.0,-0.0322265625,0.107666015625,0.687255859375,0.717651367188,-4.375,-0.25,-1.9375,-2.04,0.81,9.67
1542407896534483909,326,0,/imu_data_acquisition2,31360.0,-0.0325317382812,0.107482910156,0.687194824219,0.717712402344,-4.3125,0.75,-2.0,-2.34,0.77,9.81
1542407896544851064,327,0,/imu_data_acquisition2,31370.0,-6.103515625e-05,-6.103515625e-05,-6.103515625e-05,0.717834472656,-3.8125,1.0,-1.75,-2.17,0.73,9.68
1542407896555282115,328,0,/imu_data_acquisition2,31380.0,-0.0333862304688,0.107177734375,0.68701171875,0.717895507812,-3.3125,1.375,-1.75,-2.31,0.69,9.77
1542407896564409017,329,0,/imu_data_acquisition2,31390.0,-0.0337524414062,0.107177734375,0.686950683594,0.717956542969,-2.3125,1.4375,-1.25,-2.21,0.86,9.68
1542407896575196981,330,0,/imu_data_acquisition2,31400.0,-0.0343017578125,0.107177734375,0.686828613281,0.718078613281,-2.125,1.9375,-1.5625,-2.28,0.62,9.55
1542407896584717988,331,0,/imu_data_acquisition2,31410.0,-0.0347900390625,0.107177734375,0.686706542969,0.718139648438,-2.0,2.1875,-1.6875,-2.29,0.75,9.65
1542407896594563961,332,0,/imu_data_acquisition2,31420.0,-0.0352172851562,0.107238769531,-6.103515625e-05,0.718200683594,-2.125,2.125,-1.375,-2.3,-0.01,-0.01
1542407896604144096,333,0,/imu_data_acquisition2,31430.0,-0.0358276367188,0.107360839844,-6.103515625e-05,0.71826171875,-2.1875,3.0,-1.1875,-2.52,0.75,9.63
1542407896614717960,334,0,/imu_data_acquisition2,31440.0,-0.036376953125,0.107482910156,0.686462402344,0.71826171875,-2.5625,2.6875,-1.1875,-2.27,0.8,9.67
1542407896626504898,335,0,/imu_data_acquisition2,31450.0,-0.0368041992188,0.107421875,0.686401367188,0.718322753906,-2.625,2.0,-1.1875,-2.0,0.69,9.56
1542407896634869098,336,0,/imu_data_acquisition2,31460.0,-0.00592041015625,-6.103515625e-05,-6.103515625e-05,0.718383789062,-3.0,3.125,-1.5625,-2.04,0.9,9.59
1542407896645181894,337,0,/imu_data_acquisition2,31470.0,-0.03759765625,0.107360839844,0.686218261719,0.718444824219,-3.5,2.6875,-1.5625,-2.12,0.8,9.59
1542407896654594898,338,0,/imu_data_acquisition2,31480.0,-0.03759765625,0.107360839844,0.686218261719,0.718444824219,-3.875,4.1875,-1.8125,-2.61,0.6,9.62
1542407896665867090,339,0,/imu_data_acquisition2,31490.0,-0.0386352539062,0.107360839844,0.686096191406,0.718505859375,-4.625,3.875,-1.625,-1.99,0.77,9.74
1542407896674462080,340,0,/imu_data_acquisition2,31500.0,-0.0392456054688,0.107299804688,0.685974121094,0.718627929688,-5.0625,3.75,-2.4375,-2.34,0.84,9.6
1542407896684986114,341,0,/imu_data_acquisition2,31510.0,-0.0399780273438,0.107299804688,0.685791015625,0.718688964844,-5.375,4.625,-2.5625,-2.35,0.72,9.56
1542407896695120096,342,0,/imu_data_acquisition2,31520.0,-0.0407104492188,0.107299804688,0.685668945312,0.718811035156,-6.0625,5.0625,-2.875,-2.32,0.94,9.64
1542407896704530000,343,0,/imu_data_acquisition2,31530.0,-0.0415649414062,0.107299804688,0.685485839844,0.718933105469,-6.6875,6.3125,-3.25,-1.91,0.87,9.67
1542407896714546918,344,0,/imu_data_acquisition2,31540.0,-0.0425415039062,0.107360839844,0.685363769531,0.718994140625,-7.6875,7.8125,-3.25,-2.54,0.77,9.6
1542407896725369930,345,0,/imu_data_acquisition2,31550.0,-0.0436401367188,0.107421875,0.685119628906,0.719116210938,-8.375,8.5625,-3.9375,-2.22,0.83,9.61
1542407896734859943,346,0,/imu_data_acquisition2,31560.0,-0.0447387695312,0.107482910156,0.684936523438,0.71923828125,-8.8125,9.875,-4.0625,-2.15,0.8,9.75
1542407896744915008,347,0,/imu_data_acquisition2,31570.0,-0.0460205078125,0.107604980469,0.684692382812,0.719360351562,-9.3125,11.625,-4.5,-2.12,0.88,9.81
1542407896755378007,348,0,/imu_data_acquisition2,31580.0,-0.0460205078125,0.107604980469,0.684692382812,0.719360351562,-10.0,14.0,-5.625,-2.62,0.65,9.68
1542407896764614105,349,0,/imu_data_acquisition2,31590.0,-0.0491333007812,0.108215332031,0.683959960938,0.719787597656,-10.5,15.25,-6.6875,-2.09,0.76,9.6
1542407896775552988,350,0,/imu_data_acquisition2,31600.0,-0.0509643554688,0.108642578125,0.683410644531,0.720092773438,-11.0,18.25,-8.9375,-2.11,0.43,9.57
1542407896784646987,351,0,/imu_data_acquisition2,31610.0,-0.0529174804688,0.109252929688,0.682800292969,0.720458984375,-10.625,21.4375,-10.9375,-2.8,0.4,9.29
1542407896795595884,352,0,/imu_data_acquisition2,31620.0,-0.054931640625,0.110046386719,0.682067871094,0.720886230469,-9.5625,22.5625,-11.5,-2.13,0.4,8.98
1542407896804543018,353,0,/imu_data_acquisition2,31630.0,-0.054931640625,0.110046386719,0.682067871094,0.720886230469,-8.5,25.0,-12.1875,-2.6,-0.18,9.98
1542407896815752029,354,0,/imu_data_acquisition2,31640.0,-0.0570068359375,0.111022949219,0.681274414062,0.721313476562,-7.625,27.1875,-12.1875,-1.62,0.71,9.96
1542407896824887990,355,0,/imu_data_acquisition2,31650.0,-0.0591430664062,0.112182617188,0.680480957031,0.721740722656,-6.0,29.9375,-10.8125,-2.96,0.01,10.29
1542407896835491895,356,0,/imu_data_acquisition2,31660.0,-0.0613403320312,0.113586425781,0.6796875,0.722045898438,-4.875,31.3125,-12.1875,-2.65,0.3,8.9
1542407896845278024,357,0,/imu_data_acquisition2,31670.0,-0.0635375976562,0.115173339844,0.678833007812,0.722412109375,-2.4375,31.25,-11.9375,-2.64,-0.09,9.45
1542407896855170965,358,0,/imu_data_acquisition2,31680.0,-0.0656127929688,0.116882324219,0.677978515625,0.722778320312,-0.375,33.25,-10.5625,-1.88,0.67,9.37
1542407896864615917,359,0,/imu_data_acquisition2,31690.0,-0.067626953125,0.118835449219,0.677124023438,0.723022460938,1.0,38.0,-8.0625,-2.38,0.61,9.34
1542407896875128030,360,0,/imu_data_acquisition2,31700.0,-0.06982421875,0.121154785156,0.676391601562,0.72314453125,2.1875,43.0,-5.625,-2.61,0.95,9.7
1542407896885783910,361,0,/imu_data_acquisition2,31710.0,-0.0722045898438,0.123901367188,0.67578125,0.723022460938,2.8125,49.5625,-3.0,-2.91,0.78,10.48
1542407896895303964,362,0,/imu_data_acquisition2,31720.0,-0.0748901367188,0.127075195312,0.67529296875,0.72265625,3.0,54.5,-1.875,-2.06,0.22,10.14
1542407896904714107,363,0,/imu_data_acquisition2,31730.0,-0.0778198242188,0.130554199219,0.674743652344,0.722229003906,3.0,54.5,-1.875,-2.88,0.27,9.85
1542407896914902925,364,0,/imu_data_acquisition2,31740.0,-0.0811157226562,0.134582519531,0.67431640625,0.721557617188,4.25,62.5625,-0.5625,-1.46,0.56,10.15
1542407896925395011,365,0,/imu_data_acquisition2,31750.0,-0.0848388671875,0.139404296875,0.673706054688,0.720764160156,10.5625,88.0,-0.5,-2.92,1.49,9.69
1542407896935076951,366,0,/imu_data_acquisition2,31760.0,-0.0891723632812,0.145385742188,0.672912597656,0.719787597656,13.4375,99.25,0.3125,-2.14,1.36,10.7
1542407896946300983,367,0,/imu_data_acquisition2,31771.0,-0.093994140625,0.152160644531,0.671997070312,0.718627929688,13.1875,115.625,-1.375,-3.34,1.82,10.5
1542407896954895019,368,0,/imu_data_acquisition2,31780.0,-0.0997924804688,0.159912109375,0.670776367188,0.71728515625,13.1875,115.625,-1.375,-2.91,1.93,10.74
1542407896964879035,369,0,/imu_data_acquisition2,31790.0,-0.106872558594,0.168273925781,0.669250488281,0.715759277344,7.5625,131.75,-4.3125,-2.73,2.65,10.48
1542407896975789070,370,0,/imu_data_acquisition2,31801.0,-0.11572265625,0.177062988281,0.667114257812,0.714294433594,-23.6875,172.0,-27.875,-0.01,4.26,10.77
1542407896985913991,371,0,/imu_data_acquisition2,31811.0,-0.127258300781,0.185791015625,0.6640625,0.712951660156,-66.125,211.125,-42.375,-3.53,0.72,11.57
1542407896995661020,372,0,/imu_data_acquisition2,31821.0,-0.143737792969,0.194274902344,0.66015625,0.711181640625,-78.9375,245.0625,-52.25,-1.49,3.45,14.6
1542407897004800081,373,0,/imu_data_acquisition2,31830.0,-0.162963867188,0.203918457031,0.655151367188,0.708984375,-78.9375,245.0625,-52.25,-1.83,3.2,15.42
1542407897014816045,374,0,/imu_data_acquisition2,31840.0,-0.184631347656,0.216125488281,0.648254394531,0.706359863281,-78.5,348.0625,-79.8125,-1.26,2.92,15.39
1542407897026247024,375,0,/imu_data_acquisition2,31851.0,-0.209716796875,0.231201171875,0.639221191406,0.702819824219,-70.875,414.125,-86.6875,-2.29,1.94,12.26
1542407897035526037,376,0,/imu_data_acquisition2,31861.0,-0.23779296875,0.250305175781,0.627685546875,0.697692871094,-58.1875,484.9375,-92.125,-2.39,-0.01,-0.01
1542407897045840978,377,0,/imu_data_acquisition2,31871.0,-0.268676757812,0.273681640625,0.613220214844,0.690551757812,-75.75,529.3125,-99.5,-5.66,3.57,10.54
1542407897054694890,378,0,/imu_data_acquisition2,31880.0,-0.302490234375,0.298034667969,0.596496582031,0.681030273438,-75.75,529.3125,-99.5,-5.31,-0.14,11.67
1542407897065031051,379,0,/imu_data_acquisition2,31890.0,-0.338989257812,0.317749023438,0.579528808594,0.669555664062,-136.5625,518.4375,-114.3125,-16.71,-5.23,28.01
1542407897075500965,380,0,/imu_data_acquisition2,31901.0,-0.377563476562,0.333557128906,0.561706542969,0.65625,-163.1875,385.5625,-110.25,-13.93,-1.8,32.93
1542407897085280895,381,0,/imu_data_acquisition2,31911.0,-0.40771484375,0.343444824219,0.547546386719,0.644958496094,-108.125,179.0,-63.875,-2.16,-1.78,30.98
1542407897096091032,382,0,/imu_data_acquisition2,31921.0,-0.423706054688,0.345947265625,0.540954589844,0.638916015625,-28.0625,69.625,-52.6875,-0.38,1.9,19.93
1542407897104579925,383,0,/imu_data_acquisition2,31930.0,-0.429931640625,0.346496582031,0.536437988281,0.638244628906,-28.0625,69.625,-52.6875,1.47,3.07,14.3
1542407897115272045,384,0,/imu_data_acquisition2,31940.0,-0.429504394531,0.344909667969,0.534423828125,0.64111328125,16.0,-16.0625,-39.375,2.17,3.85,9.97
1542407897126636028,385,0,/imu_data_acquisition2,31951.0,-0.425598144531,0.341735839844,0.53466796875,0.645141601562,21.0,-91.5,-6.0625,1.93,4.46,6.58
1542407897135677099,386,0,/imu_data_acquisition2,31961.0,-0.420471191406,0.337463378906,0.536987304688,0.648803710938,2.9375,-105.8125,11.625,1.55,4.28,6.46
1542407897146066904,387,0,/imu_data_acquisition2,31971.0,-0.415161132812,0.332214355469,0.541259765625,0.6513671875,-13.0625,-117.5625,27.25,0.84,4.03,7.17
1542407897155314922,388,0,/imu_data_acquisition2,31980.0,-0.409729003906,0.326110839844,0.547241210938,0.652954101562,-13.0625,-117.5625,27.25,0.84,4.03,7.17
1542407897164969921,389,0,/imu_data_acquisition2,31990.0,-0.403686523438,0.319213867188,0.554748535156,0.653747558594,-22.625,-131.5,42.5625,-1.31,3.17,10.64
1542407897175877094,390,0,/imu_data_acquisition2,32001.0,-0.396301269531,0.311645507812,0.563720703125,0.654235839844,-18.625,-180.3125,71.5,-2.72,2.13,12.28
1542407897185755968,391,0,/imu_data_acquisition2,32011.0,-0.386840820312,0.303100585938,0.574096679688,0.654907226562,-8.8125,-209.0,81.6875,-3.0,1.68,11.46
1542407897196791887,392,0,/imu_data_acquisition2,32021.0,-0.375,0.293762207031,0.585571289062,0.655883789062,-0.8125,-234.125,86.5625,-3.31,0.71,9.4
1542407897204823970,393,0,/imu_data_acquisition2,32030.0,-0.361267089844,0.283386230469,0.597717285156,0.6572265625,-0.8125,-234.125,86.5625,-3.31,0.71,9.4
1542407897215679883,394,0,/imu_data_acquisition2,32040.0,-0.346130371094,0.272033691406,0.609985351562,0.658874511719,2.875,-253.25,86.0625,-3.75,0.19,9.04
1542407897226070880,395,0,/imu_data_acquisition2,32051.0,-0.330261230469,0.259765625,0.621948242188,0.660766601562,5.5,-278.3125,72.125,-4.92,-0.92,8.16
1542407897236262083,396,0,/imu_data_acquisition2,32061.0,-0.313659667969,0.246459960938,-6.103515625e-05,0.663024902344,6.4375,-286.875,59.5625,-5.37,-1.38,7.66
1542407897246253013,397,0,/imu_data_acquisition2,32071.0,-0.296630859375,0.232238769531,0.64404296875,0.665771484375,9.125,-290.4375,43.6875,-5.77,-1.74,6.95
1542407897255527973,398,0,/imu_data_acquisition2,32080.0,-0.279357910156,0.217407226562,0.653442382812,0.669128417969,9.125,-290.4375,43.6875,-5.77,-1.74,6.95
1542407897264384984,399,0,/imu_data_acquisition2,32090.0,-0.262023925781,0.20263671875,0.6611328125,0.673156738281,16.25,-287.4375,25.625,-6.56,-1.38,7.02
1542407897276813030,400,0,/imu_data_acquisition2,32101.0,-0.244934082031,0.188110351562,0.667175292969,0.677856445312,26.9375,-269.8125,-9.5,-8.38,-0.36,10.55
1542407897286194086,401,0,/imu_data_acquisition2,32111.0,-0.228271484375,0.173950195312,0.671630859375,0.683044433594,34.125,-266.8125,-23.3125,-8.57,0.02,11.24
1542407897296616077,402,0,/imu_data_acquisition2,32122.0,-0.211486816406,0.159973144531,0.674743652344,0.688781738281,45.625,-266.5625,-30.75,-8.76,2.19,10.93
1542407897304527997,403,0,/imu_data_acquisition2,32130.0,-0.193969726562,0.146484375,0.676879882812,0.694763183594,45.625,-266.5625,-30.75,-8.76,2.19,10.93
1542407897316045999,404,0,/imu_data_acquisition2,32140.0,-0.17626953125,0.133605957031,0.678466796875,0.700561523438,53.375,-261.5625,-32.375,-9.18,2.69,11.11
1542407897326105117,405,0,/imu_data_acquisition2,32151.0,-0.158508300781,0.121643066406,0.679748535156,0.705688476562,73.6875,-244.4375,-18.5625,-10.85,1.67,13.55
1542407897336313962,406,0,/imu_data_acquisition2,32162.0,-0.140258789062,0.111022949219,0.680969238281,0.710144042969,98.0,-239.4375,-5.75,-11.11,2.37,14.46
1542407897347151041,407,0,/imu_data_acquisition2,32172.0,-0.12060546875,0.102172851562,0.682373046875,0.713684082031,116.5,-237.875,7.6875,-11.14,3.04,14.83
1542407897354316949,408,0,/imu_data_acquisition2,32180.0,-6.103515625e-05,-6.103515625e-05,-6.103515625e-05,0.71630859375,116.5,-237.875,7.6875,-11.14,3.04,14.83
1542407897364917039,409,0,/imu_data_acquisition2,32190.0,-0.0787353515625,0.0872802734375,0.686157226562,0.717895507812,119.0625,-237.1875,19.4375,-10.71,2.34,14.91
1542407897376475095,410,0,/imu_data_acquisition2,32202.0,-0.0578002929688,0.079833984375,0.688537597656,0.718444824219,114.6875,-234.375,40.25,-9.74,1.33,14.27
1542407897386678934,411,0,/imu_data_acquisition2,32212.0,-0.0369262695312,0.0724487304688,0.691162109375,0.718078613281,117.8125,-230.1875,50.125,-9.34,1.18,13.68
1542407897396625995,412,0,/imu_data_acquisition2,32222.0,-0.0160522460938,0.0654907226562,0.694030761719,0.716735839844,119.5625,-224.5625,60.4375,-9.34,1.21,13.2
1542407897405055999,413,0,/imu_data_acquisition2,32230.0,0.00469970703125,0.0590209960938,0.697204589844,0.714477539062,119.5625,-224.5625,60.4375,-9.34,1.21,13.2
1542407897414510011,414,0,/imu_data_acquisition2,32240.0,0.0248413085938,0.0526733398438,0.700622558594,0.711120605469,115.75,-217.125,71.0,-9.54,0.63,12.42
1542407897427211999,415,0,/imu_data_acquisition2,32252.0,0.0440063476562,0.0465087890625,0.704467773438,0.706848144531,109.125,-207.3125,81.25,-10.61,-1.09,9.53
1542407897436393022,416,0,/imu_data_acquisition2,32262.0,0.0621337890625,0.0406494140625,0.708557128906,0.701721191406,103.375,-194.6875,90.375,-11.45,-1.49,9.27
1542407897447927951,417,0,/imu_data_acquisition2,32272.0,0.078857421875,0.0352783203125,0.712890625,0.695922851562,96.0625,-178.9375,96.25,-12.13,-2.31,8.27
1542407897454590082,418,0,/imu_data_acquisition2,32280.0,0.0938720703125,0.0302734375,0.717041015625,0.690002441406,85.125,-161.8125,95.75,-12.13,-2.31,8.27
1542407897464747905,419,0,/imu_data_acquisition2,32290.0,0.107238769531,0.0256958007812,0.720825195312,0.684265136719,75.4375,-145.0,89.375,-12.26,-5.24,4.5
1542407897476605892,420,0,/imu_data_acquisition2,32302.0,0.119384765625,0.0222778320312,0.72412109375,0.678894042969,75.0,-125.5,79.875,-14.19,-7.37,2.76
1542407897486728906,421,0,/imu_data_acquisition2,32312.0,0.130493164062,0.02099609375,0.726867675781,0.673950195312,84.6875,-99.75,70.0,-17.05,-6.69,1.27
1542407897496917009,422,0,/imu_data_acquisition2,32322.0,-6.103515625e-05,-6.103515625e-05,-6.103515625e-05,0.669372558594,91.25,-71.8125,58.9375,-17.68,-6.29,-0.25
1542407897504700899,423,0,/imu_data_acquisition2,32330.0,0.147521972656,0.0237426757812,0.731079101562,0.665710449219,79.5,-44.75,44.75,-17.68,-6.29,-0.25
1542407897515125989,424,0,/imu_data_acquisition2,32340.0,0.151245117188,0.0255126953125,0.732604980469,0.663146972656,48.875,-14.9375,32.8125,-17.29,-6.48,-1.49
1542407897526631116,425,0,/imu_data_acquisition2,32352.0,0.150756835938,0.0269775390625,-6.103515625e-05,0.661560058594,11.25,18.625,22.5,-13.72,-4.84,0.81
1542407897537455081,426,0,/imu_data_acquisition2,32362.0,0.146423339844,0.0286865234375,0.735534667969,0.660888671875,-18.125,54.1875,12.5625,-10.56,1.7,4.02
1542407897547920942,427,0,/imu_data_acquisition2,32372.0,0.13916015625,0.0311889648438,0.737060546875,0.660583496094,-34.75,85.5,7.25,4.05,-0.11,11.88
1542407897554625034,428,0,/imu_data_acquisition2,32380.0,0.128540039062,0.032470703125,0.739318847656,0.660217285156,-72.3125,106.4375,15.1875,4.05,-0.11,11.88
1542407897564549922,429,0,/imu_data_acquisition2,32390.0,0.117065429688,0.0313720703125,0.741882324219,0.659484863281,-99.375,96.125,23.5625,15.98,5.17,18.66
1542407897577184915,430,0,/imu_data_acquisition2,32402.0,0.103393554688,0.0316772460938,0.7431640625,0.660278320312,-105.75,124.25,-2.4375,5.81,-5.23,-4.64
1542407897587655067,431,0,/imu_data_acquisition2,32412.0,0.0845947265625,0.0333862304688,0.743225097656,0.662841796875,-134.9375,177.375,-30.75,-5.96,-6.98,23.08
1542407897597758054,432,0,/imu_data_acquisition2,32422.0,0.0650634765625,0.0380859375,0.743041992188,0.664978027344,-113.875,207.9375,-33.3125,-6.01,-4.78,20.46
1542407897605562925,433,0,/imu_data_acquisition2,32430.0,0.04638671875,0.0454711914062,0.742065429688,0.667175292969,-83.3125,220.75,-41.0625,-6.01,-4.78,20.46
1542407897614411115,434,0,/imu_data_acquisition2,32440.0,0.0298461914062,0.05419921875,0.739685058594,0.670104980469,-54.625,211.5625,-58.0,-5.93,1.89,13.01
1542407897627248048,435,0,/imu_data_acquisition2,32452.0,0.0158081054688,0.0623779296875,0.736938476562,0.6728515625,-38.625,185.0625,-57.5,-1.16,-0.01,-0.01
1542407897637742996,436,0,/imu_data_acquisition2,32462.0,0.0018310546875,0.0697021484375,0.735290527344,0.674133300781,-46.625,179.125,-36.375,-7.48,-4.15,19.19
1542407897648502111,437,0,/imu_data_acquisition2,32473.0,-0.0117797851562,0.0729370117188,0.734436035156,0.674621582031,-79.125,143.625,-22.25,-4.5,-7.74,15.93
1542407897654536962,438,0,/imu_data_acquisition2,32480.0,-0.0215454101562,0.073974609375,-6.103515625e-05,0.675170898438,-68.6875,92.4375,-19.25,-4.5,-7.74,15.93
1542407897665287971,439,0,/imu_data_acquisition2,32490.0,-0.02685546875,0.076416015625,0.732788085938,0.675598144531,-20.4375,65.5625,-14.3125,-3.32,-0.86,12.46
1542407897676081895,440,0,/imu_data_acquisition2,32501.0,-0.0300903320312,0.0800170898438,0.732116699219,0.67578125,6.25,57.5,-8.8125,-3.18,-0.59,11.13
1542407897687478065,441,0,/imu_data_acquisition2,32513.0,-0.0321044921875,0.0838623046875,0.731567382812,0.67578125,17.5,48.4375,-4.9375,-2.72,0.83,10.94
1542407897697607040,442,0,/imu_data_acquisition2,32523.0,-0.0336303710938,0.0872802734375,0.731140136719,0.67578125,18.3125,40.25,-4.0,-2.07,0.69,10.5
1542407897704329967,443,0,/imu_data_acquisition2,32530.0,-0.0347900390625,0.0901489257812,0.730590820312,0.675903320312,16.0,33.125,-5.0,-2.07,0.69,10.5
1542407897715461015,444,0,/imu_data_acquisition2,32540.0,-0.0357055664062,0.0924682617188,0.730163574219,0.676025390625,12.875,26.125,-4.8125,-2.4,0.69,10.34
1542407897726548910,445,0,/imu_data_acquisition2,32552.0,-0.0364379882812,0.0943603515625,0.729736328125,0.676208496094,10.9375,21.375,-4.375,-2.48,0.97,9.76
1542407897738657951,446,0,/imu_data_acquisition2,32563.0,-0.0369262695312,0.0958862304688,0.729431152344,0.676330566406,9.6875,16.375,-3.625,-1.86,0.7,9.6
1542407897747744083,447,0,/imu_data_acquisition2,32573.0,-0.0372314453125,0.0970458984375,0.729125976562,0.676452636719,8.0625,12.5,-3.4375,-2.08,0.94,9.9
1542407897754302024,448,0,/imu_data_acquisition2,32580.0,-0.0376586914062,0.09814453125,0.728820800781,0.676574707031,6.4375,12.0,-3.5625,-2.08,0.94,9.9
1542407897764880895,449,0,/imu_data_acquisition2,32590.0,-0.0380249023438,0.0990600585938,0.728576660156,0.676696777344,5.5,10.625,-3.375,-2.15,1.04,9.98
1542407897774877071,450,0,/imu_data_acquisition2,32600.0,-0.0383911132812,0.0999145507812,0.728332519531,0.676818847656,4.25,10.125,-0.0625,-1.92,0.95,9.7
1542407897787461996,451,0,/imu_data_acquisition2,32613.0,-0.038818359375,0.1005859375,0.728088378906,0.676940917969,3.125,8.8125,-3.1875,-1.77,0.4,9.74
1542407897797596931,452,0,/imu_data_acquisition2,32623.0,-0.0391845703125,0.101196289062,0.727844238281,0.677124023438,2.75,7.9375,-2.9375,-1.9,0.98,9.92
1542407897805047035,453,0,/imu_data_acquisition2,32630.0,-0.0394897460938,0.101745605469,0.727661132812,0.677185058594,2.625,7.375,-2.125,-2.02,0.9,9.85
1542407897814826011,454,0,/imu_data_acquisition2,32640.0,-0.0398559570312,0.102294921875,0.7275390625,0.67724609375,2.1875,6.875,-2.0625,-2.24,0.67,9.84
1542407897825999975,455,0,/imu_data_acquisition2,32650.0,-0.0401611328125,0.102722167969,0.727355957031,0.677307128906,1.875,6.0625,-1.8125,-1.83,0.97,-0.01
1542407897837343931,456,0,/imu_data_acquisition2,32663.0,-0.0404052734375,0.103088378906,0.727294921875,0.677368164062,1.5625,5.0625,-1.3125,-2.32,1.01,9.83
1542407897848488092,457,0,/imu_data_acquisition2,32673.0,-0.040771484375,0.103454589844,0.727172851562,0.677429199219,1.0625,5.1875,-1.3125,-2.28,0.75,10.03
1542407897854646921,458,0,/imu_data_acquisition2,32680.0,-0.0411987304688,0.103759765625,0.72705078125,0.677490234375,0.3125,3.5,-1.5625,-2.47,0.78,9.76
1542407897864499092,459,0,/imu_data_acquisition2,32690.0,-0.0413208007812,0.103881835938,0.726928710938,0.677551269531,0.6875,2.25,-1.125,-1.93,0.77,10.33
1542407897874648094,460,0,/imu_data_acquisition2,32700.0,-0.0413208007812,0.103942871094,0.726867675781,0.677612304688,1.0,0.4375,-0.9375,-2.24,0.97,-0.01
1542407897887958049,461,0,/imu_data_acquisition2,32713.0,-0.041259765625,0.104064941406,0.726867675781,0.677612304688,1.625,0.25,-0.5625,-2.19,0.85,10.04
1542407897897835016,462,0,/imu_data_acquisition2,32723.0,-0.0411987304688,0.104187011719,0.726806640625,0.677612304688,2.125,-0.3125,-0.25,-2.2,0.79,9.95
1542407897904652118,463,0,/imu_data_acquisition2,32730.0,-0.0411987304688,0.104370117188,0.726806640625,0.677612304688,2.8125,-0.25,-0.0625,-2.49,0.82,9.82
1542407897914570093,464,0,/imu_data_acquisition2,32740.0,-0.0411376953125,0.104614257812,0.726745605469,0.677612304688,2.9375,-0.375,0.1875,-2.12,0.88,9.67
