%time,field.header.seq,field.header.stamp,field.header.frame_id,field.time_stamp,field.quat_x,field.quat_y,field.quat_z,field.quat_w,field.gyro_x,field.gyro_y,field.gyro_z,field.accel_x,field.accel_y,field.accel_z
1541188896147679090,1,0,/imu_data_acquisition2,49628.0,-0.0127563476562,-6.103515625e-05,-6.103515625e-05,0.429016113281,117.125,-12.25,-0.0625,3.03,-2.31,-0.01
1541188896152331113,2,0,/imu_data_acquisition2,49638.0,-0.009033203125,-0.272705078125,0.860412597656,0.430297851562,71.5,-9.125,-20.25,3.03,-4.87,5.03
1541188896156795024,3,0,/imu_data_acquisition2,49645.0,-0.00555419921875,-0.266906738281,0.861450195312,0.432006835938,80.375,0.25,-0.0625,2.28,-5.7,6.83
1541188896167424917,4,0,/imu_data_acquisition2,49656.0,-0.004150390625,-6.103515625e-05,-6.103515625e-05,0.4345703125,76.6875,-0.0625,-0.0625,2.23,-1.37,8.06
1541188896175714015,5,0,/imu_data_acquisition2,49664.0,-0.0028076171875,-0.253723144531,0.862915039062,0.437072753906,76.6875,27.375,-25.875,2.66,-0.01,-0.01
1541188896192276954,6,0,/imu_data_acquisition2,49677.0,-6.103515625e-05,-6.103515625e-05,-6.103515625e-05,0.438720703125,53.375,-0.0625,-0.0625,1.28,-0.01,-0.01
1541188896199363946,7,0,/imu_data_acquisition2,49688.0,-0.0050048828125,-6.103515625e-05,-6.103515625e-05,0.440307617188,40.1875,40.0,-9.4375,0.92,-0.89,-0.01
1541188896209398984,8,0,/imu_data_acquisition2,49697.0,-0.005615234375,-0.239990234375,0.864379882812,0.441833496094,36.9375,30.625,-12.25,1.57,-3.03,10.63
1541188896217329025,9,0,/imu_data_acquisition2,49704.0,-6.103515625e-05,-6.103515625e-05,-6.103515625e-05,0.443176269531,31.0625,-0.0625,-0.0625,1.77,-0.01,-0.01
1541188896231427907,10,0,/imu_data_acquisition2,49719.0,-0.00640869140625,-0.234436035156,0.864685058594,0.444213867188,22.5625,19.375,-8.875,1.66,-3.2,10.0
1541188896240853071,11,0,/imu_data_acquisition2,49728.0,-0.00665283203125,-6.103515625e-05,-6.103515625e-05,0.445190429688,17.125,14.75,-8.8125,1.66,-3.2,10.0
1541188896254787921,12,0,/imu_data_acquisition2,49739.0,-0.007080078125,-6.103515625e-05,-6.103515625e-05,0.446044921875,7.1875,8.375,-10.125,1.85,-0.01,-0.01
1541188896259469985,13,0,/imu_data_acquisition2,49747.0,-0.0072021484375,-0.230651855469,0.864318847656,0.446960449219,7.1875,8.375,-10.125,1.85,-3.11,9.61
1541188896265945911,14,0,/imu_data_acquisition2,49754.0,-0.00726318359375,-6.103515625e-05,-6.103515625e-05,0.447814941406,3.1875,5.1875,-10.4375,1.73,-3.5,9.69
1541188896280194044,15,0,/imu_data_acquisition2,49768.0,-6.103515625e-05,-6.103515625e-05,-6.103515625e-05,0.448669433594,1.5,2.125,-11.375,1.61,-1.13,-0.01
1541188896291734933,16,0,/imu_data_acquisition2,49778.0,-6.103515625e-05,-6.103515625e-05,-6.103515625e-05,0.449584960938,2.6875,-0.5,-12.1875,1.68,-3.71,8.89
1541188896301198005,17,0,/imu_data_acquisition2,49788.0,-0.00628662109375,-0.229614257812,0.86279296875,0.450378417969,4.0625,-1.625,-11.4375,1.78,-3.75,8.63
1541188896310801029,18,0,/imu_data_acquisition2,49799.0,-0.00567626953125,-0.229125976562,0.862548828125,0.451110839844,8.0625,-1.625,-10.625,1.61,-4.19,8.69
1541188896319441080,19,0,/imu_data_acquisition2,49806.0,-0.00482177734375,-0.228210449219,0.862426757812,0.451782226562,13.1875,-2.0,-9.5,1.61,-4.19,8.69
1541188896326545000,20,0,/imu_data_acquisition2,49815.0,-0.00384521484375,-0.226867675781,0.862487792969,0.452392578125,18.875,-1.5625,-8.4375,1.75,-4.39,8.54
1541188896341653108,21,0,/imu_data_acquisition2,49829.0,-0.0025634765625,-0.225036621094,0.862670898438,0.452941894531,26.5625,-1.375,-7.625,1.84,-2.27,-0.01
1541188896351768970,22,0,/imu_data_acquisition2,49840.0,-0.0010986328125,-0.222534179688,0.863098144531,0.453369140625,43.75,0.625,-5.3125,1.95,-4.48,8.37
1541188896356003999,23,0,/imu_data_acquisition2,49845.0,0.00067138671875,-6.103515625e-05,-6.103515625e-05,0.453735351562,43.75,0.625,-5.3125,1.95,-4.48,8.37
1541188896367726087,24,0,/imu_data_acquisition2,49856.0,0.00250244140625,-0.215393066406,0.864562988281,0.453979492188,52.625,3.0,-2.5625,2.11,-4.63,8.43
1541188896382313966,25,0,/imu_data_acquisition2,49868.0,0.00469970703125,-6.103515625e-05,-6.103515625e-05,0.4541015625,65.5625,4.6875,-0.0625,2.29,-4.46,7.41
1541188896390055894,26,0,/imu_data_acquisition2,49878.0,0.00701904296875,-6.103515625e-05,-6.103515625e-05,0.454223632812,80.125,10.0,0.875,2.88,-4.43,7.22
1541188896401458024,27,0,/imu_data_acquisition2,49890.0,0.00927734375,-0.196472167969,0.868896484375,0.454223632812,95.0625,18.1875,3.375,2.42,-1.18,-0.01
1541188896408714056,28,0,/imu_data_acquisition2,49896.0,0.0114135742188,-0.187744140625,0.870910644531,0.453979492188,105.875,24.8125,6.875,2.42,-3.74,8.75
1541188896418909072,29,0,/imu_data_acquisition2,49907.0,-6.103515625e-05,-6.103515625e-05,-6.103515625e-05,0.453491210938,114.875,26.25,10.4375,2.11,-3.22,9.36
1541188896429617881,30,0,/imu_data_acquisition2,49916.0,0.0162353515625,-0.0122680664062,-6.103515625e-05,0.452758789062,119.625,24.8125,13.25,1.72,-3.29,9.4
1541188896449918985,32,0,/imu_data_acquisition2,49939.0,0.0213623046875,-0.150085449219,0.879211425781,0.451721191406,103.4375,20.75,6.375,0.33,-0.15,11.38
1541188896459793090,33,0,/imu_data_acquisition2,49947.0,0.023681640625,-0.142944335938,0.880126953125,0.452087402344,88.4375,14.875,-4.6875,0.8,-1.48,11.01
1541188896468683958,34,0,/imu_data_acquisition2,49956.0,0.0260009765625,-0.136596679688,0.880554199219,0.453063964844,78.625,-0.0625,-0.0625,1.33,1.08,10.92
1541188896478683948,35,0,/imu_data_acquisition2,49967.0,-6.103515625e-05,-6.103515625e-05,-6.103515625e-05,0.453796386719,50.0,-0.0625,-0.0625,1.31,0.76,10.97
1541188896491035938,36,0,/imu_data_acquisition2,49978.0,0.0279541015625,-6.103515625e-05,-6.103515625e-05,0.454467773438,28.375,6.875,-8.25,1.87,0.22,10.57
1541188896501669883,37,0,/imu_data_acquisition2,49989.0,-6.103515625e-05,-6.103515625e-05,-6.103515625e-05,0.455017089844,14.125,7.3125,-0.0625,1.79,-0.01,-0.01
1541188896507965087,38,0,/imu_data_acquisition2,49996.0,0.0278930664062,-0.128112792969,0.880493164062,0.455505371094,5.5,5.625,-0.0625,1.68,-0.01,-0.01
1541188896519036054,39,0,/imu_data_acquisition2,50006.0,0.0275268554688,-0.127990722656,0.880310058594,0.455932617188,-0.75,4.9375,-4.5,1.7,-1.4,9.99
1541188896527949094,40,0,/imu_data_acquisition2,50015.0,0.02734375,-0.128051757812,0.880126953125,0.456298828125,-2.25,2.625,-0.0625,1.98,-1.48,9.67
1541188896540960073,41,0,/imu_data_acquisition2,50029.0,-6.103515625e-05,-6.103515625e-05,-6.103515625e-05,0.45654296875,-3.375,2.125,-3.125,1.67,-1.83,9.53
1541188896550566911,42,0,/imu_data_acquisition2,50037.0,0.0269165039062,-0.128356933594,0.8798828125,0.456726074219,-2.5,0.875,-2.625,1.72,-1.82,9.55
1541188896565262079,43,0,/imu_data_acquisition2,50049.0,0.0269775390625,-0.128356933594,0.879760742188,0.456909179688,-0.5625,-0.25,-2.1875,1.72,-1.91,9.48
1541188896568985939,44,0,/imu_data_acquisition2,50057.0,0.0271606445312,-0.128234863281,0.879760742188,0.45703125,2.125,-1.375,-2.0,1.64,-2.23,9.43
1541188896578758001,45,0,/imu_data_acquisition2,50065.0,0.027587890625,-0.127746582031,0.879699707031,0.457214355469,7.4375,-0.0625,-0.0625,1.67,-2.17,9.76
1541188896592457056,46,0,/imu_data_acquisition2,50080.0,0.0283813476562,-0.126953125,0.879760742188,0.457336425781,12.25,-3.5625,-2.5625,1.28,-2.22,9.82
1541188896600878000,47,0,/imu_data_acquisition2,50089.0,0.0294799804688,-6.103515625e-05,-6.103515625e-05,0.457458496094,17.3125,-5.4375,-0.0625,1.28,-2.22,-0.01
1541188896607331991,48,0,/imu_data_acquisition2,50095.0,0.03076171875,-0.124633789062,0.8798828125,0.457580566406,19.8125,-6.6875,-0.0625,1.76,-2.03,9.69
1541188896618923902,49,0,/imu_data_acquisition2,50106.0,0.0321655273438,-0.0138549804688,-6.103515625e-05,0.457763671875,22.375,-5.875,-4.125,1.58,-1.65,9.6
1541188896628706932,50,0,/imu_data_acquisition2,50116.0,0.0333251953125,-0.0122680664062,-6.103515625e-05,0.457946777344,23.0625,-3.75,-4.4375,1.76,-1.6,9.91
1541188896637686967,51,0,/imu_data_acquisition2,50125.0,0.034423828125,-0.119995117188,0.880004882812,0.458251953125,22.5,-0.0625,-0.0625,1.9,-0.01,-0.01
1541188896648921966,52,0,/imu_data_acquisition2,50138.0,0.0352783203125,-0.118591308594,0.880065917969,0.45849609375,19.8125,-1.3125,-4.3125,2.03,-0.01,-0.01
1541188896658349037,53,0,/imu_data_acquisition2,50145.0,0.0359497070312,-0.117431640625,0.880065917969,0.458679199219,15.4375,-0.125,-3.125,1.46,-0.89,9.9
1541188896666456937,54,0,/imu_data_acquisition2,50155.0,0.0364990234375,-6.103515625e-05,-6.103515625e-05,0.458862304688,11.6875,-0.0625,-0.0625,2.11,-0.72,9.74
1541188896680016040,55,0,/imu_data_acquisition2,50167.0,0.036865234375,-0.116088867188,0.880065917969,0.458984375,6.8125,-1.1875,-2.3125,2.0,-1.25,9.91
1541188896691512107,56,0,/imu_data_acquisition2,50176.0,0.0371704101562,-0.00634765625,-6.103515625e-05,0.459167480469,5.25,-0.0625,-0.0625,1.96,-0.01,-0.01
1541188896701751947,57,0,/imu_data_acquisition2,50188.0,0.0374145507812,-0.115539550781,0.879943847656,0.459289550781,2.9375,-1.625,-1.75,2.25,-1.19,-0.01
1541188896708956003,58,0,/imu_data_acquisition2,50197.0,0.0375366210938,-0.115417480469,0.8798828125,0.459411621094,2.0,-0.375,-1.5625,1.8,-1.28,9.81
1541188896721048116,59,0,/imu_data_acquisition2,50207.0,0.03759765625,-0.115356445312,0.8798828125,0.45947265625,0.75,-0.75,-0.8125,1.71,-1.37,9.96
1541188896730623006,60,0,/imu_data_acquisition2,50216.0,0.0376586914062,-0.115417480469,0.879821777344,0.459533691406,0.25,-0.6875,-0.8125,1.39,-1.29,9.91
1541188896742163896,61,0,/imu_data_acquisition2,50228.0,0.037841796875,-0.115356445312,0.879821777344,0.459594726562,1.1875,-1.125,-1.25,1.44,-1.1,9.78
1541188896750530958,62,0,/imu_data_acquisition2,50237.0,0.037841796875,-0.115356445312,0.879821777344,0.459594726562,-0.5,-0.1875,-0.125,1.68,-1.95,-0.01
1541188896757325887,63,0,/imu_data_acquisition2,50245.0,0.0379638671875,-0.115173339844,0.879760742188,0.459655761719,2.375,-0.6875,-1.0,2.03,-1.35,9.54
1541188896769995927,64,0,/imu_data_acquisition2,50257.0,0.0380859375,-0.114990234375,0.879821777344,0.459655761719,2.625,0.4375,-0.0625,1.49,-1.38,9.93
1541188896779405117,65,0,/imu_data_acquisition2,50265.0,0.0382690429688,-0.114501953125,0.8798828125,0.459655761719,4.4375,0.625,-0.0625,1.74,-1.31,9.61
1541188896786339044,66,0,/imu_data_acquisition2,50275.0,0.038330078125,-0.00469970703125,-6.103515625e-05,0.459655761719,3.6875,1.125,-0.0625,1.66,-1.41,9.77
1541188896800018072,67,0,/imu_data_acquisition2,50287.0,0.0385131835938,-0.113586425781,0.879943847656,0.459655761719,4.25,1.125,-0.5625,1.83,-1.26,9.69
1541188896810111045,68,0,/imu_data_acquisition2,50296.0,0.0386352539062,-0.113098144531,0.880004882812,0.459716796875,3.3125,1.875,-0.3125,1.76,-0.01,-0.01
1541188896817296028,69,0,/imu_data_acquisition2,50305.0,0.0390014648438,-0.112487792969,0.880004882812,0.459777832031,3.625,0.6875,-0.0625,2.01,-0.93,9.68
1541188896829694986,70,0,/imu_data_acquisition2,50317.0,0.0391845703125,-0.112060546875,0.880004882812,0.459838867188,1.9375,0.875,-0.3125,1.74,-1.24,9.82
1541188896838887929,71,0,/imu_data_acquisition2,50325.0,-6.103515625e-05,-6.103515625e-05,-6.103515625e-05,0.4599609375,1.8125,0.0625,-0.75,1.94,-0.01,-0.01
1541188896847810029,72,0,/imu_data_acquisition2,50336.0,0.0397338867188,-0.111389160156,0.880004882812,0.4599609375,0.3125,0.5625,-0.375,1.59,-1.27,-0.01
1541188896858074903,73,0,/imu_data_acquisition2,50345.0,0.0398559570312,-0.111083984375,0.880004882812,0.460083007812,0.375,-0.125,-0.75,1.69,-1.14,9.81
1541188896870649099,74,0,/imu_data_acquisition2,50358.0,0.0399169921875,-6.103515625e-05,-6.103515625e-05,0.460083007812,-0.75,-0.1875,-0.5625,1.49,-1.34,9.94
1541188896876238107,75,0,/imu_data_acquisition2,50365.0,-6.103515625e-05,-6.103515625e-05,-6.103515625e-05,0.460144042969,-0.875,-1.0,-0.625,1.64,-0.01,-0.01
1541188896888262033,76,0,/imu_data_acquisition2,50376.0,0.0399780273438,-0.110717773438,0.880004882812,0.460144042969,-1.25,-0.8125,-0.4375,1.44,-1.37,9.66
1541188896903121948,77,0,/imu_data_acquisition2,50389.0,0.0400390625,-6.103515625e-05,-6.103515625e-05,0.460144042969,-0.875,-1.3125,-0.375,1.43,-1.34,9.78
1541188896907674074,78,0,/imu_data_acquisition2,50396.0,0.0401000976562,-0.110595703125,0.880004882812,0.460144042969,-0.8125,-1.625,-0.3125,1.55,-1.3,9.62
1541188896919246912,79,0,/imu_data_acquisition2,50406.0,0.0400390625,-6.103515625e-05,-6.103515625e-05,0.460144042969,-0.8125,-1.3125,0.0625,1.21,-1.53,9.96
1541188896928649902,80,0,/imu_data_acquisition2,50415.0,0.0401000976562,-0.110473632812,0.880004882812,0.460144042969,0.5,-1.875,-0.375,1.63,-1.25,9.66
1541188896937597990,81,0,/imu_data_acquisition2,50425.0,-6.103515625e-05,-6.103515625e-05,-6.103515625e-05,0.460144042969,-0.25,-1.8125,0.1875,1.87,-1.32,9.52
1541188896949872016,82,0,/imu_data_acquisition2,50437.0,0.0404663085938,-0.1103515625,0.880004882812,0.460144042969,0.8125,-1.875,-0.25,1.59,-1.29,9.73
1541188896958739995,83,0,/imu_data_acquisition2,50445.0,0.0406494140625,-0.1103515625,0.880004882812,0.460144042969,0.9375,-1.875,-0.125,1.75,-1.34,9.81
1541188896968647003,84,0,/imu_data_acquisition2,50457.0,0.0408325195312,-0.1103515625,0.880004882812,0.460083007812,0.75,-1.6875,-0.125,1.77,-1.37,9.78
1541188896980026006,85,0,/imu_data_acquisition2,50468.0,0.0409545898438,-0.1103515625,0.880004882812,0.460083007812,0.625,-1.625,-0.25,1.91,-1.22,9.75
1541188896986519098,86,0,/imu_data_acquisition2,50475.0,0.0411987304688,-0.110290527344,0.880004882812,0.460083007812,0.875,-0.0625,-0.0625,1.97,-1.21,9.48
1541188897000068902,87,0,/imu_data_acquisition2,50489.0,0.0414428710938,-0.110229492188,0.880004882812,0.460083007812,0.5625,-0.875,0.0,1.92,-0.01,-0.01
1541188897006701946,88,0,/imu_data_acquisition2,50495.0,0.04150390625,-0.110107421875,0.880004882812,0.460144042969,0.375,-0.5625,0.125,1.65,-1.42,9.93
1541188897028414964,89,0,/imu_data_acquisition2,50512.0,-6.103515625e-05,-6.103515625e-05,-6.103515625e-05,0.460144042969,0.0,-0.1875,0.6875,1.46,-1.55,9.9
1541188897032211065,90,0,/imu_data_acquisition2,50520.0,0.0415649414062,-6.103515625e-05,-6.103515625e-05,0.460083007812,0.0,-0.1875,0.6875,1.46,-1.55,9.9
1541188897036637067,91,0,/imu_data_acquisition2,50524.0,-6.103515625e-05,-6.103515625e-05,-6.103515625e-05,0.460083007812,1.25,0.0,0.375,1.7,-1.46,9.65
1541188897051963090,92,0,/imu_data_acquisition2,50540.0,-6.103515625e-05,-6.103515625e-05,-6.103515625e-05,0.460021972656,1.125,-0.125,0.8125,1.72,-1.19,9.7
1541188897059286117,93,0,/imu_data_acquisition2,50547.0,0.0416870117188,-0.109802246094,0.880187988281,0.459899902344,0.625,0.1875,1.25,1.42,-1.43,9.89
1541188897066006898,94,0,/imu_data_acquisition2,50554.0,0.041748046875,-6.103515625e-05,-6.103515625e-05,0.459838867188,1.6875,-0.1875,0.8125,1.74,-0.01,-0.01
1541188897079480886,95,0,/imu_data_acquisition2,50568.0,0.041748046875,-0.109375,0.880310058594,0.459777832031,0.9375,0.375,1.5,1.54,-1.31,10.1
1541188897089701890,96,0,/imu_data_acquisition2,50575.0,0.0418701171875,-0.109069824219,0.880310058594,0.459716796875,4.125,0.0625,0.3125,2.53,-0.01,-0.01
1541188897096767902,97,0,/imu_data_acquisition2,50585.0,-6.103515625e-05,-6.103515625e-05,-6.103515625e-05,0.459533691406,0.3125,1.625,3.0,1.54,-0.89,9.47
1541188897109313964,98,0,/imu_data_acquisition2,50597.0,0.0416870117188,-0.109008789062,0.880493164062,0.45947265625,0.5,0.9375,1.1875,2.39,-1.89,9.62
1541188897118690967,99,0,/imu_data_acquisition2,50605.0,-6.103515625e-05,-6.103515625e-05,-6.103515625e-05,0.459411621094,-1.0625,0.875,0.8125,2.29,-1.88,9.28
1541188897126312017,100,0,/imu_data_acquisition2,50615.0,0.0413208007812,-0.10888671875,0.880554199219,0.459350585938,0.0,3.0,0.75,2.47,-1.46,9.08
1541188897139902114,101,0,/imu_data_acquisition2,50627.0,-6.103515625e-05,-6.103515625e-05,-6.103515625e-05,0.459289550781,1.5,3.0,1.6875,1.19,-0.01,-0.01
1541188897188112020,102,0,/imu_data_acquisition2,50635.0,-6.103515625e-05,-6.103515625e-05,-6.103515625e-05,0.459106445312,3.875,3.6875,2.0625,1.83,-0.58,9.59
1541188897203181028,103,0,/imu_data_acquisition2,50652.0,0.0406494140625,-0.108032226562,0.880981445312,0.458862304688,1.0,4.9375,3.9375,2.22,-1.45,9.71
1541188897254340887,104,0,/imu_data_acquisition2,50656.0,0.0402221679688,-0.107727050781,0.881103515625,0.458679199219,0.6875,5.5,2.9375,1.67,-1.65,9.77
1541188897257564067,106,0,/imu_data_acquisition2,50675.0,0.0391235351562,-0.107116699219,0.881408691406,0.458435058594,0.8125,7.6875,2.5625,1.6,-0.93,9.91
1541188897258688926,107,0,/imu_data_acquisition2,50686.0,0.0384521484375,-0.106750488281,0.881530761719,0.458251953125,-0.3125,8.625,3.4375,2.01,-0.82,-0.01
1541188897260807037,108,0,/imu_data_acquisition2,50696.0,0.0379028320312,-0.0127563476562,-6.103515625e-05,0.458068847656,-2.0,9.6875,4.1875,2.08,-1.51,9.7
1541188897261462926,109,0,/imu_data_acquisition2,50705.0,0.0369262695312,-0.0125732421875,-6.103515625e-05,0.457824707031,-2.6875,10.625,4.6875,2.2,-0.01,-0.01
1541188897262465953,110,0,/imu_data_acquisition2,50716.0,0.0358276367188,-0.106079101562,0.882141113281,0.45751953125,-3.5,12.125,5.8125,1.93,-1.0,-0.01
1541188897263792037,111,0,/imu_data_acquisition2,50724.0,0.0346069335938,-0.106018066406,0.882385253906,0.457092285156,-4.8125,-0.0625,-0.0625,2.42,-0.01,-0.01
1541188897265881061,112,0,/imu_data_acquisition2,50734.0,0.0333251953125,-0.106079101562,0.882690429688,0.456604003906,-7.3125,12.9375,-0.0625,2.28,-0.01,-0.01
1541188897266954898,113,0,/imu_data_acquisition2,50745.0,0.03173828125,-0.106384277344,0.883056640625,0.455932617188,-11.0625,13.75,10.875,2.17,-0.86,9.83
1541188897268791913,114,0,/imu_data_acquisition2,50755.0,-6.103515625e-05,-6.103515625e-05,-6.103515625e-05,0.454956054688,-15.1875,-0.0625,-0.0625,2.5,-0.01,-0.01
1541188897279609918,115,0,/imu_data_acquisition2,50764.0,-6.103515625e-05,-6.103515625e-05,-6.103515625e-05,0.453674316406,-20.8125,16.375,19.375,2.52,-1.32,9.55
1541188897287991046,116,0,/imu_data_acquisition2,50776.0,-6.103515625e-05,-6.103515625e-05,-6.103515625e-05,0.452697753906,-20.75,22.75,16.4375,2.19,0.29,9.82
1541188897298695087,117,0,/imu_data_acquisition2,50787.0,0.021728515625,-6.103515625e-05,-6.103515625e-05,0.451232910156,-33.9375,25.3125,23.6875,1.99,-0.44,10.04
1541188897308974981,118,0,/imu_data_acquisition2,50795.0,0.0179443359375,-6.103515625e-05,-6.103515625e-05,0.449157714844,-43.375,25.0625,32.375,2.21,-0.17,10.03
1541188897316411018,119,0,/imu_data_acquisition2,50805.0,0.013427734375,-0.115539550781,0.887268066406,0.446350097656,-51.4375,28.375,41.875,2.27,-0.49,10.03
1541188897328411102,120,0,/imu_data_acquisition2,50816.0,0.00823974609375,-0.118713378906,0.888610839844,0.442993164062,-58.1875,33.375,49.375,2.2,-0.01,-0.01
1541188897336867094,121,0,/imu_data_acquisition2,50825.0,0.00244140625,-0.0128784179688,-6.103515625e-05,0.439086914062,-65.25,37.4375,57.9375,2.15,-0.01,-0.01
1541188897346926927,122,0,/imu_data_acquisition2,50835.0,-0.00396728515625,-0.126342773438,0.891906738281,0.434143066406,-74.125,39.1875,70.875,2.34,-0.35,10.43
1541188897359518051,123,0,/imu_data_acquisition2,50846.0,-0.0111083984375,-0.131042480469,0.894104003906,0.428161621094,-83.125,41.4375,85.0,2.38,-0.98,10.16
1541188897370250940,124,0,/imu_data_acquisition2,50855.0,-0.018798828125,-0.136169433594,0.896484375,0.421264648438,-90.4375,44.375,96.3125,2.12,-1.45,10.36
1541188897378078937,125,0,/imu_data_acquisition2,50866.0,-0.0270385742188,-0.141967773438,0.898986816406,0.413452148438,-100.125,45.8125,107.375,1.76,-1.83,10.66
1541188897388797044,126,0,/imu_data_acquisition2,50875.0,-0.0357055664062,-0.148193359375,0.901550292969,0.404907226562,-106.9375,46.3125,115.75,1.24,-1.49,10.7
1541188897407267093,127,0,/imu_data_acquisition2,50889.0,-0.0446166992188,-0.155151367188,0.904113769531,0.395568847656,-4.375,-0.0625,-0.0625,0.59,-1.62,11.21
1541188897409653902,128,0,/imu_data_acquisition2,50897.0,-6.103515625e-05,-6.103515625e-05,-6.103515625e-05,0.385559082031,-120.875,39.1875,130.8125,0.84,-2.1,10.2
1541188897418725013,129,0,/imu_data_acquisition2,50905.0,-0.0064697265625,-6.103515625e-05,-6.103515625e-05,0.385559082031,-127.625,36.8125,138.375,0.71,-2.37,10.17
1541188897426750898,130,0,/imu_data_acquisition2,50915.0,-0.0712280273438,-0.1787109375,0.911376953125,0.36376953125,-131.875,36.625,141.625,-0.13,-4.07,8.98
1541188897438606023,131,0,/imu_data_acquisition2,50926.0,-0.080322265625,-0.186767578125,0.913330078125,0.352905273438,-131.25,39.125,137.75,-0.47,-3.44,9.04
1541188897448667049,132,0,/imu_data_acquisition2,50935.0,-0.0896606445312,-0.194702148438,0.914855957031,0.342224121094,-131.5625,42.6875,135.3125,-0.47,-4.43,9.02
1541188897456923007,133,0,/imu_data_acquisition2,50945.0,-0.0989990234375,-0.201904296875,0.916015625,0.332153320312,-123.625,47.0625,127.625,-0.58,-5.51,7.78
1541188897468678951,134,0,/imu_data_acquisition2,50957.0,-0.108337402344,-0.208068847656,0.916809082031,0.323181152344,-112.5,54.875,115.6875,-0.47,-1.15,-0.01
1541188897480050086,135,0,/imu_data_acquisition2,50965.0,-0.108337402344,-0.208068847656,0.916809082031,0.323181152344,-97.75,65.0625,98.1875,-0.17,-5.79,8.09
1541188897488825082,136,0,/imu_data_acquisition2,50977.0,-0.127136230469,-0.217224121094,0.916809082031,0.31005859375,-89.9375,71.4375,78.4375,1.15,-6.69,8.4
1541188897498509883,137,0,/imu_data_acquisition2,50986.0,-0.135681152344,-0.221740722656,0.915710449219,0.306457519531,-88.9375,69.0,50.5,5.32,-9.77,7.06
1541188897509835958,138,0,/imu_data_acquisition2,50995.0,-0.142883300781,-0.226623535156,0.913452148438,0.306335449219,-85.125,63.625,4.1875,7.08,-10.03,5.85
1541188897519548892,139,0,/imu_data_acquisition2,51007.0,-0.149597167969,-0.232971191406,0.909606933594,0.309814453125,-97.0625,64.9375,-44.1875,6.06,-11.55,6.33
1541188897528918027,140,0,/imu_data_acquisition2,51015.0,-0.149597167969,-0.0142211914062,-6.103515625e-05,0.309814453125,-13.375,-0.0625,-0.0625,6.0,-6.7,7.64
1541188897540472030,141,0,/imu_data_acquisition2,51025.0,-0.159423828125,-0.247497558594,0.898254394531,0.326293945312,-101.4375,58.0,-122.375,5.5,-0.01,-0.01
1541188897548234939,142,0,/imu_data_acquisition2,51036.0,-0.163208007812,-0.254943847656,0.891540527344,0.336975097656,-93.375,55.1875,-14.125,4.88,-3.77,9.57
1541188897558675050,143,0,/imu_data_acquisition2,51046.0,-0.165954589844,-0.261657714844,0.884765625,0.348083496094,-80.75,48.625,-149.0,3.53,-2.07,11.73
1541188897566018104,144,0,/imu_data_acquisition2,51055.0,-0.165954589844,-0.261657714844,0.884765625,0.348083496094,-59.625,37.4375,-0.0625,3.23,-1.01,12.22
1541188897578329086,145,0,/imu_data_acquisition2,51067.0,-0.167236328125,-0.26708984375,0.878479003906,0.359130859375,-33.8125,21.875,-139.0,2.72,-0.85,12.6
1541188897589843034,146,0,/imu_data_acquisition2,51075.0,-0.164428710938,-0.272827148438,0.869018554688,0.378540039062,-5.5,5.125,-123.375,2.22,-0.37,12.74
1541188897596431016,147,0,/imu_data_acquisition2,51085.0,-6.103515625e-05,-6.103515625e-05,-6.103515625e-05,0.386047363281,20.1875,-12.375,-102.75,1.19,-1.16,12.65
1541188897613781929,148,0,/imu_data_acquisition2,51099.0,-0.155090332031,-0.272155761719,0.865112304688,0.391784667969,41.875,-13.75,-0.0625,0.83,-1.89,12.08
1541188897620966911,149,0,/imu_data_acquisition2,51106.0,-0.0144653320312,-6.103515625e-05,-6.103515625e-05,0.391784667969,55.0625,-46.25,-57.375,0.31,-3.22,11.37
1541188897626499891,150,0,/imu_data_acquisition2,51115.0,-0.148559570312,-0.270385742188,0.865051269531,0.395629882812,63.375,-60.375,-37.9375,-0.44,-5.61,9.48
1541188897638602018,151,0,/imu_data_acquisition2,51126.0,-0.133361816406,-0.266052246094,0.867492675781,0.398559570312,65.25,-70.0625,-21.25,-0.87,-6.55,8.53
1541188897651213884,152,0,/imu_data_acquisition2,51136.0,-6.103515625e-05,-6.103515625e-05,-6.103515625e-05,0.398254394531,63.9375,-76.25,-9.6875,-1.29,-7.21,7.61
1541188897657182931,153,0,/imu_data_acquisition2,51145.0,-0.117736816406,-0.2626953125,0.871459960938,0.397033691406,54.75,-79.0625,-0.4375,-1.85,-9.1,5.95
1541188897671210050,154,0,/imu_data_acquisition2,51156.0,-0.110778808594,-0.26220703125,0.873291015625,0.395324707031,40.75,-77.8125,5.1875,-2.0,-9.92,5.16
1541188897680768013,155,0,/imu_data_acquisition2,51166.0,-0.104675292969,-0.262756347656,0.874694824219,0.3935546875,24.625,-72.625,5.5625,-2.24,-10.43,4.53
1541188897686929941,156,0,/imu_data_acquisition2,51175.0,-0.00592041015625,-6.103515625e-05,-6.103515625e-05,0.392150878906,10.0,-15.375,-0.0625,-2.39,-10.46,3.98
1541188897698280096,157,0,/imu_data_acquisition2,51186.0,-0.0996704101562,-0.26416015625,0.87548828125,0.392150878906,-3.4375,-51.0625,-5.75,-2.62,-9.72,3.91
1541188897710386991,158,0,/imu_data_acquisition2,51196.0,-6.103515625e-05,-6.103515625e-05,-6.103515625e-05,0.391418457031,-15.25,-37.6875,-12.0625,-2.62,-9.09,4.2
1541188897717122077,159,0,/imu_data_acquisition2,51205.0,-0.0933227539062,-0.268615722656,0.875244140625,0.391296386719,-24.3125,-23.625,-16.3125,-2.53,-0.95,-0.01
1541188897728240966,160,0,/imu_data_acquisition2,51216.0,-0.092041015625,-0.271301269531,0.874328613281,0.391784667969,-29.25,-10.5,-18.875,-2.37,-7.41,5.5
1541188897739224910,161,0,/imu_data_acquisition2,51225.0,-0.091796875,-0.273986816406,0.873107910156,0.392700195312,-32.0625,0.4375,-20.4375,-2.16,-0.01,-0.01
1541188897748287916,162,0,/imu_data_acquisition2,51236.0,-0.0924072265625,-0.276489257812,0.871643066406,0.393981933594,-33.4375,9.0625,-20.1875,-1.88,-1.26,-0.01
1541188897759494066,163,0,/imu_data_acquisition2,51247.0,-0.0936889648438,-0.01318359375,-6.103515625e-05,0.395446777344,-33.0625,14.6875,-18.625,-1.13,-0.01,-0.01
1541188897768385887,164,0,/imu_data_acquisition2,51255.0,-0.095458984375,-0.280883789062,0.868591308594,0.396911621094,-33.0625,14.6875,-18.625,-0.78,-5.23,7.92
1541188897777642011,165,0,/imu_data_acquisition2,51266.0,-0.097412109375,-0.282897949219,0.8671875,0.398132324219,-31.625,14.875,-12.625,-0.37,-2.24,-0.01
1541188897788703918,166,0,/imu_data_acquisition2,51276.0,-6.103515625e-05,-6.103515625e-05,-6.103515625e-05,0.399169921875,-29.5625,12.3125,-9.125,0.36,-4.51,8.41
1541188897798280000,167,0,/imu_data_acquisition2,51285.0,-6.103515625e-05,-6.103515625e-05,-6.103515625e-05,0.39990234375,-25.3125,7.6875,-7.375,0.8,-4.35,8.33
1541188897809468030,168,0,/imu_data_acquisition2,51298.0,-0.10302734375,-0.289855957031,0.863037109375,0.400634765625,-6.5625,-0.0625,-0.0625,1.3,-4.34,8.33
1541188897818228960,169,0,/imu_data_acquisition2,51305.0,-0.10302734375,-0.289855957031,0.863037109375,0.400634765625,-22.5625,2.875,-5.125,1.75,-4.37,8.37
1541188897828766107,170,0,/imu_data_acquisition2,51315.0,-0.103454589844,-0.291381835938,0.862426757812,0.400817871094,-16.625,-5.375,-5.625,2.67,-4.86,8.28
1541188897839227914,171,0,/imu_data_acquisition2,51326.0,-0.103515625,-0.292785644531,0.861877441406,0.400939941406,-13.75,-9.5,-9.375,3.05,-2.35,-0.01
1541188897850033998,172,0,/imu_data_acquisition2,51337.0,-0.10302734375,-0.294250488281,0.861267089844,0.401245117188,-9.8125,-13.375,-15.8125,3.25,-5.06,8.3
1541188897858963966,173,0,/imu_data_acquisition2,51346.0,-0.101989746094,-0.295532226562,0.860595703125,0.401977539062,-6.3125,-17.5,-22.8125,3.26,-5.03,8.7
1541188897868401050,174,0,/imu_data_acquisition2,51356.0,-0.100402832031,-0.0155029296875,-6.103515625e-05,0.403137207031,-6.3125,-17.5,-22.8125,3.18,-4.77,8.68
1541188897879668951,175,0,/imu_data_acquisition2,51365.0,-0.00433349609375,-6.103515625e-05,-6.103515625e-05,0.404724121094,-3.0,-22.6875,-29.9375,3.18,-4.77,8.68
1541188897889734983,176,0,/imu_data_acquisition2,51376.0,-6.103515625e-05,-6.103515625e-05,-6.103515625e-05,0.406555175781,1.125,-33.5,-38.9375,2.44,-5.19,8.6
1541188897899691104,177,0,/imu_data_acquisition2,51387.0,-0.0916748046875,-0.30078125,0.856872558594,0.408508300781,4.0625,-37.0,-41.5,2.09,-5.28,8.76
1541188897911659002,178,0,/imu_data_acquisition2,51396.0,-0.0878295898438,-0.00518798828125,-6.103515625e-05,0.41064453125,7.5,-41.0625,-43.8125,1.76,-5.23,8.62
1541188897919512033,179,0,/imu_data_acquisition2,51407.0,-0.0834350585938,-0.303283691406,0.854797363281,0.412780761719,9.0625,-44.1875,-44.0,1.42,-5.14,8.4
1541188897929966926,180,0,/imu_data_acquisition2,51418.0,-0.0787963867188,-0.007568359375,-6.103515625e-05,0.414916992188,8.1875,-45.9375,-41.5625,0.7,-0.01,-0.01
1541188897938847064,181,0,/imu_data_acquisition2,51426.0,-0.0741577148438,-0.305725097656,0.852844238281,0.416748046875,6.375,-46.8125,-38.0,0.39,-0.01,-0.01
1541188897948204040,182,0,/imu_data_acquisition2,51437.0,-6.103515625e-05,-6.103515625e-05,-6.103515625e-05,0.418334960938,3.75,-46.125,-35.125,0.1,-6.27,7.54
1541188897960284948,183,0,/imu_data_acquisition2,51448.0,-0.065185546875,-0.308715820312,0.85107421875,0.419677734375,0.375,-44.5625,-32.9375,-0.47,-6.4,7.14
1541188897966113090,184,0,/imu_data_acquisition2,51455.0,-0.0611572265625,-0.310485839844,0.85009765625,0.4208984375,0.375,-44.5625,-32.9375,-0.47,-6.4,7.14
1541188897977665901,185,0,/imu_data_acquisition2,51465.0,-0.0574951171875,-0.312377929688,0.84912109375,0.421936035156,-3.875,-41.25,-30.3125,-0.83,-6.71,7.12
1541188897991530895,186,0,/imu_data_acquisition2,51476.0,-0.0543823242188,-0.314453125,0.84814453125,0.4228515625,-11.9375,-34.6875,-24.875,-1.18,-6.67,6.91
1541188897997545957,187,0,/imu_data_acquisition2,51486.0,-0.0516357421875,-0.316711425781,0.847106933594,0.423645019531,-13.625,-0.0625,-0.0625,-1.33,-6.41,6.87
1541188898012151956,188,0,/imu_data_acquisition2,51499.0,-0.0472412109375,-0.321044921875,0.844970703125,0.425109863281,-14.8125,-27.375,-20.5,-1.48,-6.25,6.86
1541188898020416975,189,0,/imu_data_acquisition2,51506.0,-0.0472412109375,-0.321044921875,0.844970703125,0.425109863281,-14.8125,-0.0625,-0.0625,-1.64,-1.11,-0.01
1541188898026432037,190,0,/imu_data_acquisition2,51515.0,-0.0145263671875,-6.103515625e-05,-6.103515625e-05,0.425598144531,-16.75,-7.0625,-0.0625,-1.64,-6.23,6.75
1541188898039989948,191,0,/imu_data_acquisition2,51527.0,-0.0447387695312,-0.0126342773438,-6.103515625e-05,0.425903320312,-17.9375,-14.5,-9.25,-1.42,-6.11,6.6
1541188898051012039,192,0,/imu_data_acquisition2,51537.0,-0.0440673828125,-0.326965332031,0.842346191406,0.426147460938,-16.9375,-9.6875,-6.375,-1.33,-5.98,6.6
1541188898057527065,193,0,/imu_data_acquisition2,51546.0,-0.0125732421875,-6.103515625e-05,-6.103515625e-05,0.42626953125,-17.75,-5.5625,-3.4375,-1.03,-6.03,6.59
1541188898068041086,194,0,/imu_data_acquisition2,51556.0,-0.0439453125,-0.330017089844,0.841125488281,0.42626953125,-17.75,-5.5625,-3.4375,-0.9,-6.38,6.62
1541188898079904079,195,0,/imu_data_acquisition2,51566.0,-0.04443359375,-0.331420898438,0.840515136719,0.42626953125,-18.5,-1.875,-1.4375,-1.19,-0.01,-0.01
1541188898087622880,196,0,/imu_data_acquisition2,51576.0,-0.0452880859375,-0.332580566406,0.840026855469,0.42626953125,-10.875,4.9375,-0.0625,-1.24,-0.01,-0.01
1541188898098802089,197,0,/imu_data_acquisition2,51586.0,-0.0459594726562,-0.00506591796875,-6.103515625e-05,0.426513671875,-8.0,8.625,-0.0625,-1.42,-3.85,7.5
1541188898109852075,198,0,/imu_data_acquisition2,51597.0,-0.046875,-0.333435058594,0.83935546875,0.426696777344,-3.0,10.5625,2.0625,-1.52,-5.67,8.08
1541188898117192983,199,0,/imu_data_acquisition2,51606.0,-6.103515625e-05,-6.103515625e-05,-6.103515625e-05,0.426879882812,-3.0,10.5625,2.0625,-1.52,-5.67,8.08
1541188898128719091,200,0,/imu_data_acquisition2,51617.0,-0.0487060546875,-0.332580566406,0.839477539062,0.426940917969,2.6875,12.4375,3.8125,-9.39,-4.61,15.06
1541188898140028953,201,0,/imu_data_acquisition2,51627.0,-0.0496826171875,-0.331115722656,0.839965820312,0.427001953125,80.6875,25.375,-20.0625,-8.41,-1.95,4.75
1541188898148740053,202,0,/imu_data_acquisition2,51637.0,-6.103515625e-05,-6.103515625e-05,-6.103515625e-05,0.429504394531,40.6875,36.25,-1.6875,-5.64,-21.48,13.92
1541188898192198038,203,0,/imu_data_acquisition2,51647.0,-6.103515625e-05,-6.103515625e-05,-6.103515625e-05,0.430786132812,88.1875,14.6875,-62.1875,6.17,8.51,10.89
1541188898195955991,204,0,/imu_data_acquisition2,51656.0,-0.045166015625,-0.313781738281,0.84228515625,0.435913085938,88.1875,14.6875,-62.1875,4.44,-6.41,11.14
1541188898199532985,205,0,/imu_data_acquisition2,51665.0,-0.0399169921875,-0.3076171875,0.842590332031,0.440246582031,91.625,-0.0625,-0.0625,4.44,-6.41,11.14
1541188898201019048,206,0,/imu_data_acquisition2,51677.0,-0.0372924804688,-0.0076904296875,-6.103515625e-05,0.441589355469,47.5625,5.9375,-24.8125,2.67,-4.36,10.07
1541188898202436923,207,0,/imu_data_acquisition2,51687.0,-0.0353393554688,-0.301025390625,0.843383789062,0.443664550781,36.5,30.1875,-25.75,2.93,0.75,11.0
1541188898209208965,208,0,/imu_data_acquisition2,51697.0,-6.103515625e-05,-6.103515625e-05,-6.103515625e-05,0.446350097656,36.5,30.1875,-25.75,1.97,-3.05,12.08
1541188898217247009,209,0,/imu_data_acquisition2,51706.0,-6.103515625e-05,-6.103515625e-05,-6.103515625e-05,0.448791503906,22.625,-0.0625,-0.0625,1.97,-3.05,12.08
1541188898228564977,210,0,/imu_data_acquisition2,51716.0,-0.038330078125,-0.294128417969,0.842224121094,0.450256347656,-7.375,28.625,-10.4375,1.35,-4.16,11.11
1541188898238430976,211,0,/imu_data_acquisition2,51726.0,-0.0399780273438,-0.0131225585938,-6.103515625e-05,0.451843261719,-14.125,21.0,-15.6875,1.46,-3.94,10.92
1541188898248646974,212,0,/imu_data_acquisition2,51737.0,-0.0416259765625,-0.295776367188,0.839904785156,0.453186035156,-39.8125,4.125,-12.625,1.57,-2.15,-0.01
1541188898259798049,213,0,/imu_data_acquisition2,51747.0,-0.0119018554688,-6.103515625e-05,-6.103515625e-05,0.454040527344,-4.1875,-0.0625,-0.0625,1.5,-4.95,8.88
1541188898268078088,214,0,/imu_data_acquisition2,51755.0,-0.0446166992188,-0.302368164062,0.836730957031,0.454406738281,-4.1875,-0.0625,-0.0625,1.5,-4.95,8.88
1541188898276848077,215,0,/imu_data_acquisition2,51765.0,-0.0149536132812,-6.103515625e-05,-6.103515625e-05,0.454467773438,-59.3125,-7.625,-6.8125,1.54,-5.37,8.81
1541188898289128065,216,0,/imu_data_acquisition2,51777.0,-6.103515625e-05,-6.103515625e-05,-6.103515625e-05,0.454345703125,-14.3125,-0.0625,-0.0625,1.71,-6.11,7.53
1541188898299041986,217,0,/imu_data_acquisition2,51787.0,-0.0490112304688,-0.316650390625,0.831359863281,0.454040527344,-14.625,-0.0625,-0.0625,1.68,-0.01,-0.01
1541188898309149026,218,0,/imu_data_acquisition2,51797.0,-0.0502319335938,-0.321655273438,0.829650878906,0.45361328125,-56.3125,-16.5,-2.75,1.87,-1.25,-0.01
1541188898318933963,219,0,/imu_data_acquisition2,51806.0,-0.0511474609375,-0.326232910156,0.828063964844,0.453125,-56.3125,-16.5,-2.75,1.87,-6.37,6.92
1541188898329130887,220,0,/imu_data_acquisition2,51815.0,-0.0518188476562,-0.330322265625,0.82666015625,0.452575683594,-49.6875,-16.3125,-2.125,2.18,-6.39,6.34
1541188898338435888,221,0,/imu_data_acquisition2,51827.0,-0.00531005859375,-6.103515625e-05,-6.103515625e-05,0.4521484375,-7.3125,-0.0625,-0.0625,2.28,-6.68,6.09
1541188898350087881,222,0,/imu_data_acquisition2,51838.0,-0.05224609375,-0.336242675781,0.824645996094,0.451843261719,-28.6875,-13.125,-3.25,2.54,-7.0,5.98
1541188898359642982,223,0,/imu_data_acquisition2,51847.0,-0.052001953125,-0.337768554688,0.824035644531,0.451843261719,-16.5625,-10.625,-4.625,2.44,-6.81,5.64
1541188898367913007,224,0,/imu_data_acquisition2,51856.0,-0.004638671875,-6.103515625e-05,-6.103515625e-05,0.451965332031,-5.1875,-7.25,-5.375,2.44,-6.81,5.64
1541188898378823041,225,0,/imu_data_acquisition2,51865.0,-0.0508422851562,-0.338073730469,0.82373046875,0.452392578125,7.9375,-2.9375,-6.5625,2.56,-7.15,5.58
1541188898388475894,226,0,/imu_data_acquisition2,51877.0,-6.103515625e-05,-6.103515625e-05,-6.103515625e-05,0.453063964844,20.5,3.25,-7.25,2.46,-6.88,6.03
1541188898399070978,227,0,/imu_data_acquisition2,51887.0,-0.0491943359375,-0.333801269531,0.824645996094,0.453979492188,34.3125,9.375,-0.0625,2.32,-6.19,6.15
1541188898411159992,228,0,/imu_data_acquisition2,51898.0,-0.0485229492188,-0.330078125,0.825561523438,0.455078125,44.4375,17.0625,-5.9375,2.03,-6.72,6.57
1541188898418819904,229,0,/imu_data_acquisition2,51906.0,-0.0477905273438,-0.3251953125,0.826843261719,0.456420898438,57.1875,23.375,-6.1875,2.03,-6.72,6.57
1541188898430478096,230,0,/imu_data_acquisition2,51915.0,-6.103515625e-05,-6.103515625e-05,-6.103515625e-05,0.457763671875,65.8125,-0.0625,-0.0625,1.75,-0.01,-0.01
1541188898438494920,231,0,/imu_data_acquisition2,51926.0,-0.0459594726562,-0.312927246094,0.830078125,0.459289550781,78.3125,29.6875,-5.9375,1.67,-6.53,7.03
1541188898450227022,232,0,/imu_data_acquisition2,51938.0,-0.0446166992188,-0.3056640625,0.83203125,0.460754394531,86.625,30.5,-4.5625,2.74,-5.5,5.75
1541188898460814952,233,0,/imu_data_acquisition2,51948.0,-0.042724609375,-0.297424316406,0.834228515625,0.462341308594,100.5625,30.8125,-5.875,2.31,-0.68,-0.01
1541188898467053890,234,0,/imu_data_acquisition2,51955.0,-0.0406494140625,-0.0068359375,-6.103515625e-05,0.463928222656,113.0,34.4375,-4.5625,2.31,-5.8,5.97
1541188898480128049,235,0,/imu_data_acquisition2,51968.0,-6.103515625e-05,-6.103515625e-05,-6.103515625e-05,0.465515136719,126.125,43.0625,-1.9375,2.37,-5.05,6.77
1541188898492230892,236,0,/imu_data_acquisition2,51977.0,-0.0364379882812,-0.265563964844,0.842590332031,0.467102050781,141.5,47.4375,-0.0625,2.37,-5.05,6.77
1541188898500854969,237,0,/imu_data_acquisition2,51988.0,-0.033935546875,-0.252502441406,0.845947265625,0.468505859375,171.9375,56.9375,7.125,1.8,-6.07,7.67
1541188898512012004,238,0,/imu_data_acquisition2,52000.0,-0.0313720703125,-0.237915039062,0.849609375,0.469604492188,195.1875,-0.0625,-0.0625,1.6,-5.72,8.19
1541188898518421888,239,0,/imu_data_acquisition2,52006.0,-0.0279541015625,-0.221496582031,0.853515625,0.470764160156,195.1875,58.8125,6.4375,1.6,-5.72,8.19
1541188898526596069,240,0,/imu_data_acquisition2,52015.0,-0.0238037109375,-0.203735351562,0.857421875,0.472045898438,213.875,58.8125,3.9375,0.55,-2.69,10.53
1541188898539896965,241,0,/imu_data_acquisition2,52027.0,-0.0187377929688,-0.18603515625,0.861083984375,0.472900390625,217.125,48.3125,4.6875,-0.27,-0.3,13.81
1541188898552185058,242,0,/imu_data_acquisition2,52038.0,-0.012939453125,-6.103515625e-05,-6.103515625e-05,0.473693847656,210.125,35.75,0.3125,-0.09,3.45,13.16
1541188898559215068,243,0,/imu_data_acquisition2,52048.0,-0.00677490234375,-0.155944824219,0.866577148438,0.473999023438,175.75,12.0625,0.5,0.96,2.27,11.42
1541188898571023941,244,0,/imu_data_acquisition2,52057.0,-0.00146484375,-0.146118164062,0.868225097656,0.474182128906,133.5,0.8125,-2.0625,0.96,2.27,11.42
1541188898577344894,245,0,/imu_data_acquisition2,52064.0,0.0029296875,-0.0148315429688,-6.103515625e-05,0.474548339844,90.6875,-9.375,-5.9375,1.58,2.17,11.32
1541188898588805913,246,0,/imu_data_acquisition2,52077.0,0.0062255859375,-0.135986328125,0.869323730469,0.475158691406,58.9375,-11.0,-10.875,1.57,-1.02,10.55
1541188898599869966,247,0,/imu_data_acquisition2,52088.0,0.00787353515625,-0.134460449219,0.869262695312,0.475646972656,24.5,-7.375,-7.6875,1.79,-1.09,9.85
1541188898609806060,248,0,/imu_data_acquisition2,52098.0,0.0089111328125,-0.133605957031,0.869079589844,0.476257324219,14.5,-0.0625,-0.0625,1.63,-2.25,9.84
1541188898618089914,249,0,/imu_data_acquisition2,52106.0,0.009521484375,-0.0078125,-6.103515625e-05,0.476745605469,10.8125,-1.5,-7.375,1.63,-2.25,9.84
1541188898629815101,250,0,/imu_data_acquisition2,52117.0,0.00994873046875,-0.132141113281,0.868713378906,0.477233886719,9.0,0.6875,-6.0,1.55,-1.95,9.81
1541188898639478921,251,0,/imu_data_acquisition2,52126.0,-6.103515625e-05,-6.103515625e-05,-6.103515625e-05,0.4775390625,5.5625,1.5,-4.375,1.33,-1.33,9.78
1541188898649759054,252,0,/imu_data_acquisition2,52138.0,0.01025390625,-0.0062255859375,-6.103515625e-05,0.477905273438,4.9375,1.5625,-4.625,1.07,-1.91,9.73
1541188898661756038,253,0,/imu_data_acquisition2,52149.0,0.0103149414062,-0.0059814453125,-6.103515625e-05,0.478210449219,2.8125,1.0625,-4.375,1.12,-2.03,9.64
1541188898667161941,254,0,/imu_data_acquisition2,52156.0,0.010498046875,-0.130798339844,0.8681640625,0.478576660156,2.625,-0.6875,-4.9375,1.12,-2.03,9.64
1541188898678714990,255,0,/imu_data_acquisition2,52166.0,-6.103515625e-05,-6.103515625e-05,-6.103515625e-05,0.478942871094,3.25,-2.8125,-5.5,1.14,-2.07,9.6
1541188898685719966,256,0,/imu_data_acquisition2,52174.0,0.0115356445312,-6.103515625e-05,-6.103515625e-05,0.479309082031,5.625,-4.0,-5.5,1.08,-2.2,-0.01
1541188898701762914,257,0,/imu_data_acquisition2,52189.0,0.0122680664062,-0.00494384765625,-6.103515625e-05,0.479675292969,8.75,-0.0625,-0.0625,1.49,-1.94,-0.01
1541188898711364984,258,0,/imu_data_acquisition2,52198.0,0.0132446289062,-0.129211425781,0.867614746094,0.47998046875,13.0,-0.0625,-0.0625,1.49,-1.94,9.54
1541188898717037916,259,0,/imu_data_acquisition2,52205.0,0.01416015625,-0.128234863281,0.867553710938,0.480346679688,14.9375,-0.0625,-0.0625,1.59,-1.13,9.61
1541188898729532003,260,0,/imu_data_acquisition2,52215.0,-6.103515625e-05,-6.103515625e-05,-6.103515625e-05,0.48046875,12.5625,-1.0,-1.6875,1.6,-1.83,9.55
1541188898739814043,261,0,/imu_data_acquisition2,52228.0,0.015380859375,-0.12646484375,0.86767578125,0.480529785156,12.5625,-1.0,-1.6875,1.38,-1.89,9.43
1541188898750814914,262,0,/imu_data_acquisition2,52238.0,0.0158081054688,-0.12548828125,0.867736816406,0.480590820312,13.1875,1.25,-1.0625,1.52,-2.19,9.68
1541188898760086059,263,0,/imu_data_acquisition2,52248.0,0.0164184570312,-0.0148315429688,-6.103515625e-05,0.480834960938,16.1875,1.625,-2.6875,1.3,-1.99,9.85
1541188898768460035,264,0,/imu_data_acquisition2,52256.0,0.0169677734375,-0.122985839844,0.867858886719,0.481079101562,15.6875,1.625,-0.0625,1.45,-0.01,-0.01
1541188898776840925,265,0,/imu_data_acquisition2,52264.0,0.0174560546875,-0.121948242188,0.867858886719,0.481323242188,13.75,1.0625,-3.3125,1.59,-1.61,9.82
1541188898788315057,266,0,/imu_data_acquisition2,52277.0,0.0180053710938,-0.120849609375,0.867858886719,0.481506347656,13.75,1.0625,-3.3125,1.26,-1.55,9.82
1541188898800383090,267,0,/imu_data_acquisition2,52288.0,0.0184936523438,-0.119995117188,0.867858886719,0.481689453125,11.8125,0.5,-0.0625,1.21,-1.6,9.86
1541188898812244892,268,0,/imu_data_acquisition2,52298.0,0.0191040039062,-0.119201660156,0.867858886719,0.481872558594,11.8125,-1.5,-2.75,1.37,-1.62,9.67
1541188898818434000,269,0,/imu_data_acquisition2,52306.0,0.0196533203125,-0.118408203125,0.867919921875,0.481994628906,10.875,-0.0625,-0.0625,1.64,-1.36,9.94
1541188898827997922,270,0,/imu_data_acquisition2,52315.0,0.0200805664062,-0.117614746094,0.868041992188,0.481994628906,8.9375,-0.3125,-0.4375,1.53,-1.63,9.84
1541188898836222887,271,0,/imu_data_acquisition2,52325.0,0.0205078125,-0.007568359375,-6.103515625e-05,0.482055664062,9.5,-0.0625,-0.0625,1.69,-1.29,9.95
1541188898851435899,272,0,/imu_data_acquisition2,52338.0,0.0206909179688,-0.116333007812,0.8681640625,0.482055664062,7.25,1.125,0.25,1.68,-1.48,9.64
1541188898859436988,273,0,/imu_data_acquisition2,52346.0,0.0209350585938,-6.103515625e-05,-6.103515625e-05,0.482055664062,8.0,1.1875,-0.0625,1.68,-1.48,9.64
1541188898866811037,274,0,/imu_data_acquisition2,52355.0,0.0213012695312,-6.103515625e-05,-6.103515625e-05,0.482055664062,7.9375,2.0,-0.1875,1.86,-1.77,9.98
1541188898878966093,275,0,/imu_data_acquisition2,52366.0,0.0217895507812,-0.114196777344,0.868347167969,0.482116699219,8.8125,2.125,-0.625,1.81,-1.26,-0.01
1541188898889820098,276,0,/imu_data_acquisition2,52375.0,0.0222778320312,-0.0040283203125,-6.103515625e-05,0.482238769531,8.375,0.75,-0.8125,1.57,-1.31,9.62
1541188898899766921,277,0,/imu_data_acquisition2,52387.0,0.022705078125,-6.103515625e-05,-6.103515625e-05,0.482299804688,7.875,-0.125,-1.0,1.35,-1.44,9.72
1541188898912992954,278,0,/imu_data_acquisition2,52398.0,0.0232543945312,-0.112121582031,0.868469238281,0.482360839844,8.0,-1.875,-1.5,1.6,-1.48,9.75
1541188898918720960,279,0,/imu_data_acquisition2,52405.0,0.0238037109375,-0.111633300781,0.868469238281,0.482421875,7.3125,-2.3125,-1.0625,1.69,-1.57,9.95
1541188898927242994,280,0,/imu_data_acquisition2,52416.0,0.0245361328125,-0.111145019531,0.868469238281,0.482482910156,7.9375,-3.9375,-1.5625,1.61,-0.01,-0.01
1541188898937829017,281,0,/imu_data_acquisition2,52426.0,0.0252685546875,-0.110534667969,0.868469238281,0.482604980469,8.0625,-3.0,-1.5625,1.6,-1.25,10.01
1541188898953594923,282,0,/imu_data_acquisition2,52440.0,0.025634765625,-0.110290527344,0.868530273438,0.482543945312,3.3125,-1.25,0.0,1.53,-1.3,10.04
1541188898961935997,283,0,/imu_data_acquisition2,52449.0,0.0258178710938,-0.110107421875,0.868530273438,0.482543945312,3.3125,-0.0625,-0.0625,1.53,-1.3,10.04
1541188898968780040,284,0,/imu_data_acquisition2,52456.0,0.0260620117188,-6.103515625e-05,-6.103515625e-05,0.482543945312,2.875,-1.5625,-0.4375,2.17,-0.95,9.12
1541188898980460882,285,0,/imu_data_acquisition2,52468.0,0.0260620117188,-6.103515625e-05,-6.103515625e-05,0.482543945312,0.3125,0.5,0.3125,1.3,-1.37,10.32
1541188898989419937,286,0,/imu_data_acquisition2,52478.0,-6.103515625e-05,-6.103515625e-05,-6.103515625e-05,0.482543945312,-0.3125,-0.75,0.125,1.84,-1.32,9.66
1541188899000091075,287,0,/imu_data_acquisition2,52487.0,0.0262451171875,-6.103515625e-05,-6.103515625e-05,0.482543945312,-0.625,0.375,0.3125,1.59,-1.43,9.88
1541188899012396097,288,0,/imu_data_acquisition2,52499.0,0.0262451171875,-0.109924316406,0.868530273438,0.482543945312,-0.0625,0.125,0.125,1.56,-1.39,10.0
1541188899019664049,289,0,/imu_data_acquisition2,52506.0,-6.103515625e-05,-6.103515625e-05,-6.103515625e-05,0.482543945312,-0.5625,-0.125,0.3125,1.56,-1.39,10.0
1541188899026714086,290,0,/imu_data_acquisition2,52514.0,-6.103515625e-05,-6.103515625e-05,-6.103515625e-05,0.482543945312,-0.25,-1.3125,0.25,1.8,-1.5,9.76
1541188899041107892,291,0,/imu_data_acquisition2,52529.0,0.0263671875,-0.109924316406,0.868530273438,0.482543945312,0.5,-0.0625,-0.0625,1.37,-1.51,9.84
1541188899051357030,292,0,/imu_data_acquisition2,52539.0,0.0265502929688,-0.109802246094,0.868591308594,0.482543945312,1.875,-0.9375,-0.5,1.35,-1.54,9.88
1541188899059463977,293,0,/imu_data_acquisition2,52546.0,-6.103515625e-05,-6.103515625e-05,-6.103515625e-05,0.482543945312,1.625,-0.0625,-0.0625,1.41,-1.6,9.9
1541188899067920923,294,0,/imu_data_acquisition2,52555.0,0.0266723632812,-0.109497070312,0.868591308594,0.482543945312,1.875,0.0,-0.0625,1.45,-1.29,9.7
1541188899080535888,295,0,/imu_data_acquisition2,52569.0,0.0266723632812,-0.109436035156,0.868591308594,0.482543945312,0.75,0.4375,0.5,1.62,-1.39,9.96
1541188899086639881,296,0,/imu_data_acquisition2,52574.0,0.0265502929688,-6.103515625e-05,-6.103515625e-05,0.482482910156,-0.625,1.5625,1.0625,1.21,-1.46,9.94
1541188899098253011,297,0,/imu_data_acquisition2,52586.0,0.0263671875,-0.109191894531,0.868713378906,0.482421875,-1.0625,1.6875,0.9375,1.27,-1.18,-0.01
1541188899109894990,298,0,/imu_data_acquisition2,52597.0,0.0261840820312,-0.015380859375,-6.103515625e-05,0.482360839844,-2.3125,1.3125,1.1875,1.34,-1.39,9.72
1541188899116431951,299,0,/imu_data_acquisition2,52604.0,0.0260620117188,-0.109069824219,0.868774414062,0.482299804688,-2.25,0.5625,0.9375,1.21,-1.33,9.85
1541188899128432035,300,0,/imu_data_acquisition2,52616.0,0.0260009765625,-0.109008789062,0.868835449219,0.482299804688,-3.0,-0.4375,0.875,1.6,-1.18,9.79
1541188899139643907,301,0,/imu_data_acquisition2,52628.0,0.0259399414062,-0.0153198242188,-6.103515625e-05,0.482238769531,-3.625,-0.75,1.125,1.44,-1.24,9.74
1541188899150610923,302,0,/imu_data_acquisition2,52636.0,0.026123046875,-0.109130859375,0.868835449219,0.482177734375,-3.0625,-1.875,0.875,1.48,-1.18,9.54
1541188899197581052,304,0,/imu_data_acquisition2,52657.0,0.0263671875,-0.109436035156,0.868835449219,0.482116699219,-2.75,-3.3125,0.3125,1.52,-1.14,9.63
1541188899241158008,305,0,/imu_data_acquisition2,52664.0,0.0264892578125,-6.103515625e-05,-6.103515625e-05,0.482055664062,-3.625,-3.5625,0.9375,1.38,-1.58,9.67
1541188899261627912,306,0,/imu_data_acquisition2,52675.0,-6.103515625e-05,-6.103515625e-05,-6.103515625e-05,0.481994628906,-1.9375,-3.5,0.125,1.55,-1.51,9.53
1541188899282982110,307,0,/imu_data_acquisition2,52684.0,0.0267944335938,-0.110107421875,0.868835449219,0.481994628906,-1.3125,-1.6875,-0.0625,1.28,-1.62,9.67
1541188899331909894,308,0,/imu_data_acquisition2,52694.0,0.0267944335938,-0.110107421875,0.868835449219,0.481994628906,-0.4375,-1.0,-0.1875,1.26,-1.42,9.69
1541188899336726903,309,0,/imu_data_acquisition2,52704.0,0.0267944335938,-6.103515625e-05,-6.103515625e-05,0.481994628906,-0.75,-0.6875,0.125,1.35,-1.46,9.81
1541188899337835073,310,0,/imu_data_acquisition2,52717.0,0.0267944335938,-6.103515625e-05,-6.103515625e-05,0.481994628906,-1.0,0.0625,0.0625,1.54,-1.3,9.83
1541188899340023994,311,0,/imu_data_acquisition2,52725.0,-6.103515625e-05,-6.103515625e-05,-6.103515625e-05,0.481994628906,-1.75,0.5625,0.625,1.69,-1.43,9.68
1541188899341897010,312,0,/imu_data_acquisition2,52738.0,0.026611328125,-0.110107421875,0.868835449219,0.48193359375,-2.3125,1.5,0.6875,1.4,-1.4,9.75
1541188899351300001,313,0,/imu_data_acquisition2,52744.0,0.0263061523438,-6.103515625e-05,-6.103515625e-05,0.481872558594,-3.75,1.5625,1.625,1.84,-1.39,9.71
1541188899353065013,314,0,/imu_data_acquisition2,52756.0,0.0260620117188,-0.110534667969,0.868896484375,0.481750488281,-3.5,1.1875,1.75,1.76,-1.36,9.6
1541188899353730916,315,0,/imu_data_acquisition2,52765.0,-6.103515625e-05,-6.103515625e-05,-6.103515625e-05,0.481628417969,-3.3125,1.0,2.125,1.61,-1.26,-0.01
1541188899355850934,316,0,/imu_data_acquisition2,52775.0,0.0258178710938,-0.110900878906,0.869079589844,0.4814453125,-1.75,-0.625,2.25,2.45,-0.74,-0.01
1541188899357700109,317,0,/imu_data_acquisition2,52786.0,0.025390625,-0.111083984375,0.869140625,0.481201171875,-3.75,2.875,3.4375,-0.45,-1.04,10.62
1541188899359303951,318,0,/imu_data_acquisition2,52800.0,0.0252685546875,-0.111145019531,0.869262695312,0.481018066406,-1.5,0.875,3.0,2.81,-1.77,8.92
1541188899360837936,319,0,/imu_data_acquisition2,52805.0,0.0247192382812,-0.111511230469,0.869384765625,0.480712890625,-6.4375,2.6875,4.8125,0.47,-2.4,10.65
1541188899361823081,320,0,/imu_data_acquisition2,52814.0,-6.103515625e-05,-6.103515625e-05,-6.103515625e-05,0.480529785156,-6.375,1.25,2.625,2.66,-1.89,9.53
1541188899372008085,321,0,/imu_data_acquisition2,52824.0,-6.103515625e-05,-6.103515625e-05,-6.103515625e-05,0.480346679688,-7.8125,3.0,3.0,2.13,-2.22,-0.01
1541188899374284982,322,0,/imu_data_acquisition2,52834.0,0.0230712890625,-0.112609863281,0.86962890625,0.480102539062,-6.0625,5.75,4.1875,1.97,-1.66,9.46
1541188899379615068,323,0,/imu_data_acquisition2,52845.0,0.0223388671875,-0.112731933594,0.869812011719,0.479797363281,-4.8125,6.625,5.5625,1.8,-1.01,10.15
1541188899386652946,324,0,/imu_data_acquisition2,52855.0,0.021484375,-6.103515625e-05,-6.103515625e-05,0.479309082031,-6.5,7.25,7.4375,2.13,-0.01,-0.01
1541188899391406059,325,0,/imu_data_acquisition2,52865.0,0.0203247070312,-0.113220214844,0.870361328125,0.478820800781,-9.125,9.0,8.0625,2.0,-1.81,9.73
1541188899393260955,326,0,/imu_data_acquisition2,52875.0,0.0191040039062,-0.113525390625,0.87060546875,0.478332519531,-9.625,10.5,7.9375,2.28,-1.42,9.61
1541188899397150993,327,0,/imu_data_acquisition2,52884.0,0.017578125,-6.103515625e-05,-6.103515625e-05,0.477783203125,-11.75,12.9375,9.625,2.45,-1.27,9.87
1541188899410413026,328,0,/imu_data_acquisition2,52899.0,0.0158081054688,-0.114318847656,0.871276855469,0.47705078125,-13.75,14.625,-0.0625,2.71,-0.93,9.79
1541188899419503927,329,0,/imu_data_acquisition2,52905.0,0.0135498046875,-0.115051269531,0.871765136719,0.47607421875,-19.25,18.375,16.25,2.07,-1.18,10.1
1541188899435292005,330,0,/imu_data_acquisition2,52920.0,0.0108032226562,-0.116149902344,0.872314453125,0.474792480469,-25.75,20.625,19.8125,2.35,-1.05,9.7
1541188899439410924,331,0,/imu_data_acquisition2,52926.0,0.00732421875,-0.11767578125,0.872863769531,0.473571777344,-34.6875,25.5625,20.875,2.28,-0.47,10.17
1541188899451430082,332,0,/imu_data_acquisition2,52936.0,0.00299072265625,-0.120239257812,0.873352050781,0.472045898438,-49.6875,28.0625,24.5625,2.51,-1.43,9.42
1541188899458586931,333,0,/imu_data_acquisition2,52945.0,-0.0023193359375,-0.123229980469,0.873840332031,0.470397949219,-60.0,36.0,27.625,1.91,-0.26,10.6
1541188899468424081,334,0,/imu_data_acquisition2,52957.0,-0.0084228515625,-0.127075195312,0.874267578125,0.468383789062,-72.875,39.0625,31.9375,2.22,0.31,-0.01
1541188899479949951,335,0,/imu_data_acquisition2,52968.0,-0.0158081054688,-0.1318359375,0.874877929688,0.465759277344,-89.8125,45.6875,41.3125,2.48,0.62,10.87
1541188899487107992,336,0,/imu_data_acquisition2,52975.0,-0.0238647460938,-0.137329101562,0.875671386719,0.46240234375,-100.875,47.9375,50.3125,2.6,-0.38,10.06
1541188899498872995,337,0,/imu_data_acquisition2,52987.0,-0.033447265625,-0.143615722656,0.876525878906,0.458251953125,-5.0,-0.0625,-0.0625,2.12,-1.81,10.05
1541188899507025957,338,0,/imu_data_acquisition2,52994.0,-0.0436401367188,-0.149841308594,0.877380371094,0.453674316406,-120.1875,64.1875,67.1875,1.55,0.11,11.35
1541188899518049001,339,0,/imu_data_acquisition2,53006.0,-0.0546875,-0.157409667969,0.878540039062,0.447692871094,-138.75,62.625,84.0,2.16,-0.82,-0.01
1541188899528323888,340,0,/imu_data_acquisition2,53016.0,-0.06640625,-0.166320800781,0.8798828125,0.440124511719,-157.375,59.6875,101.5625,1.31,-2.42,11.17
1541188899538752079,341,0,/imu_data_acquisition2,53025.0,-6.103515625e-05,-6.103515625e-05,-6.103515625e-05,0.431579589844,-166.75,54.125,-0.0625,0.76,-0.01,-0.01
1541188899551748037,342,0,/imu_data_acquisition2,53038.0,-0.0899658203125,-0.185791015625,0.882568359375,0.422424316406,-167.375,52.75,117.75,1.14,-3.14,9.57
1541188899560383081,343,0,/imu_data_acquisition2,53046.0,-0.101745605469,-0.195129394531,0.883850097656,0.412719726562,-164.25,53.8125,123.6875,0.5,-4.42,9.56
1541188899566572904,344,0,/imu_data_acquisition2,53055.0,-0.113586425781,-0.203979492188,0.885009765625,0.402893066406,-159.625,56.5,125.375,0.11,-4.34,9.54
1541188899577454090,345,0,/imu_data_acquisition2,53065.0,-0.125366210938,-0.212524414062,0.885864257812,0.392883300781,-157.1875,57.1875,125.9375,-0.37,-4.55,8.62
1541188899588732957,346,0,/imu_data_acquisition2,53075.0,-0.011962890625,-6.103515625e-05,-6.103515625e-05,0.382934570312,-149.1875,58.8125,125.1875,0.13,-5.86,8.46
1541188899596796989,347,0,/imu_data_acquisition2,53085.0,-6.103515625e-05,-6.103515625e-05,-6.103515625e-05,0.373413085938,-133.0625,63.25,-0.0625,0.13,-1.02,-0.01
1541188899609173059,348,0,/imu_data_acquisition2,53096.0,-0.1591796875,-0.231689453125,0.887512207031,0.365173339844,-113.0,70.9375,108.875,0.25,-7.08,6.66
1541188899620234966,349,0,/imu_data_acquisition2,53106.0,-0.169982910156,-0.235717773438,0.88720703125,0.3583984375,-102.25,78.5,91.9375,4.34,-9.82,8.29
1541188899627073049,350,0,/imu_data_acquisition2,53115.0,-0.179931640625,-0.240295410156,0.885864257812,0.353820800781,-103.5,74.75,61.125,7.03,-0.01,-0.01
1541188899648438930,352,0,/imu_data_acquisition2,53135.0,-0.00579833984375,-6.103515625e-05,-6.103515625e-05,0.358764648438,-75.5625,60.625,-65.8125,7.71,-4.73,6.55
1541188899662208080,353,0,/imu_data_acquisition2,53149.0,-0.198608398438,-0.0064697265625,-6.103515625e-05,0.364868164062,-88.875,59.4375,-85.875,7.06,-4.48,8.96
1541188899672765016,354,0,/imu_data_acquisition2,53158.0,-0.202575683594,-0.262512207031,0.867004394531,0.371948242188,-80.0625,49.5,-99.75,6.78,-2.78,10.56
1541188899680486917,355,0,/imu_data_acquisition2,53167.0,-0.204406738281,-0.267761230469,0.861755371094,0.379272460938,-61.0625,31.3125,-105.0625,5.89,-0.01,-0.01
1541188899686755895,356,0,/imu_data_acquisition2,53175.0,-6.103515625e-05,-6.103515625e-05,-6.103515625e-05,0.386352539062,-33.375,11.375,-0.0625,5.28,-0.21,12.39
1541188899698461055,357,0,/imu_data_acquisition2,53186.0,-0.201721191406,-0.273803710938,0.854553222656,0.392578125,-6.75,-6.125,-89.25,4.47,-0.31,12.42
1541188899707734107,358,0,/imu_data_acquisition2,53196.0,-0.19775390625,-0.274658203125,0.852905273438,0.3974609375,16.125,-24.375,-7.75,2.73,-2.56,11.87
1541188899718533992,359,0,/imu_data_acquisition2,53206.0,-0.192138671875,-0.274597167969,0.8525390625,0.401062011719,34.5,-44.125,-56.1875,1.94,-3.74,10.93
1541188899728153944,360,0,/imu_data_acquisition2,53215.0,-0.01318359375,-6.103515625e-05,-6.103515625e-05,0.403564453125,46.6875,-13.5625,-0.0625,1.21,-4.93,9.67
1541188899739650011,361,0,/imu_data_acquisition2,53226.0,-6.103515625e-05,-6.103515625e-05,-6.103515625e-05,0.405212402344,50.3125,-72.9375,-35.625,0.57,-6.52,8.37
1541188899748183012,362,0,/imu_data_acquisition2,53236.0,-0.169250488281,-0.273071289062,0.855346679688,0.406372070312,48.75,-77.625,-31.375,-0.64,-8.83,6.48
1541188899758654117,363,0,/imu_data_acquisition2,53246.0,-0.161560058594,-0.273193359375,0.856323242188,0.407348632812,40.6875,-77.6875,-30.1875,-1.16,-9.56,5.7
1541188899767854928,364,0,/imu_data_acquisition2,53255.0,-0.154479980469,-0.274047851562,0.85693359375,0.408325195312,29.4375,-73.875,-31.375,-1.55,-9.94,5.03
1541188899777909040,365,0,/imu_data_acquisition2,53266.0,-0.0078125,-6.103515625e-05,-6.103515625e-05,0.409362792969,15.0,-65.3125,-33.125,-2.43,-10.47,4.17
1541188899789453029,366,0,/imu_data_acquisition2,53276.0,-0.143737792969,-0.277893066406,0.856384277344,0.410705566406,0.4375,-53.125,-35.25,-2.91,-10.47,4.27
1541188899798553943,367,0,/imu_data_acquisition2,53285.0,-0.14013671875,-0.014892578125,-6.103515625e-05,0.412475585938,-9.8125,-41.75,-39.6875,-3.23,-9.91,4.19
1541188899807961940,368,0,/imu_data_acquisition2,53296.0,-0.137634277344,-0.283386230469,0.853759765625,0.414611816406,-17.8125,-29.8125,-42.0625,-3.67,-0.7,-0.01
1541188899817435979,369,0,/imu_data_acquisition2,53305.0,-0.136169433594,-0.286315917969,0.851928710938,0.416748046875,-25.25,-18.6875,-40.5,-3.82,-7.75,6.15
1541188899826828002,370,0,/imu_data_acquisition2,53315.0,-0.135375976562,-0.289184570312,0.85009765625,0.418823242188,-27.5625,-12.1875,-37.5625,-3.71,-6.86,6.44
1541188899837872982,371,0,/imu_data_acquisition2,53325.0,-0.135070800781,-0.291687011719,0.848388671875,0.420654296875,-26.8125,-6.125,-31.625,-3.56,-6.31,6.82
1541188899848297119,372,0,/imu_data_acquisition2,53335.0,-0.135192871094,-0.293701171875,0.846923828125,0.422058105469,-23.9375,-1.8125,-24.25,-2.85,-5.64,7.62
1541188899860738039,373,0,/imu_data_acquisition2,53346.0,-0.135437011719,-0.29541015625,0.845825195312,0.423034667969,-20.4375,-1.375,-17.1875,-2.22,-5.23,7.84
1541188899868913888,374,0,/imu_data_acquisition2,53355.0,-0.135559082031,-0.296813964844,0.845031738281,0.423522949219,-16.625,-2.4375,-10.625,-1.52,-5.14,8.05
1541188899876421928,375,0,/imu_data_acquisition2,53365.0,-0.135559082031,-0.298034667969,0.844543457031,0.423706054688,-13.125,-4.5,-6.1875,-0.09,-4.96,8.16
1541188899888186931,376,0,/imu_data_acquisition2,53375.0,-0.135375976562,-0.299072265625,0.844177246094,0.423767089844,-10.9375,-6.1875,-4.3125,0.63,-4.94,8.12
1541188899899204969,377,0,/imu_data_acquisition2,53386.0,-0.135009765625,-0.300109863281,0.843872070312,0.423767089844,-9.5,-8.5,-4.875,1.33,-5.02,8.21
1541188899907042980,378,0,/imu_data_acquisition2,53395.0,-0.134338378906,-0.301147460938,0.843505859375,0.424011230469,-7.9375,-10.75,-8.5625,2.35,-5.05,8.24
1541188899920075893,379,0,/imu_data_acquisition2,53406.0,-0.133361816406,-0.302307128906,0.842956542969,0.424621582031,-7.625,-11.9375,-13.625,2.7,-5.39,8.49
1541188899931102991,380,0,/imu_data_acquisition2,53417.0,-6.103515625e-05,-6.103515625e-05,-6.103515625e-05,0.425720214844,-4.5,-15.5625,-5.9375,2.98,-2.44,-0.01
1541188899937043905,381,0,/imu_data_acquisition2,53425.0,-0.129760742188,-0.304626464844,0.84130859375,0.427307128906,-2.125,-19.8125,-13.5,3.08,-5.09,8.79
1541188899947983026,382,0,/imu_data_acquisition2,53436.0,-0.126953125,-0.305725097656,0.84033203125,0.429260253906,2.3125,-25.0625,-36.3125,2.77,-5.0,9.35
1541188899958566904,383,0,/imu_data_acquisition2,53447.0,-0.123291015625,-0.306823730469,0.83935546875,0.431457519531,7.3125,-0.0625,-0.0625,2.46,-2.44,-0.01
1541188899967091083,384,0,/imu_data_acquisition2,53455.0,-0.118774414062,-0.307983398438,0.838439941406,0.433715820312,12.1875,-41.375,-45.625,2.11,-4.95,9.26
