%time,field.header.seq,field.header.stamp,field.header.frame_id,field.time_stamp,field.quat_x,field.quat_y,field.quat_z,field.quat_w,field.gyro_x,field.gyro_y,field.gyro_z,field.accel_x,field.accel_y,field.accel_z
1541189415866286039,1,0,/imu_data_acquisition2,53242.0,-0.0631103515625,-0.200744628906,0.838134765625,0.503234863281,10.125,-52.5625,-11.0625,-2.01,-5.61,7.05
1541189415870949029,2,0,/imu_data_acquisition2,53253.0,-0.0593872070312,-0.20263671875,0.838195800781,0.502868652344,3.8125,-49.4375,-6.25,-2.01,-5.8,6.61
1541189415879466056,3,0,/imu_data_acquisition2,53261.0,-0.0563354492188,-0.204467773438,0.838256835938,0.502380371094,-0.625,-42.625,-3.1875,-1.89,-5.59,6.76
1541189415891035079,4,0,/imu_data_acquisition2,53274.0,-0.0540161132812,-0.206237792969,0.838256835938,0.501831054688,-4.0625,-34.5625,-1.1875,-1.68,-5.8,6.91
1541189415897795915,5,0,/imu_data_acquisition2,53282.0,-0.0524291992188,-0.207946777344,0.838256835938,0.501342773438,-7.4375,-0.0625,-0.0625,-1.35,-5.49,7.47
1541189415910322904,6,0,/imu_data_acquisition2,53292.0,-0.0045166015625,-6.103515625e-05,-6.103515625e-05,0.500854492188,-10.0625,-20.75,1.1875,-1.11,-5.14,7.65
1541189415917519092,7,0,/imu_data_acquisition2,53302.0,-0.05078125,-0.211120605469,0.838195800781,0.500305175781,-12.625,-0.0625,-0.0625,-0.89,-5.35,8.01
1541189415929898023,8,0,/imu_data_acquisition2,53313.0,-0.0505981445312,-0.212768554688,0.838134765625,0.499694824219,-16.0625,-13.125,4.125,-0.6,-2.39,-0.01
1541189415935970067,9,0,/imu_data_acquisition2,53320.0,-0.0507202148438,-0.214294433594,0.838073730469,0.499206542969,-16.0,-0.0625,-0.0625,-0.34,-4.84,8.24
1541189415948625087,10,0,/imu_data_acquisition2,53332.0,-0.0509643554688,-0.215698242188,0.837951660156,0.498657226562,-16.3125,-6.875,4.75,-0.15,-4.94,8.24
1541189415955858945,11,0,/imu_data_acquisition2,53340.0,-0.00457763671875,-6.103515625e-05,-6.103515625e-05,0.498107910156,-16.5625,-4.875,5.5,0.09,-4.52,8.42
1541189415966737031,12,0,/imu_data_acquisition2,53351.0,-0.0519409179688,-0.218383789062,0.837890625,0.49755859375,-16.3125,-3.875,5.125,0.5,-4.38,8.51
1541189415977888107,13,0,/imu_data_acquisition2,53361.0,-0.052490234375,-0.219604492188,0.837768554688,0.497131347656,-16.0,-2.625,4.75,0.7,-4.48,8.54
1541189415985481977,14,0,/imu_data_acquisition2,53370.0,-0.0062255859375,-6.103515625e-05,-6.103515625e-05,0.496704101562,-16.0625,-2.5625,4.375,0.91,-4.46,8.64
1541189415998186111,15,0,/imu_data_acquisition2,53382.0,-0.0535278320312,-0.221984863281,0.837524414062,0.496398925781,-14.5625,-2.6875,2.5,1.26,-4.24,8.58
1541189416009991884,16,0,/imu_data_acquisition2,53393.0,-0.0538330078125,-0.223022460938,0.837280273438,0.496276855469,-13.1875,-3.625,0.4375,1.5,-4.12,8.52
1541189416015901088,17,0,/imu_data_acquisition2,53400.0,-6.103515625e-05,-6.103515625e-05,-6.103515625e-05,0.496215820312,-11.4375,-5.25,-1.6875,1.68,-4.06,8.5
1541189416030704975,18,0,/imu_data_acquisition2,53412.0,-0.0537719726562,-0.22509765625,0.836730957031,0.496337890625,-9.75,-6.625,-3.6875,2.11,-4.22,8.61
1541189416037760019,19,0,/imu_data_acquisition2,53421.0,-0.0534057617188,-0.00732421875,-6.103515625e-05,0.496520996094,-8.5625,-8.75,-5.3125,2.33,-4.31,8.68
1541189416047007083,20,0,/imu_data_acquisition2,53431.0,-6.103515625e-05,-6.103515625e-05,-6.103515625e-05,0.496826171875,-6.6875,-11.4375,-8.375,2.48,-4.34,8.61
1541189416060081005,21,0,/imu_data_acquisition2,53443.0,-0.0516967773438,-0.228088378906,0.835388183594,0.497375488281,-4.6875,-14.5625,-11.9375,2.63,-4.36,8.61
1541189416066901922,22,0,/imu_data_acquisition2,53450.0,-0.0502319335938,-0.229125976562,0.834777832031,0.498107910156,-3.0625,-17.9375,-15.5,2.61,-4.37,8.67
1541189416076983928,23,0,/imu_data_acquisition2,53461.0,-0.0484619140625,-0.230224609375,0.834045410156,0.4990234375,-2.0,-21.25,-18.5,2.63,-4.41,8.67
1541189416094095945,24,0,/imu_data_acquisition2,53470.0,-0.04638671875,-0.2314453125,0.833251953125,0.5,-1.3125,-24.125,-21.0625,2.54,-4.55,8.67
1541189416097527027,25,0,/imu_data_acquisition2,53481.0,-0.0440673828125,-0.232666015625,0.832336425781,0.501159667969,-0.4375,-27.0,-23.8125,2.4,-2.02,-0.01
1541189416109205961,26,0,/imu_data_acquisition2,53493.0,-0.04150390625,-0.234008789062,0.831359863281,0.502380371094,-0.25,-13.1875,-0.0625,2.27,-4.7,8.7
1541189416116004943,27,0,/imu_data_acquisition2,53500.0,-0.038818359375,-0.235473632812,0.830322265625,0.503601074219,-0.9375,-15.1875,-0.0625,2.13,-4.67,8.81
1541189416127453088,28,0,/imu_data_acquisition2,53511.0,-0.00482177734375,-6.103515625e-05,-6.103515625e-05,0.504760742188,-2.6875,-33.4375,-26.0625,1.74,-4.83,8.85
1541189416137901067,29,0,/imu_data_acquisition2,53521.0,-0.033203125,-0.239074707031,0.828186035156,0.505859375,-4.0625,-35.875,-26.125,1.57,-4.9,8.67
1541189416146455049,30,0,/imu_data_acquisition2,53530.0,-0.0146484375,-6.103515625e-05,-6.103515625e-05,0.5068359375,-5.5,-0.0625,-0.0625,1.32,-4.56,8.53
1541189416159337043,31,0,/imu_data_acquisition2,53542.0,-0.0272827148438,-0.243347167969,0.825988769531,0.507690429688,-6.4375,-39.75,-23.9375,0.89,-4.6,8.63
1541189416167382955,32,0,/imu_data_acquisition2,53551.0,-0.0243530273438,-0.245727539062,0.825012207031,0.50830078125,-8.1875,-40.25,-5.125,0.67,-4.91,8.67
1541189416175806045,33,0,/imu_data_acquisition2,53560.0,-6.103515625e-05,-6.103515625e-05,-6.103515625e-05,0.508483886719,-9.3125,-41.4375,-15.6875,0.48,-2.1,-0.01
1541189416186960935,34,0,/imu_data_acquisition2,53571.0,-0.0187377929688,-0.250610351562,0.823425292969,0.508728027344,-9.3125,-41.4375,-15.6875,0.33,-4.87,8.48
1541189416198803901,35,0,/imu_data_acquisition2,53582.0,-0.01611328125,-0.253112792969,0.82275390625,0.508666992188,-10.375,-40.6875,-11.875,-0.01,-4.96,8.14
1541189416207139968,36,0,/imu_data_acquisition2,53590.0,-0.0137939453125,-6.103515625e-05,-6.103515625e-05,0.508239746094,-10.4375,-38.0,-6.1875,-0.14,-4.84,8.07
1541189416216870069,37,0,/imu_data_acquisition2,53600.0,-0.0116577148438,-0.0078125,-6.103515625e-05,0.507690429688,-11.125,-36.0,-3.5625,-0.26,-2.32,-0.01
1541189416227976083,38,0,/imu_data_acquisition2,53612.0,-0.00982666015625,-0.260009765625,0.821716308594,0.507019042969,-11.0625,-33.375,-0.6875,-0.5,-4.7,7.67
1541189416235589027,39,0,/imu_data_acquisition2,53620.0,-0.00830078125,-0.0121459960938,-6.103515625e-05,0.506164550781,-11.75,-13.9375,-0.0625,-0.56,-4.87,7.5
1541189416247632980,40,0,/imu_data_acquisition2,53631.0,-0.007080078125,-0.264038085938,0.821594238281,0.505187988281,-10.9375,-26.3125,5.375,-0.59,-2.37,-0.01
1541189416259573936,41,0,/imu_data_acquisition2,53643.0,-0.00616455078125,-0.265563964844,0.821716308594,0.504211425781,-9.4375,-20.6875,7.5625,-1.15,-5.26,5.91
1541189416266515970,42,0,/imu_data_acquisition2,53650.0,-6.103515625e-05,-6.103515625e-05,-6.103515625e-05,0.50341796875,-4.625,-8.625,8.5625,-1.56,-5.12,7.14
1541189416277772903,43,0,/imu_data_acquisition2,53661.0,-0.0062255859375,-0.266357421875,0.822265625,0.502868652344,-1.75,0.0,7.6875,-1.71,-6.13,7.22
1541189416287386894,44,0,/imu_data_acquisition2,53671.0,-0.0067138671875,-0.265747070312,0.822509765625,0.502807617188,4.0625,-0.0625,-0.0625,-1.79,-5.33,7.36
1541189416298333883,45,0,/imu_data_acquisition2,53680.0,-0.00787353515625,-0.014892578125,-6.103515625e-05,0.502990722656,1.5,16.75,3.375,-2.17,-5.98,6.83
1541189416310010910,46,0,/imu_data_acquisition2,53691.0,-0.0098876953125,-0.261901855469,0.822998046875,0.50390625,18.375,40.4375,-0.6875,-4.6,-5.64,2.09
1541189416318610906,47,0,/imu_data_acquisition2,53701.0,-0.0142822265625,-0.255615234375,0.82373046875,0.505859375,37.625,86.5625,0.5,-5.48,-2.79,5.35
1541189416327122926,48,0,/imu_data_acquisition2,53710.0,-0.0181274414062,-0.015625,-6.103515625e-05,0.507995605469,33.0625,77.0,-6.5,0.94,-9.87,20.02
1541189416337342023,49,0,/imu_data_acquisition2,53721.0,-6.103515625e-05,-6.103515625e-05,-6.103515625e-05,0.511291503906,49.625,28.125,-0.0625,3.39,-1.9,9.49
1541189416348401069,50,0,/imu_data_acquisition2,53732.0,-0.0162963867188,-0.239562988281,0.823303222656,0.514282226562,61.8125,35.5,-31.0625,3.34,-2.42,7.06
1541189416356245994,51,0,/imu_data_acquisition2,53740.0,-0.0153198242188,-6.103515625e-05,-6.103515625e-05,0.516479492188,72.125,37.1875,-19.375,0.84,-2.14,-0.01
1541189416368429899,52,0,/imu_data_acquisition2,53751.0,-0.01318359375,-0.228515625,0.824401855469,0.517639160156,58.6875,9.375,-13.25,1.67,-4.1,8.06
1541189416377331972,53,0,/imu_data_acquisition2,53761.0,-0.0115356445312,-0.224426269531,0.824768066406,0.518920898438,50.875,-0.0625,-0.0625,1.8,-0.01,-0.01
1541189416387938976,54,0,/imu_data_acquisition2,53770.0,-0.009765625,-0.219543457031,0.824890136719,0.520874023438,58.8125,17.75,-22.0625,2.8,-2.39,-0.01
1541189416396943092,55,0,/imu_data_acquisition2,53781.0,-0.0086669921875,-0.214721679688,0.825134277344,0.5224609375,55.375,22.8125,-16.625,2.64,-3.1,9.91
1541189416407833099,56,0,/imu_data_acquisition2,53791.0,-0.00762939453125,-6.103515625e-05,-6.103515625e-05,0.523681640625,50.625,20.6875,-11.125,2.31,-3.28,9.58
1541189416416824102,57,0,/imu_data_acquisition2,53800.0,-0.00677490234375,-0.206237792969,0.825927734375,0.524658203125,45.8125,18.9375,-8.75,2.14,-3.79,9.09
1541189416430383920,58,0,/imu_data_acquisition2,53811.0,-0.0059814453125,-0.202270507812,0.826293945312,0.525634765625,44.5,18.625,-8.875,2.18,-3.85,9.16
1541189416439640045,59,0,/imu_data_acquisition2,53823.0,-6.103515625e-05,-6.103515625e-05,-6.103515625e-05,0.526550292969,44.9375,17.9375,-8.8125,2.27,-3.44,9.14
1541189416445895910,60,0,/imu_data_acquisition2,53830.0,-0.004150390625,-6.103515625e-05,-6.103515625e-05,0.527404785156,44.8125,17.5,-7.875,2.09,-0.01,-0.01
1541189416458399057,61,0,/imu_data_acquisition2,53842.0,-0.00323486328125,-0.190490722656,0.827453613281,0.528259277344,45.125,17.625,-7.6875,1.68,-0.01,-0.01
1541189416468570947,62,0,/imu_data_acquisition2,53851.0,-0.00225830078125,-0.186401367188,0.827819824219,0.529174804688,47.0625,18.0625,-8.6875,1.6,-3.66,8.75
1541189416479273080,63,0,/imu_data_acquisition2,53862.0,-0.001220703125,-0.182189941406,0.828125,0.530090332031,48.8125,18.0625,-9.125,1.56,-3.73,9.0
1541189416488847017,64,0,/imu_data_acquisition2,53873.0,6.103515625e-05,-0.00592041015625,-6.103515625e-05,0.531066894531,51.875,16.875,-10.3125,1.83,-0.01,-0.01
1541189416500339984,65,0,/imu_data_acquisition2,53882.0,0.0015869140625,-6.103515625e-05,-6.103515625e-05,0.532043457031,55.0,16.375,-10.6875,1.72,-3.34,8.54
1541189416505994081,66,0,/imu_data_acquisition2,53890.0,0.00311279296875,-0.168395996094,0.829162597656,0.533020019531,58.0625,17.0,-10.75,1.57,-0.01,-0.01
1541189416517855882,67,0,/imu_data_acquisition2,53901.0,0.00506591796875,-0.163024902344,0.829528808594,0.534118652344,65.1875,16.6875,-12.625,1.63,-0.01,-0.01
1541189416530677080,68,0,/imu_data_acquisition2,53914.0,0.00738525390625,-0.157165527344,0.829895019531,0.535278320312,72.8125,17.0,-13.5625,1.89,-3.76,8.15
1541189416536381006,69,0,/imu_data_acquisition2,53920.0,0.010009765625,-0.150390625,0.830322265625,0.536560058594,83.75,19.4375,-15.25,2.02,-1.05,-0.01
1541189416548978090,70,0,/imu_data_acquisition2,53931.0,0.0128784179688,-0.142517089844,0.830749511719,0.537902832031,96.0625,24.1875,-16.5,2.27,-0.01,-0.01
1541189416559746980,71,0,/imu_data_acquisition2,53941.0,0.016357421875,-0.133728027344,0.831237792969,0.539367675781,109.8125,24.25,-0.0625,2.04,-2.5,8.94
1541189416566756963,72,0,/imu_data_acquisition2,53951.0,0.0203857421875,-0.124267578125,0.831665039062,0.540832519531,119.375,23.0625,-19.9375,1.84,-1.91,10.24
1541189416577922105,73,0,/imu_data_acquisition2,53962.0,0.0248413085938,-0.11474609375,0.831970214844,0.542297363281,122.3125,19.375,-20.6875,1.68,-1.67,10.19
1541189416589920997,74,0,/imu_data_acquisition2,53971.0,0.029296875,-0.105529785156,0.83203125,0.543884277344,118.875,17.4375,-23.9375,2.06,3.16,12.17
1541189416596478939,75,0,/imu_data_acquisition2,53980.0,0.0321044921875,-6.103515625e-05,-6.103515625e-05,0.545227050781,82.375,16.5625,-20.25,1.38,0.99,10.96
1541189416609428882,76,0,/imu_data_acquisition2,53993.0,0.0335693359375,-0.094482421875,0.831481933594,0.54638671875,51.8125,15.4375,-17.0625,1.0,-2.21,-0.01
1541189416619275093,77,0,/imu_data_acquisition2,54000.0,0.03515625,-0.01220703125,-6.103515625e-05,0.5478515625,50.4375,12.4375,-21.5,1.17,-1.19,10.68
1541189416625915050,78,0,/imu_data_acquisition2,54010.0,0.0363159179688,-0.0870971679688,0.83056640625,0.548889160156,37.8125,-0.0625,-0.0625,1.6,-0.47,10.68
1541189416638885021,79,0,/imu_data_acquisition2,54021.0,0.037109375,-0.0848388671875,0.830139160156,0.5498046875,26.75,7.8125,-13.1875,1.83,-0.33,10.31
1541189416647752046,80,0,/imu_data_acquisition2,54030.0,0.0374755859375,-0.0052490234375,-6.103515625e-05,0.550476074219,16.375,6.0625,-9.4375,1.69,-0.7,-0.01
1541189416657521963,81,0,/imu_data_acquisition2,54042.0,0.0376586914062,-0.0040283203125,-6.103515625e-05,0.551025390625,12.6875,6.375,-7.875,1.72,-0.62,10.26
1541189416669025897,82,0,/imu_data_acquisition2,54053.0,0.0376586914062,-0.081298828125,0.829406738281,0.551452636719,7.5625,6.3125,-5.5,1.8,-0.79,-0.01
1541189416678335905,83,0,/imu_data_acquisition2,54061.0,0.0374145507812,-0.0809326171875,0.829223632812,0.551696777344,1.8125,4.6875,-3.625,1.97,-1.23,10.1
1541189416686712026,84,0,/imu_data_acquisition2,54071.0,0.0371704101562,-0.0808715820312,0.829162597656,0.551879882812,-0.9375,3.125,-2.375,1.65,-1.37,9.93
1541189416699723005,85,0,/imu_data_acquisition2,54082.0,0.0369873046875,-0.0809936523438,0.829040527344,0.552001953125,-2.75,0.9375,-1.25,1.8,-1.23,9.77
1541189416708069086,86,0,/imu_data_acquisition2,54091.0,0.036865234375,-6.103515625e-05,-6.103515625e-05,0.552001953125,-3.5625,-1.125,-0.3125,1.94,-1.48,9.69
1541189416717016935,87,0,/imu_data_acquisition2,54101.0,0.036865234375,-0.08154296875,0.829040527344,0.552001953125,-2.4375,-1.3125,0.0,1.68,-1.84,9.75
1541189416729091882,88,0,/imu_data_acquisition2,54113.0,0.0370483398438,-0.0816040039062,0.829040527344,0.552001953125,0.625,-2.3125,0.125,1.59,-1.65,9.68
1541189416737009048,89,0,/imu_data_acquisition2,54120.0,0.0370483398438,-0.0816040039062,0.829040527344,0.552001953125,3.4375,-2.8125,-0.375,1.66,-1.86,9.67
1541189416747530937,90,0,/imu_data_acquisition2,54132.0,0.0379638671875,-0.0809936523438,0.828979492188,0.552062988281,8.3125,-2.125,-2.0,1.62,-1.61,9.41
1541189416760638952,91,0,/imu_data_acquisition2,54143.0,0.03857421875,-0.0801391601562,0.828918457031,0.55224609375,12.1875,-0.4375,-3.375,1.83,-1.33,9.73
1541189416768239974,92,0,/imu_data_acquisition2,54151.0,0.0392456054688,-0.0791625976562,0.828857421875,0.552490234375,14.125,-0.125,-3.5625,1.89,-1.61,9.72
1541189416777662992,93,0,/imu_data_acquisition2,54162.0,0.0399169921875,-0.0789184570312,0.828674316406,0.552673339844,16.375,0.8125,-4.4375,2.02,-1.4,9.76
1541189416789792060,94,0,/imu_data_acquisition2,54173.0,0.0406494140625,-0.0777587890625,0.82861328125,0.552856445312,15.75,0.875,-3.9375,2.06,-1.27,9.65
1541189416797265052,95,0,/imu_data_acquisition2,54181.0,-6.103515625e-05,-6.103515625e-05,-6.103515625e-05,0.553100585938,15.0625,1.4375,-3.5,2.02,-0.01,-0.01
1541189416808154106,96,0,/imu_data_acquisition2,54192.0,0.0418701171875,-0.0757446289062,0.828491210938,0.553283691406,12.25,0.3125,-3.0,2.26,-0.91,9.67
1541189416822530984,97,0,/imu_data_acquisition2,54205.0,0.0422973632812,-0.0750732421875,0.828491210938,0.553344726562,9.25,0.1875,-2.0,2.09,-0.93,9.87
1541189416827478885,98,0,/imu_data_acquisition2,54212.0,0.042724609375,-0.0745849609375,0.828430175781,0.553466796875,7.375,-0.0625,-0.0625,2.03,-0.01,-0.01
1541189416838174104,99,0,/imu_data_acquisition2,54222.0,0.04296875,-0.0743408203125,0.828369140625,0.553588867188,4.5625,-0.0625,-0.0625,1.85,-0.01,-0.01
1541189416849096059,100,0,/imu_data_acquisition2,54232.0,0.04296875,-0.0743408203125,0.828369140625,0.553588867188,2.8125,-1.625,-1.625,1.82,-0.9,9.74
1541189416856432914,101,0,/imu_data_acquisition2,54241.0,0.0436401367188,-0.0745239257812,0.828186035156,0.553771972656,1.25,-2.3125,-1.6875,1.99,-0.01,-0.01
1541189416939481019,102,0,/imu_data_acquisition2,54252.0,-6.103515625e-05,-6.103515625e-05,-6.103515625e-05,0.553771972656,0.5,-0.0625,-0.0625,1.81,-1.16,9.69
1541189416978724002,103,0,/imu_data_acquisition2,54260.0,0.0438842773438,-0.0750122070312,0.828063964844,0.553833007812,0.75,-2.625,-1.75,1.7,-1.29,9.67
1541189416981491088,104,0,/imu_data_acquisition2,54270.0,0.0441284179688,-0.0755004882812,0.828002929688,0.553894042969,1.75,-3.125,-2.1875,1.9,-1.32,9.39
1541189416983031988,105,0,/imu_data_acquisition2,54283.0,0.0447998046875,-0.075439453125,0.827758789062,0.55419921875,3.125,-3.125,-2.5,1.84,-1.46,9.79
1541189416984266996,106,0,/imu_data_acquisition2,54291.0,0.0447998046875,-0.075439453125,0.827758789062,0.55419921875,4.5,-3.8125,-2.6875,2.04,-1.44,9.58
1541189416985644102,107,0,/imu_data_acquisition2,54301.0,0.0452880859375,-0.0753173828125,0.82763671875,0.554321289062,5.75,-3.125,-2.9375,2.18,-0.01,-0.01
1541189416986769914,108,0,/imu_data_acquisition2,54310.0,0.0458374023438,-0.0750122070312,0.827514648438,0.554504394531,5.75,-3.125,-2.9375,2.37,-0.01,-0.01
1541189416988120079,109,0,/imu_data_acquisition2,54320.0,0.0463256835938,-0.07470703125,0.827453613281,0.554626464844,6.1875,-0.0625,-0.0625,1.9,-0.01,-0.01
1541189416990401983,110,0,/imu_data_acquisition2,54330.0,-6.103515625e-05,-6.103515625e-05,-6.103515625e-05,0.554809570312,4.625,-2.6875,-2.4375,1.98,-0.01,-0.01
1541189416992490053,111,0,/imu_data_acquisition2,54340.0,0.0471801757812,-0.0741577148438,0.827270507812,0.554931640625,3.5,0.125,-0.0625,1.72,-0.01,-0.01
1541189416995162963,112,0,/imu_data_acquisition2,54351.0,0.04736328125,-0.0739135742188,0.8271484375,0.555053710938,1.6875,-1.75,-1.0,2.84,-1.39,9.0
1541189416997755050,113,0,/imu_data_acquisition2,54359.0,0.0475463867188,-0.0739135742188,0.8271484375,0.555114746094,1.6875,-0.0625,-0.0625,2.84,-1.39,9.0
1541189417000839948,114,0,/imu_data_acquisition2,54370.0,0.0475463867188,-0.0736694335938,0.8271484375,0.555114746094,2.375,1.3125,-0.5625,1.78,-1.06,-0.01
1541189417001832962,115,0,/imu_data_acquisition2,54381.0,0.0476684570312,-0.0739135742188,0.8271484375,0.555053710938,2.6875,1.6875,0.25,2.01,-1.01,9.33
1541189417006691932,116,0,/imu_data_acquisition2,54391.0,0.0476684570312,-0.0736694335938,0.8271484375,0.555053710938,1.75,2.5,0.75,1.53,-0.01,-0.01
1541189417018127918,117,0,/imu_data_acquisition2,54402.0,0.0475463867188,-0.0734252929688,0.827209472656,0.554992675781,2.6875,2.1875,-0.0625,1.5,-1.02,9.95
1541189417025716066,118,0,/imu_data_acquisition2,54410.0,0.0475463867188,-0.0731201171875,0.827270507812,0.554992675781,2.6875,2.1875,-0.0625,1.5,-0.01,-0.01
1541189417037053108,119,0,/imu_data_acquisition2,54421.0,0.0474853515625,-0.0728759765625,0.827331542969,0.554992675781,2.0,1.875,0.625,1.86,-0.95,9.6
1541189417047955989,120,0,/imu_data_acquisition2,54432.0,0.0475463867188,-0.0725708007812,0.827331542969,0.554992675781,2.8125,2.0,0.375,1.91,-0.99,-0.01
1541189417057575941,121,0,/imu_data_acquisition2,54442.0,0.0475463867188,-0.0726928710938,0.827331542969,0.554931640625,3.5625,1.3125,0.125,1.59,-1.06,-0.01
1541189417070439100,122,0,/imu_data_acquisition2,54453.0,0.0474853515625,-0.07275390625,0.827392578125,0.554870605469,2.9375,1.4375,0.5,1.6,-1.17,10.01
1541189417077838897,123,0,/imu_data_acquisition2,54461.0,0.0474853515625,-0.07275390625,0.827392578125,0.554870605469,2.9375,1.4375,0.5,1.99,-0.88,9.48
1541189417087450981,124,0,/imu_data_acquisition2,54471.0,0.0476684570312,-0.0728759765625,0.827392578125,0.554809570312,2.25,0.5,0.25,1.92,-0.01,-0.01
1541189417100176095,125,0,/imu_data_acquisition2,54483.0,0.0477905273438,-0.072998046875,0.827392578125,0.554809570312,2.5,0.0,-0.0625,1.87,-0.91,9.63
1541189417108267068,126,0,/imu_data_acquisition2,54492.0,0.0480346679688,-0.0729370117188,0.827392578125,0.554748535156,1.5625,-0.0625,-0.0625,2.12,-1.01,9.61
1541189417117719888,127,0,/imu_data_acquisition2,54502.0,0.0480346679688,-0.0729370117188,0.827392578125,0.554748535156,1.6875,-0.625,-0.3125,1.91,-1.0,9.69
1541189417130403995,128,0,/imu_data_acquisition2,54513.0,0.0481567382812,-0.0728759765625,0.827392578125,0.554748535156,1.125,-0.5,-0.5,1.56,-0.95,9.82
1541189417137595891,129,0,/imu_data_acquisition2,54521.0,0.0482177734375,-0.0728149414062,0.827392578125,0.554748535156,0.75,-0.0625,-0.0625,1.8,-0.01,-0.01
1541189417149852037,130,0,/imu_data_acquisition2,54532.0,0.0482788085938,-0.0730590820312,0.827392578125,0.554748535156,0.6875,-0.75,-0.375,1.74,-1.12,9.74
1541189417156713008,131,0,/imu_data_acquisition2,54541.0,0.04833984375,-0.0733642578125,0.827392578125,0.5546875,0.8125,-0.0625,-0.0625,1.77,-0.01,-0.01
1541189417168924093,132,0,/imu_data_acquisition2,54552.0,0.0484008789062,-0.0736083984375,0.827392578125,0.554626464844,0.375,-1.1875,-0.25,1.62,-1.19,9.78
1541189417178302049,133,0,/imu_data_acquisition2,54562.0,0.0484008789062,-0.073974609375,0.827392578125,0.554626464844,0.9375,-1.1875,-0.5625,1.54,-0.01,-0.01
1541189417187707901,134,0,/imu_data_acquisition2,54571.0,0.0484008789062,-0.0741577148438,0.827392578125,0.554565429688,1.1875,-1.4375,-0.3125,1.58,-0.01,-0.01
1541189417198487997,135,0,/imu_data_acquisition2,54582.0,0.0484619140625,-0.0118408203125,-6.103515625e-05,0.554565429688,1.4375,-0.6875,-0.1875,1.73,-0.01,-0.01
1541189417208153009,136,0,/imu_data_acquisition2,54592.0,0.0484008789062,-0.0745849609375,0.827392578125,0.554504394531,1.9375,-0.75,0.0625,1.83,-0.98,9.56
1541189417217408895,137,0,/imu_data_acquisition2,54602.0,0.0484619140625,-0.07470703125,0.827392578125,0.554504394531,1.875,-0.5,0.6875,2.01,-0.95,9.63
1541189417227865934,138,0,/imu_data_acquisition2,54612.0,0.048583984375,-0.0748901367188,0.827453613281,0.554382324219,1.875,-0.5,0.6875,1.7,-0.01,-0.01
1541189417236989974,139,0,/imu_data_acquisition2,54621.0,0.0486450195312,-0.0750122070312,0.827514648438,0.554321289062,2.125,0.4375,0.8125,1.7,-0.01,-0.01
1541189417246762037,140,0,/imu_data_acquisition2,54631.0,0.0487060546875,-0.0751953125,0.827575683594,0.55419921875,1.6875,0.625,1.125,1.91,-0.01,-0.01
1541189417268146991,141,0,/imu_data_acquisition2,54642.0,0.0487060546875,-0.075439453125,0.827575683594,0.554077148438,2.125,1.625,0.9375,2.04,-0.86,9.64
1541189417269196033,142,0,/imu_data_acquisition2,54652.0,0.0487670898438,-0.0755004882812,0.82763671875,0.554016113281,1.75,1.25,1.25,2.12,-0.01,-0.01
1541189417277523994,143,0,/imu_data_acquisition2,54661.0,0.0488891601562,-0.0758056640625,0.827697753906,0.553894042969,1.75,1.25,1.25,1.63,-1.07,-0.01
1541189417296984910,144,0,/imu_data_acquisition2,54673.0,0.048828125,-0.075927734375,0.827758789062,0.553771972656,4.0,1.625,0.0,1.73,0.0,9.68
1541189417306410074,145,0,/imu_data_acquisition2,54683.0,0.0489501953125,-0.0755615234375,0.827758789062,0.553771972656,2.25,3.6875,2.25,1.98,-1.16,-0.01
1541189417310554981,146,0,/imu_data_acquisition2,54693.0,0.0486450195312,-0.0750122070312,0.828002929688,0.553588867188,1.875,2.625,1.125,1.16,-0.81,9.65
1541189417328262090,148,0,/imu_data_acquisition2,54711.0,0.0484619140625,-0.0748901367188,0.828063964844,0.553466796875,0.125,2.625,1.5625,1.32,-1.51,10.57
1541189417337522029,149,0,/imu_data_acquisition2,54721.0,0.0482788085938,-0.07470703125,0.828125,0.553405761719,0.5625,2.875,0.8125,1.76,-0.01,-0.01
1541189417349553108,150,0,/imu_data_acquisition2,54732.0,0.0481567382812,-0.074462890625,0.828186035156,0.553405761719,2.75,3.4375,1.625,1.74,-0.74,9.87
1541189417360356092,151,0,/imu_data_acquisition2,54742.0,0.0480346679688,-0.0740966796875,0.828308105469,0.553283691406,2.875,3.9375,1.875,2.2,-0.85,9.73
1541189417369136095,152,0,/imu_data_acquisition2,54753.0,0.0478515625,-0.07373046875,0.828430175781,0.553161621094,2.125,4.1875,2.5,1.68,-1.01,9.83
1541189417379342079,153,0,/imu_data_acquisition2,54761.0,0.0476684570312,-0.0734252929688,0.828552246094,0.552978515625,2.125,4.1875,2.5,1.68,-1.01,-0.01
1541189417386570930,154,0,/imu_data_acquisition2,54771.0,0.0474243164062,-0.0731201171875,0.828674316406,0.552856445312,1.6875,4.125,2.0,2.35,-0.01,-0.01
1541189417398322105,155,0,/imu_data_acquisition2,54782.0,0.0471801757812,-0.0728149414062,0.828796386719,0.552795410156,1.375,4.6875,1.25,2.23,-0.94,-0.01
1541189417409554958,156,0,/imu_data_acquisition2,54792.0,0.0469360351562,-0.072509765625,0.828857421875,0.552734375,1.4375,6.0,1.25,2.22,-0.86,-0.01
1541189417423028945,157,0,/imu_data_acquisition2,54805.0,-6.103515625e-05,-6.103515625e-05,-6.103515625e-05,0.552551269531,0.5625,7.4375,1.9375,1.85,-0.01,-0.01
1541189417428730010,158,0,/imu_data_acquisition2,54811.0,-6.103515625e-05,-6.103515625e-05,-6.103515625e-05,0.552551269531,0.5625,7.4375,1.9375,2.11,-0.01,-0.01
1541189417438880920,159,0,/imu_data_acquisition2,54821.0,-6.103515625e-05,-6.103515625e-05,-6.103515625e-05,0.552490234375,0.125,7.875,2.0,2.11,-1.06,9.66
1541189417449307918,160,0,/imu_data_acquisition2,54833.0,0.0450439453125,-0.0716552734375,0.829284667969,0.552368164062,-1.625,10.5625,2.5,1.97,-0.01,-0.01
1541189417461632966,161,0,/imu_data_acquisition2,54845.0,0.04443359375,-0.0716552734375,0.829406738281,0.55224609375,-2.9375,11.6875,3.5,2.13,-0.01,-0.01
1541189417470521926,162,0,/imu_data_acquisition2,54852.0,-6.103515625e-05,-6.103515625e-05,-6.103515625e-05,0.552062988281,-2.9375,11.6875,3.5,2.18,-0.92,9.6
1541189417480516910,163,0,/imu_data_acquisition2,54862.0,0.0430297851562,-0.0719604492188,0.829772949219,0.5517578125,-4.9375,-0.0625,-0.0625,2.27,-0.88,9.64
1541189417489398002,164,0,/imu_data_acquisition2,54870.0,0.0422973632812,-0.072265625,0.830017089844,0.551452636719,-4.9375,14.25,6.0625,2.27,-0.88,-0.01
1541189417495722055,165,0,/imu_data_acquisition2,54880.0,0.0415649414062,-0.0728759765625,0.830322265625,0.550964355469,-6.8125,15.3125,7.875,2.39,-0.97,9.6
1541189417510487079,166,0,/imu_data_acquisition2,54892.0,-6.103515625e-05,-6.103515625e-05,-6.103515625e-05,0.550415039062,-9.125,19.0,11.5625,2.71,-0.52,9.34
1541189417520849943,167,0,/imu_data_acquisition2,54903.0,0.0389404296875,-0.0731201171875,0.831237792969,0.549743652344,-13.1875,24.0625,14.0,2.23,-0.12,10.28
1541189417527249097,168,0,/imu_data_acquisition2,54911.0,0.0365600585938,-0.0729370117188,0.831848144531,0.548950195312,-13.1875,24.0625,14.0,2.23,-0.12,10.28
1541189417538618087,169,0,/imu_data_acquisition2,54922.0,0.0338134765625,-0.0729370117188,0.832458496094,0.548156738281,-16.875,26.5625,14.125,2.43,0.39,-0.01
1541189417548059940,170,0,/imu_data_acquisition2,54932.0,0.0303344726562,-0.0738525390625,0.833435058594,0.546813964844,-13.9375,-0.0625,-0.0625,2.64,-1.74,9.52
1541189417557800054,171,0,/imu_data_acquisition2,54942.0,0.0262451171875,-0.0748291015625,0.834594726562,0.545104980469,-34.75,32.8125,27.75,2.21,-0.53,10.0
1541189417569542884,172,0,/imu_data_acquisition2,54953.0,0.0216674804688,-0.0752563476562,0.835571289062,0.543762207031,-32.3125,41.3125,-0.0625,2.38,-0.64,9.88
1541189417577680110,173,0,/imu_data_acquisition2,54960.0,0.0164794921875,-0.07568359375,0.836547851562,0.542358398438,-36.125,47.25,24.5,2.38,-0.64,9.88
1541189417586335897,174,0,/imu_data_acquisition2,54970.0,0.0106201171875,-0.0765380859375,0.837707519531,0.540649414062,-44.4375,51.25,30.0625,2.1,-0.32,10.24
1541189417598666906,175,0,/imu_data_acquisition2,54982.0,0.004150390625,-0.0777587890625,0.839111328125,0.538391113281,-52.25,54.625,37.3125,1.97,-0.7,-0.01
1541189417609070062,176,0,/imu_data_acquisition2,54993.0,-0.00311279296875,-0.0792846679688,0.840759277344,0.535583496094,-59.9375,59.875,-0.0625,1.42,-1.28,10.2
1541189417618571043,177,0,/imu_data_acquisition2,55003.0,-0.0110473632812,-0.0810546875,0.842529296875,0.532409667969,-66.25,64.6875,50.875,1.36,-0.78,10.65
1541189417628950119,178,0,/imu_data_acquisition2,55013.0,-6.103515625e-05,-6.103515625e-05,-6.103515625e-05,0.528686523438,-70.4375,67.4375,-0.0625,1.58,-0.66,10.27
1541189417639290094,179,0,/imu_data_acquisition2,55020.0,-0.028076171875,-0.0849609375,0.8466796875,0.524536132812,-72.8125,69.4375,63.5,1.58,-0.66,10.27
1541189417648794889,180,0,/imu_data_acquisition2,55033.0,-0.0059814453125,-6.103515625e-05,-6.103515625e-05,0.519592285156,-85.1875,69.0,80.375,0.3,-0.01,-0.01
1541189417659758090,181,0,/imu_data_acquisition2,55043.0,-0.0465087890625,-0.0901489257812,0.851745605469,0.514038085938,-85.1875,69.0,80.375,0.17,-2.04,10.77
1541189417671174049,182,0,/imu_data_acquisition2,55052.0,-0.0557861328125,-0.0155639648438,-6.103515625e-05,0.507690429688,-12.5625,-0.0625,-0.0625,-0.12,-2.09,10.38
1541189417676229000,183,0,/imu_data_acquisition2,55060.0,-0.06494140625,-0.0040283203125,-6.103515625e-05,0.500610351562,-97.5,58.125,97.1875,-0.12,-2.09,10.38
1541189417687258005,184,0,/imu_data_acquisition2,55071.0,-0.0740356445312,-0.102172851562,0.86083984375,0.493041992188,-100.75,54.8125,102.9375,-0.3,-2.92,10.32
1541189417698837041,185,0,/imu_data_acquisition2,55082.0,-0.0828247070312,-0.1064453125,0.863952636719,0.485168457031,-97.625,52.6875,105.25,-0.47,-3.02,9.05
1541189417708606958,186,0,/imu_data_acquisition2,55093.0,-0.0916748046875,-0.110595703125,0.866943359375,0.477233886719,-97.0,53.8125,-0.0625,-0.27,-4.3,9.47
1541189417719233036,187,0,/imu_data_acquisition2,55103.0,-6.103515625e-05,-6.103515625e-05,-6.103515625e-05,0.469665527344,-92.9375,56.875,99.625,1.44,-2.25,-0.01
1541189417727118015,188,0,/imu_data_acquisition2,55110.0,-0.108825683594,-0.117736816406,0.871948242188,0.462585449219,-87.0,54.625,-0.0625,1.44,-4.81,9.48
1541189417737071037,189,0,/imu_data_acquisition2,55121.0,-0.0068359375,-6.103515625e-05,-6.103515625e-05,0.456420898438,-75.5,48.875,81.1875,3.05,-0.01,-0.01
1541189417749350070,190,0,/imu_data_acquisition2,55132.0,-0.122436523438,-0.123046875,0.875183105469,0.451599121094,-63.5625,42.25,-0.0625,5.13,-0.01,-0.01
1541189417760993003,191,0,/imu_data_acquisition2,55142.0,-6.103515625e-05,-6.103515625e-05,-6.103515625e-05,0.44873046875,-58.1875,34.6875,35.625,6.14,-7.96,9.56
1541189417769433021,192,0,/imu_data_acquisition2,55153.0,-0.131652832031,-0.129150390625,0.874694824219,0.4482421875,-50.75,6.9375,-38.9375,6.47,-2.38,-0.01
1541189417778958082,193,0,/imu_data_acquisition2,55162.0,-0.133666992188,-0.133056640625,0.87255859375,0.450622558594,-50.75,6.9375,-38.9375,6.47,-4.94,8.15
1541189417788357019,194,0,/imu_data_acquisition2,55170.0,-0.135192871094,-0.0133056640625,-6.103515625e-05,0.454162597656,-61.6875,-2.125,-57.75,5.72,-4.63,8.28
1541189417800147056,195,0,/imu_data_acquisition2,55183.0,-0.136169433594,-0.143798828125,0.866149902344,0.458862304688,-58.5625,-9.1875,-83.6875,4.84,-2.09,-0.01
1541189417811669111,196,0,/imu_data_acquisition2,55193.0,-0.13671875,-0.149353027344,0.862243652344,0.464172363281,-58.5625,-9.1875,-83.6875,3.98,-4.06,10.16
1541189417821403980,197,0,/imu_data_acquisition2,55204.0,-0.136535644531,-0.154663085938,0.858154296875,0.470153808594,-50.625,-14.0,-92.1875,3.32,-3.94,10.65
1541189417828959941,198,0,/imu_data_acquisition2,55213.0,-0.135498046875,-0.15966796875,0.85400390625,0.476318359375,-42.6875,-20.1875,-95.9375,3.32,-3.94,10.65
1541189417835596084,199,0,/imu_data_acquisition2,55220.0,-0.133422851562,-0.164245605469,0.849853515625,0.482604980469,-32.25,-28.1875,-98.0625,2.86,-3.45,10.68
1541189417848841905,200,0,/imu_data_acquisition2,55232.0,-0.130187988281,-0.168273925781,0.846069335938,0.48876953125,-19.6875,-37.5,-96.125,2.5,-0.01,-0.01
1541189417859883069,201,0,/imu_data_acquisition2,55243.0,-0.126159667969,-0.0154418945312,-6.103515625e-05,0.494384765625,-8.75,-44.0,-88.75,1.34,-3.22,10.08
1541189417870644092,202,0,/imu_data_acquisition2,55253.0,-0.0120239257812,-6.103515625e-05,-6.103515625e-05,0.499206542969,1.8125,-49.1875,-14.0625,1.34,-3.22,10.08
1541189417877845048,203,0,/imu_data_acquisition2,55262.0,-6.103515625e-05,-6.103515625e-05,-6.103515625e-05,0.503295898438,12.5,-54.625,-67.25,1.02,-3.39,9.85
1541189417888289928,204,0,/imu_data_acquisition2,55272.0,-0.110107421875,-0.178161621094,0.83642578125,0.506469726562,20.0,-59.6875,-54.75,0.47,-1.02,-0.01
1541189417896619081,205,0,/imu_data_acquisition2,55280.0,-0.10400390625,-0.179626464844,0.835571289062,0.508666992188,23.75,-15.5625,-0.0625,0.25,-4.06,8.99
1541189417909022092,206,0,/imu_data_acquisition2,55293.0,-0.00408935546875,-6.103515625e-05,-6.103515625e-05,0.509765625,24.5625,-0.0625,-0.0625,0.07,-4.46,8.95
1541189417921175956,207,0,/imu_data_acquisition2,55304.0,-0.091796875,-0.182434082031,0.835632324219,0.509948730469,22.4375,-68.375,-14.8125,-0.48,-5.94,8.95
1541189417926214933,208,0,/imu_data_acquisition2,55310.0,-0.0859375,-0.184265136719,0.836181640625,0.509338378906,17.625,-71.3125,-4.6875,-0.48,-5.94,8.95
1541189417937417984,209,0,/imu_data_acquisition2,55321.0,-0.0802612304688,-0.186645507812,0.836975097656,0.508117675781,11.125,-73.875,1.375,-0.59,-6.15,8.57
1541189417951700925,210,0,/imu_data_acquisition2,55333.0,-0.0123901367188,-6.103515625e-05,-6.103515625e-05,0.506713867188,4.125,-74.3125,4.125,-0.87,-0.01,-0.01
1541189417960542917,211,0,/imu_data_acquisition2,55343.0,-6.103515625e-05,-6.103515625e-05,-6.103515625e-05,0.505249023438,-0.5625,-72.5625,3.6875,-0.94,-1.13,-0.01
1541189417971560955,212,0,/imu_data_acquisition2,55355.0,-0.0654296875,-0.19580078125,0.838684082031,0.50390625,-5.625,-66.0,3.0,-1.0,-6.25,6.78
1541189417977709054,213,0,/imu_data_acquisition2,55360.0,-0.0618896484375,-0.198974609375,0.838928222656,0.502807617188,-10.4375,-56.6875,1.375,-1.0,-6.25,6.78
1541189417986423015,214,0,/imu_data_acquisition2,55370.0,-0.0591430664062,-0.201965332031,0.8388671875,0.502075195312,-14.0,-46.875,-1.4375,-0.79,-0.95,-0.01
1541189417998358011,215,0,/imu_data_acquisition2,55381.0,-0.05712890625,-0.204772949219,0.838500976562,0.501708984375,-17.125,-37.125,-5.1875,-0.73,-0.01,-0.01
1541189418013344049,216,0,/imu_data_acquisition2,55394.0,-0.0557250976562,-0.00433349609375,-6.103515625e-05,0.501770019531,-19.75,-29.3125,-9.375,-0.4,-4.92,7.69
1541189418019690990,217,0,/imu_data_acquisition2,55404.0,-0.0548095703125,-0.209899902344,0.837097167969,0.502258300781,-20.25,-6.3125,-0.0625,-0.4,-4.92,7.69
1541189418027931928,218,0,/imu_data_acquisition2,55411.0,-0.0542602539062,-0.212219238281,0.836120605469,0.5029296875,-22.0,-16.375,-15.5,-0.32,-5.22,7.85
1541189418037447929,219,0,/imu_data_acquisition2,55420.0,-0.0072021484375,-6.103515625e-05,-6.103515625e-05,0.50390625,-21.1875,-11.375,-18.1875,-0.11,-4.52,8.13
1541189418051196098,220,0,/imu_data_acquisition2,55435.0,-6.103515625e-05,-6.103515625e-05,-6.103515625e-05,0.505065917969,-4.6875,-0.0625,-0.0625,0.34,-4.35,8.74
1541189418061873912,221,0,/imu_data_acquisition2,55445.0,-0.0540161132812,-0.217895507812,0.832580566406,0.50634765625,-19.1875,-5.5625,-20.4375,0.5,-4.1,8.8
1541189418071826934,222,0,/imu_data_acquisition2,55454.0,-0.0540771484375,-0.219543457031,0.831420898438,0.507568359375,-19.1875,-5.5625,-4.4375,0.5,-4.1,8.8
1541189418080960988,223,0,/imu_data_acquisition2,55465.0,-0.053955078125,-0.221069335938,0.830200195312,0.508911132812,-16.6875,-6.0,-21.1875,0.83,-1.24,-0.01
1541189418090579986,224,0,/imu_data_acquisition2,55473.0,-0.0537109375,-0.222534179688,0.8291015625,0.510131835938,-14.6875,-6.75,-20.375,0.83,-3.8,9.04
1541189418106720924,225,0,/imu_data_acquisition2,55484.0,-0.0533447265625,-0.223876953125,0.828063964844,0.511291503906,-12.9375,-8.1875,-19.1875,0.94,-0.01,-0.01
1541189418111809968,226,0,/imu_data_acquisition2,55496.0,-6.103515625e-05,-6.103515625e-05,-6.103515625e-05,0.512329101562,-8.625,-13.125,-18.1875,1.23,-1.26,-0.01
1541189418120698928,227,0,/imu_data_acquisition2,55504.0,-0.0518798828125,-0.0076904296875,-6.103515625e-05,0.513305664062,-8.625,-13.125,-0.0625,1.23,-0.01,-0.01
1541189418126261949,228,0,/imu_data_acquisition2,55510.0,-0.0507202148438,-0.227600097656,0.825378417969,0.51416015625,-6.1875,-15.1875,-17.4375,1.31,-3.93,8.74
1541189418138154983,229,0,/imu_data_acquisition2,55521.0,-6.103515625e-05,-6.103515625e-05,-6.103515625e-05,0.515014648438,-4.25,-16.625,-16.75,1.4,-4.07,8.71
1541189418146493911,230,0,/imu_data_acquisition2,55530.0,-6.103515625e-05,-6.103515625e-05,-6.103515625e-05,0.515808105469,-3.5,-18.3125,-16.9375,1.6,-4.55,8.5
1541189418159261941,231,0,/imu_data_acquisition2,55543.0,-0.0464477539062,-0.23095703125,0.823120117188,0.516723632812,-3.125,-19.25,-18.125,1.66,-4.68,8.49
1541189418172009944,232,0,/imu_data_acquisition2,55554.0,-0.0447998046875,-0.232116699219,0.822204589844,0.517761230469,-3.125,-20.0625,-20.5625,1.7,-4.7,8.52
1541189418176748991,233,0,/imu_data_acquisition2,55561.0,-0.0430908203125,-0.2333984375,0.821228027344,0.518920898438,-4.125,-0.0625,-0.0625,1.66,-4.6,8.37
1541189418187458992,234,0,/imu_data_acquisition2,55571.0,-0.0413208007812,-0.234741210938,0.820068359375,0.520202636719,-4.75,-20.875,-25.4375,1.63,-4.73,8.39
1541189418197350978,235,0,/imu_data_acquisition2,55580.0,-0.0396118164062,-0.236145019531,0.81884765625,0.521667480469,-6.0625,-20.5625,-27.0,1.54,-4.66,8.53
1541189418208657979,236,0,/imu_data_acquisition2,55593.0,-6.103515625e-05,-6.103515625e-05,-6.103515625e-05,0.523193359375,-6.6875,-0.0625,-0.0625,1.5,-2.05,-0.01
1541189418221801042,237,0,/imu_data_acquisition2,55603.0,-0.0366821289062,-0.239318847656,0.816162109375,0.524719238281,-8.0,-21.0,-29.375,1.39,-4.45,8.57
1541189418228183984,238,0,/imu_data_acquisition2,55611.0,-0.035400390625,-0.240905761719,0.814758300781,0.526184082031,-7.75,-0.0625,-0.0625,1.33,-4.4,8.55
1541189418235829114,239,0,/imu_data_acquisition2,55620.0,-6.103515625e-05,-6.103515625e-05,-6.103515625e-05,0.527709960938,-8.875,-22.5625,-13.375,1.24,-4.29,8.52
1541189418247605085,240,0,/imu_data_acquisition2,55631.0,-0.0318603515625,-0.244323730469,0.811950683594,0.529113769531,-8.8125,-7.4375,-0.0625,1.03,-4.32,8.47
1541189418262579917,241,0,/imu_data_acquisition2,55645.0,-0.0301513671875,-0.24609375,0.810729980469,0.530334472656,-9.3125,-23.625,-25.3125,0.97,-4.3,8.33
1541189418268568992,242,0,/imu_data_acquisition2,55653.0,-0.0128173828125,-6.103515625e-05,-6.103515625e-05,0.531372070312,-9.5,-24.5625,-6.5625,0.8,-4.31,8.33
1541189418277278900,243,0,/imu_data_acquisition2,55661.0,-0.0267333984375,-0.249755859375,0.808532714844,0.532165527344,-9.8125,-24.8125,-20.0625,0.65,-4.62,8.08
1541189418289686918,244,0,/imu_data_acquisition2,55672.0,-0.025146484375,-0.251647949219,0.807556152344,0.532836914062,-10.75,-24.75,-17.6875,0.49,-5.0,8.04
1541189418296245098,245,0,/imu_data_acquisition2,55681.0,-0.023681640625,-0.253479003906,0.806640625,0.533447265625,-10.6875,-23.875,-16.375,0.42,-4.7,7.85
1541189418311157941,246,0,/imu_data_acquisition2,55693.0,-0.022216796875,-0.00518798828125,-6.103515625e-05,0.533996582031,-9.8125,-6.375,-0.0625,0.23,-5.02,7.64
1541189418316795110,247,0,/imu_data_acquisition2,55700.0,-0.02099609375,-0.00677490234375,-6.103515625e-05,0.534606933594,-9.6875,-19.875,-15.1875,-0.02,-2.29,-0.01
1541189418327867031,248,0,/imu_data_acquisition2,55711.0,-0.0199584960938,-0.258361816406,0.804077148438,0.535095214844,-11.25,-18.125,-13.375,-0.23,-4.9,7.49
1541189418338152885,249,0,/imu_data_acquisition2,55722.0,-0.0191650390625,-0.259826660156,0.803283691406,0.535583496094,-10.875,-15.5625,-12.4375,-0.32,-4.68,7.27
1541189418352688074,250,0,/imu_data_acquisition2,55733.0,-0.0186157226562,-0.26123046875,0.802551269531,0.536010742188,-11.9375,-12.375,-0.0625,-0.77,-4.87,6.95
1541189418360903978,251,0,/imu_data_acquisition2,55745.0,-6.103515625e-05,-6.103515625e-05,-6.103515625e-05,0.536315917969,-10.375,-9.0625,-8.3125,-1.88,-4.12,6.87
1541189418370238065,252,0,/imu_data_acquisition2,55752.0,-6.103515625e-05,-6.103515625e-05,-6.103515625e-05,0.536865234375,-2.6875,1.375,-7.6875,-1.88,-4.12,6.87
1541189418381372928,253,0,/imu_data_acquisition2,55761.0,-0.0192260742188,-0.262084960938,0.801391601562,0.537292480469,-2.1875,11.9375,-0.0625,-2.79,-4.87,7.21
1541189418388102054,254,0,/imu_data_acquisition2,55772.0,-0.0201416015625,-0.260925292969,0.801330566406,0.537963867188,4.9375,18.3125,-3.625,-2.22,-0.01,-0.01
1541189418402237892,255,0,/imu_data_acquisition2,55784.0,-0.0216064453125,-0.258361816406,0.801452636719,0.538879394531,15.375,33.25,-2.5,-7.38,-1.51,-0.73
1541189418408458948,256,0,/imu_data_acquisition2,55792.0,-0.0253295898438,-0.25,0.802795410156,0.540649414062,60.375,-0.0625,-0.0625,-7.56,-2.95,11.03
1541189418418832063,257,0,/imu_data_acquisition2,55803.0,-0.0300903320312,-0.241516113281,0.8046875,0.54150390625,56.25,101.875,20.875,-2.21,-0.01,-0.01
1541189418430537939,258,0,/imu_data_acquisition2,55810.0,-0.0252685546875,-0.233459472656,0.804321289062,0.545837402344,108.0625,18.5,-55.0625,4.45,18.58,-2.05
1541189418436924934,259,0,/imu_data_acquisition2,55821.0,-0.0166625976562,-0.224853515625,0.804504394531,0.549499511719,139.0,-16.625,-54.8125,3.05,-1.11,-0.01
1541189418447976112,260,0,/imu_data_acquisition2,55831.0,-0.0128784179688,-0.217895507812,0.8056640625,0.550659179688,94.375,12.4375,-11.8125,2.67,-0.01,-0.01
1541189418456790924,261,0,/imu_data_acquisition2,55840.0,-6.103515625e-05,-6.103515625e-05,-6.103515625e-05,0.553405761719,137.0,-0.0625,-0.0625,3.0,-6.41,9.1
1541189418471590995,262,0,/imu_data_acquisition2,55853.0,-0.00341796875,-0.197875976562,0.807739257812,0.555358886719,121.4375,36.1875,-18.75,2.74,-0.48,9.98
1541189418478777885,263,0,/imu_data_acquisition2,55861.0,0.00018310546875,-0.187927246094,0.808959960938,0.557006835938,121.6875,34.5625,-15.3125,3.8,-1.97,8.06
1541189418487915039,264,0,/imu_data_acquisition2,55871.0,0.00189208984375,-0.178649902344,0.810546875,0.557739257812,103.5625,46.6875,-0.875,1.84,-0.01,-0.01
1541189418496865987,265,0,/imu_data_acquisition2,55881.0,0.00238037109375,-0.169128417969,0.811950683594,0.558654785156,97.4375,60.0,-0.625,1.17,-1.44,10.87
1541189418509413003,266,0,/imu_data_acquisition2,55891.0,0.00335693359375,-0.159973144531,0.813049316406,0.559753417969,96.6875,53.0625,-5.25,1.42,-2.09,-0.01
1541189418521444082,267,0,/imu_data_acquisition2,55902.0,0.00457763671875,-0.151733398438,0.814025878906,0.560607910156,89.1875,44.5,-4.375,1.75,-1.92,10.18
1541189418529687881,268,0,/imu_data_acquisition2,55914.0,0.00634765625,-6.103515625e-05,-6.103515625e-05,0.561645507812,90.3125,38.1875,-8.5625,1.7,-2.25,10.65
1541189418539527893,269,0,/imu_data_acquisition2,55921.0,-6.103515625e-05,-6.103515625e-05,-6.103515625e-05,0.562744140625,87.75,34.125,-11.0625,1.46,-1.52,10.76
1541189418546535968,270,0,/imu_data_acquisition2,55931.0,0.0106201171875,-6.103515625e-05,-6.103515625e-05,0.564025878906,86.25,28.375,-14.5625,0.99,-0.01,-0.01
1541189418557497024,271,0,/imu_data_acquisition2,55942.0,0.0130615234375,-0.122375488281,0.815673828125,0.565246582031,78.0,21.0625,-15.9375,0.99,-1.03,-0.01
1541189418569967031,272,0,/imu_data_acquisition2,55951.0,-6.103515625e-05,-6.103515625e-05,-6.103515625e-05,0.566650390625,70.0,15.0,-0.0625,1.23,-0.01,-0.01
1541189418576092958,273,0,/imu_data_acquisition2,55960.0,0.0181274414062,-6.103515625e-05,-6.103515625e-05,0.568115234375,62.0625,9.1875,-21.625,1.5,-0.01,-0.01
1541189418588999032,274,0,/imu_data_acquisition2,55972.0,0.0205078125,-0.108215332031,0.814575195312,0.569519042969,52.0625,4.1875,-21.25,1.72,0.12,10.61
1541189418603060007,275,0,/imu_data_acquisition2,55984.0,0.0226440429688,-0.105102539062,0.813903808594,0.570922851562,43.1875,1.9375,-21.125,1.58,-0.02,10.47
1541189418611675024,276,0,/imu_data_acquisition2,55993.0,-6.103515625e-05,-6.103515625e-05,-6.103515625e-05,0.572082519531,26.3125,0.625,-17.625,1.8,-1.78,9.99
1541189418618163108,277,0,/imu_data_acquisition2,56001.0,0.0249633789062,-0.102233886719,0.812683105469,0.573120117188,15.3125,-1.25,-15.25,1.91,-0.01,-0.01
1541189418626856088,278,0,/imu_data_acquisition2,56010.0,0.0259399414062,-0.0074462890625,-6.103515625e-05,0.574096679688,15.375,-0.9375,-15.3125,1.78,-1.66,10.19
1541189418637440919,279,0,/imu_data_acquisition2,56021.0,0.0266723632812,-0.0067138671875,-6.103515625e-05,0.574829101562,11.125,-0.0625,-0.0625,2.21,-1.6,9.66
1541189418648837089,280,0,/imu_data_acquisition2,56033.0,0.0272216796875,-0.0996704101562,0.811340332031,0.575378417969,10.6875,-0.0625,-8.6875,1.86,-1.85,9.91
1541189418657601118,281,0,/imu_data_acquisition2,56040.0,0.0277709960938,-6.103515625e-05,-6.103515625e-05,0.575805664062,10.4375,0.75,-0.0625,1.8,-1.72,9.51
1541189418667735099,282,0,/imu_data_acquisition2,56052.0,-6.103515625e-05,-6.103515625e-05,-6.103515625e-05,0.576171875,11.625,1.25,-5.125,1.74,-1.87,9.89
1541189418676949024,283,0,/imu_data_acquisition2,56060.0,0.02880859375,-0.0971069335938,0.810852050781,0.576416015625,12.5,1.5,-4.3125,1.74,-1.71,9.82
1541189418687920093,284,0,/imu_data_acquisition2,56071.0,0.0293579101562,-0.0958862304688,0.810791015625,0.576721191406,15.0625,2.9375,-0.0625,2.06,-1.55,9.43
1541189418697683095,285,0,/imu_data_acquisition2,56081.0,0.0299682617188,-0.0946044921875,0.810729980469,0.576965332031,16.5625,3.875,-3.625,1.66,-1.51,9.77
1541189418709026098,286,0,/imu_data_acquisition2,56091.0,0.0303344726562,-0.0931396484375,0.810729980469,0.5771484375,16.125,6.1875,-2.75,1.56,-1.47,9.7
1541189418720205068,287,0,/imu_data_acquisition2,56101.0,0.0307006835938,-0.0919189453125,0.810729980469,0.577331542969,17.125,5.625,-2.75,1.54,-1.43,9.84
1541189418729130029,288,0,/imu_data_acquisition2,56112.0,0.03125,-0.0904541015625,0.810791015625,0.577514648438,17.5625,5.25,-2.4375,1.55,-1.54,9.92
1541189418739844083,289,0,/imu_data_acquisition2,56121.0,0.0317993164062,-0.0889892578125,0.810791015625,0.57763671875,18.0625,4.625,-2.5625,1.75,-1.21,9.95
1541189418749929904,290,0,/imu_data_acquisition2,56132.0,0.032470703125,-0.0875854492188,0.810852050781,0.577758789062,17.4375,3.125,-0.0625,1.64,-1.3,9.82
1541189418759679079,291,0,/imu_data_acquisition2,56140.0,0.0331420898438,-0.0864868164062,0.810791015625,0.577941894531,16.6875,2.6875,-0.0625,1.81,-1.13,9.78
1541189418765818119,292,0,/imu_data_acquisition2,56150.0,0.0338134765625,-6.103515625e-05,-6.103515625e-05,0.578125,16.0625,2.125,-3.5,2.11,-0.01,-0.01
1541189418778400897,293,0,/imu_data_acquisition2,56160.0,0.0343627929688,-6.103515625e-05,-6.103515625e-05,0.578369140625,13.875,1.5625,-3.3125,1.99,-0.01,-0.01
1541189418788248062,294,0,/imu_data_acquisition2,56172.0,0.0348510742188,-0.00531005859375,-6.103515625e-05,0.578491210938,10.3125,0.9375,-2.5625,2.03,-1.08,9.87
1541189418796427965,295,0,/imu_data_acquisition2,56180.0,0.0352783203125,-0.0827026367188,0.810607910156,0.578674316406,10.3125,0.9375,-2.5625,2.11,-0.01,-0.01
1541189418812859058,296,0,/imu_data_acquisition2,56196.0,0.0357055664062,-0.0820922851562,0.810546875,0.578796386719,8.3125,0.0,-2.1875,1.93,-1.15,9.82
1541189418819494962,297,0,/imu_data_acquisition2,56201.0,0.0360717773438,-0.0816040039062,0.810546875,0.578857421875,7.4375,-0.25,-1.6875,1.85,-1.09,9.61
1541189418825947999,298,0,/imu_data_acquisition2,56210.0,0.0365600585938,-0.0814208984375,0.810485839844,0.578918457031,7.25,-0.625,-1.6875,1.67,-1.26,-0.01
1541189418838519096,299,0,/imu_data_acquisition2,56222.0,0.0369873046875,-0.081298828125,0.810424804688,0.579040527344,6.5625,-0.8125,-1.6875,1.91,-1.21,-0.01
1541189418850414991,300,0,/imu_data_acquisition2,56233.0,0.0374755859375,-6.103515625e-05,-6.103515625e-05,0.5791015625,6.5625,-0.8125,-1.6875,1.93,-1.12,9.69
1541189418855951070,301,0,/imu_data_acquisition2,56240.0,0.0379638671875,-0.0811767578125,0.810241699219,0.579162597656,6.4375,-1.3125,-2.0,1.86,-1.19,9.69
1541189419007994890,302,0,/imu_data_acquisition2,56250.0,0.0383911132812,-6.103515625e-05,-6.103515625e-05,0.579284667969,5.875,-0.0625,-0.0625,1.9,-1.24,9.68
1541189419028573989,303,0,/imu_data_acquisition2,56263.0,0.0388793945312,-0.081298828125,0.81005859375,0.579406738281,5.4375,-1.1875,-2.375,2.05,-0.01,-0.01
1541189419029839038,304,0,/imu_data_acquisition2,56270.0,-6.103515625e-05,-6.103515625e-05,-6.103515625e-05,0.579467773438,5.0,-0.0625,-0.0625,1.95,-0.01,-0.01
1541189419034172058,305,0,/imu_data_acquisition2,56280.0,0.0399780273438,-0.0816040039062,0.809814453125,0.57958984375,4.875,-1.9375,-2.625,2.27,-0.01,-0.01
1541189419036103963,306,0,/imu_data_acquisition2,56290.0,0.040283203125,-6.103515625e-05,-6.103515625e-05,0.579772949219,3.9375,-0.0625,-0.0625,2.22,-1.12,9.69
1541189419038579940,307,0,/imu_data_acquisition2,56300.0,0.0406494140625,-6.103515625e-05,-6.103515625e-05,0.579895019531,3.8125,-2.4375,-2.375,2.31,-0.96,9.54
1541189419040436029,308,0,/imu_data_acquisition2,56310.0,0.0409545898438,-0.0811767578125,0.809509277344,0.580017089844,2.875,-0.0625,-0.0625,2.14,-0.01,-0.01
1541189419041975021,309,0,/imu_data_acquisition2,56319.0,-6.103515625e-05,-6.103515625e-05,-6.103515625e-05,0.580078125,2.5,-0.0625,-0.0625,2.04,-1.02,9.68
1541189419043715000,310,0,/imu_data_acquisition2,56330.0,0.0418090820312,-6.103515625e-05,-6.103515625e-05,0.580200195312,1.6875,-2.5625,-2.0625,2.17,-1.09,9.8
1541189419046612024,311,0,/imu_data_acquisition2,56339.0,0.0422973632812,-6.103515625e-05,-6.103515625e-05,0.580261230469,1.1875,-0.0625,-0.0625,2.12,-0.01,-0.01
1541189419056015968,312,0,/imu_data_acquisition2,56350.0,-6.103515625e-05,-6.103515625e-05,-6.103515625e-05,0.580322265625,1.3125,-2.125,-1.6875,2.32,-1.22,-0.01
1541189419058917045,313,0,/imu_data_acquisition2,56359.0,0.043212890625,-0.083251953125,0.808959960938,0.580383300781,0.875,-2.3125,-1.375,2.11,-0.01,-0.01
1541189419060703039,314,0,/imu_data_acquisition2,56370.0,0.0433349609375,-0.0831909179688,0.808898925781,0.580444335938,0.75,-0.0625,-0.0625,1.43,-1.12,10.25
1541189419065232992,315,0,/imu_data_acquisition2,56380.0,0.0435180664062,-6.103515625e-05,-6.103515625e-05,0.580505371094,0.875,-1.9375,-1.25,2.61,-1.13,-0.01
1541189419071116924,316,0,/imu_data_acquisition2,56390.0,-6.103515625e-05,-6.103515625e-05,-6.103515625e-05,0.580505371094,-0.0625,0.125,-0.375,1.96,-1.54,9.69
1541189419073496103,317,0,/imu_data_acquisition2,56399.0,0.0438232421875,-0.0838012695312,0.808715820312,0.580505371094,1.25,0.3125,-0.0625,2.31,-0.01,-0.01
1541189419079061031,318,0,/imu_data_acquisition2,56410.0,0.0438232421875,-6.103515625e-05,-6.103515625e-05,0.580505371094,1.3125,0.875,0.3125,2.08,-1.46,9.47
1541189419080339908,319,0,/imu_data_acquisition2,56424.0,0.0438232421875,-0.0833740234375,0.808776855469,0.580505371094,2.9375,1.875,0.25,2.09,-1.2,9.54
1541189419087306022,320,0,/imu_data_acquisition2,56431.0,0.0438232421875,-6.103515625e-05,-6.103515625e-05,0.580505371094,2.6875,1.9375,0.6875,2.03,-1.1,9.96
1541189419092820882,321,0,/imu_data_acquisition2,56446.0,0.0438842773438,-0.0833740234375,0.808898925781,0.580383300781,2.375,1.75,0.875,1.96,-1.21,9.57
1541189419096153974,322,0,/imu_data_acquisition2,56450.0,-6.103515625e-05,-6.103515625e-05,-6.103515625e-05,0.580322265625,2.75,2.0625,0.625,1.94,-0.01,-0.01
1541189419098928928,323,0,/imu_data_acquisition2,56462.0,-6.103515625e-05,-6.103515625e-05,-6.103515625e-05,0.580322265625,2.125,1.6875,0.5,1.97,-1.03,-0.01
1541189419100812911,324,0,/imu_data_acquisition2,56473.0,0.0441284179688,-0.0834350585938,0.808898925781,0.580322265625,2.0,1.25,0.5,2.05,-1.0,9.74
1541189419105436086,325,0,/imu_data_acquisition2,56482.0,-6.103515625e-05,-6.103515625e-05,-6.103515625e-05,0.580261230469,1.6875,1.125,0.25,1.89,-0.01,-0.01
1541189419112833976,326,0,/imu_data_acquisition2,56493.0,0.044189453125,-0.08349609375,0.808959960938,0.580261230469,1.75,0.75,0.25,1.76,-1.07,-0.01
1541189419116456985,327,0,/imu_data_acquisition2,56500.0,0.0442504882812,-0.00537109375,-6.103515625e-05,0.580261230469,1.5,0.625,0.1875,1.64,-0.01,-0.01
1541189419128026008,328,0,/imu_data_acquisition2,56512.0,0.0443115234375,-0.0833740234375,0.808959960938,0.580261230469,1.125,0.4375,0.0625,1.5,-0.01,-0.01
1541189419137697935,329,0,/imu_data_acquisition2,56521.0,0.0443115234375,-0.0833129882812,0.808959960938,0.580261230469,1.0625,0.1875,0.0,1.58,-1.0,9.81
1541189419145736932,330,0,/imu_data_acquisition2,56530.0,0.0443115234375,-0.0833129882812,0.808959960938,0.580261230469,0.5625,-0.0625,-0.0625,1.85,-0.01,-0.01
1541189419158324956,331,0,/imu_data_acquisition2,56542.0,0.0443115234375,-0.0833129882812,0.808959960938,0.580261230469,0.3125,-0.4375,0.125,1.6,-0.01,-0.01
1541189419168294906,332,0,/imu_data_acquisition2,56550.0,0.0443725585938,-0.0052490234375,-6.103515625e-05,0.580200195312,0.625,-0.75,-0.125,1.75,-0.98,9.77
1541189419176915884,333,0,/imu_data_acquisition2,56561.0,0.0443725585938,-0.08349609375,0.808959960938,0.580200195312,0.0,-0.6875,-0.0625,1.54,-1.14,9.76
1541189419187968969,334,0,/imu_data_acquisition2,56571.0,0.04443359375,-6.103515625e-05,-6.103515625e-05,0.580200195312,0.5,-1.375,0.0,1.83,-1.1,9.85
1541189419198379039,335,0,/imu_data_acquisition2,56581.0,-6.103515625e-05,-6.103515625e-05,-6.103515625e-05,0.580200195312,0.375,-1.0,-0.0625,1.81,-1.05,9.7
1541189419209048986,336,0,/imu_data_acquisition2,56591.0,0.0446166992188,-0.00579833984375,-6.103515625e-05,0.580139160156,0.9375,-1.5,-0.3125,1.92,-0.99,9.64
1541189419217165946,337,0,/imu_data_acquisition2,56601.0,0.0447387695312,-0.00579833984375,-6.103515625e-05,0.580139160156,0.75,-1.5,-0.25,2.05,-0.01,-0.01
1541189419227298021,338,0,/imu_data_acquisition2,56610.0,0.044921875,-0.0839233398438,0.808959960938,0.580139160156,1.125,-1.5,-0.125,1.96,-0.01,-0.01
1541189419237689971,339,0,/imu_data_acquisition2,56621.0,-6.103515625e-05,-6.103515625e-05,-6.103515625e-05,0.580139160156,1.1875,-1.3125,-0.25,1.91,-0.01,-0.01
1541189419247828960,340,0,/imu_data_acquisition2,56631.0,0.045166015625,-0.0840454101562,0.808959960938,0.580078125,1.0,-0.8125,0.0,1.78,-0.01,-0.01
1541189419255899906,341,0,/imu_data_acquisition2,56640.0,-6.103515625e-05,-6.103515625e-05,-6.103515625e-05,0.580078125,1.375,-0.0625,-0.0625,1.7,-0.01,-0.01
1541189419270787000,342,0,/imu_data_acquisition2,56653.0,0.0452880859375,-0.0841674804688,0.808959960938,0.580017089844,1.5,-0.0625,-0.0625,1.8,-1.19,-0.01
1541189419278088092,343,0,/imu_data_acquisition2,56661.0,0.0453491210938,-0.084228515625,0.808959960938,0.580017089844,2.0625,-0.5,0.125,1.9,-1.09,9.76
1541189419287707090,344,0,/imu_data_acquisition2,56671.0,0.04541015625,-6.103515625e-05,-6.103515625e-05,0.580017089844,2.0,0.4375,0.5,1.8,-1.16,9.83
1541189419297158956,345,0,/imu_data_acquisition2,56681.0,0.0453491210938,-0.084228515625,0.809020996094,0.579956054688,2.0625,0.6875,0.5625,1.65,-1.1,9.79
1541189419309993982,346,0,/imu_data_acquisition2,56691.0,0.0454711914062,-0.08447265625,0.809020996094,0.579895019531,1.9375,0.125,0.75,2.16,-1.29,9.31
1541189419319257974,347,0,/imu_data_acquisition2,56702.0,0.045654296875,-0.0841064453125,0.80908203125,0.579895019531,5.0,1.0,-0.0625,2.23,-0.01,-0.01
1541189419329787015,348,0,/imu_data_acquisition2,56712.0,0.0455322265625,-0.0838012695312,0.809204101562,0.579711914062,2.5,2.9375,2.625,-0.14,-0.14,10.77
1541189419338934898,349,0,/imu_data_acquisition2,56721.0,0.0455932617188,-0.00518798828125,-6.103515625e-05,0.579711914062,4.9375,2.6875,0.375,1.69,-0.49,10.02
1541189419345994949,350,0,/imu_data_acquisition2,56730.0,0.0455932617188,-6.103515625e-05,-6.103515625e-05,0.579711914062,0.0,1.6875,2.0625,1.23,-1.68,10.38
1541189419357024908,351,0,/imu_data_acquisition2,56741.0,0.0453491210938,-0.0048828125,-6.103515625e-05,0.579528808594,1.25,2.8125,1.0,2.58,-1.6,9.35
1541189419369697093,352,0,/imu_data_acquisition2,56753.0,0.0452880859375,-6.103515625e-05,-6.103515625e-05,0.579467773438,2.5625,2.25,0.8125,1.49,-0.01,-0.01
1541189419377151012,353,0,/imu_data_acquisition2,56761.0,0.0451049804688,-0.082275390625,0.809692382812,0.579345703125,3.375,4.875,2.0,2.05,-1.07,9.28
1541189419387392044,354,0,/imu_data_acquisition2,56771.0,-6.103515625e-05,-6.103515625e-05,-6.103515625e-05,0.579345703125,4.1875,5.875,2.5,1.78,-0.01,-0.01
1541189419397047042,355,0,/imu_data_acquisition2,56780.0,0.0448608398438,-0.0816650390625,0.809814453125,0.579223632812,3.125,5.375,2.9375,1.98,-1.18,9.79
1541189419407159090,356,0,/imu_data_acquisition2,56791.0,-6.103515625e-05,-6.103515625e-05,-6.103515625e-05,0.578796386719,1.875,5.375,3.3125,1.65,-1.26,-0.01
1541189419418661117,357,0,/imu_data_acquisition2,56802.0,0.0440673828125,-0.0803833007812,0.810363769531,0.578674316406,2.5,5.8125,2.6875,1.8,-1.06,9.77
1541189419428666114,358,0,/imu_data_acquisition2,56811.0,0.0440673828125,-0.0803833007812,0.810363769531,0.578674316406,2.25,6.25,2.4375,2.13,-0.78,9.61
1541189419436394929,359,0,/imu_data_acquisition2,56820.0,0.0438232421875,-0.0801391601562,0.810546875,0.578552246094,1.0,6.8125,2.8125,1.46,-0.01,-0.01
1541189419447990894,360,0,/imu_data_acquisition2,56831.0,0.0433349609375,-0.079833984375,0.810729980469,0.578369140625,-0.1875,7.5,3.125,1.97,-1.26,9.76
1541189419460829973,361,0,/imu_data_acquisition2,56841.0,0.0428466796875,-0.0797119140625,0.810852050781,0.578186035156,-0.4375,7.375,2.5625,2.03,-0.96,9.53
1541189419466890096,362,0,/imu_data_acquisition2,56851.0,0.0424194335938,-6.103515625e-05,-6.103515625e-05,0.578002929688,-1.375,8.375,2.875,1.95,-0.01,-0.01
1541189419479123115,363,0,/imu_data_acquisition2,56863.0,0.0418090820312,-0.0795288085938,0.811157226562,0.577880859375,-2.375,8.5,3.125,2.29,-0.96,9.64
1541189419490212917,364,0,/imu_data_acquisition2,56873.0,0.040283203125,-0.0790405273438,0.8115234375,0.577575683594,-3.375,9.625,3.625,2.09,-0.9,-0.01
1541189419498949050,365,0,/imu_data_acquisition2,56883.0,-6.103515625e-05,-6.103515625e-05,-6.103515625e-05,0.577331542969,-4.25,-0.0625,-0.0625,2.35,-0.93,9.65
1541189419508797883,366,0,/imu_data_acquisition2,56892.0,0.0393676757812,-6.103515625e-05,-6.103515625e-05,0.577331542969,-5.25,11.9375,6.25,2.37,-0.97,9.63
1541189419517741918,367,0,/imu_data_acquisition2,56901.0,0.0382080078125,-6.103515625e-05,-6.103515625e-05,0.576965332031,-6.25,12.5625,-0.0625,2.46,-0.83,-0.01
1541189419527074098,368,0,/imu_data_acquisition2,56911.0,0.0369873046875,-0.0785522460938,0.812438964844,0.576538085938,-6.75,14.625,9.875,2.63,-1.09,9.66
1541189419540412902,369,0,/imu_data_acquisition2,56923.0,0.0340576171875,-0.078125,0.813537597656,0.575256347656,-7.625,15.875,12.0625,2.75,-0.49,9.77
1541189419548187971,370,0,/imu_data_acquisition2,56931.0,0.0340576171875,-0.078125,0.813537597656,0.575256347656,-11.5625,17.5,17.4375,2.71,-0.01,-0.01
1541189419557647943,371,0,/imu_data_acquisition2,56942.0,0.0321655273438,-0.078125,0.814331054688,0.57421875,-13.75,-0.0625,-0.0625,2.42,-0.41,9.85
1541189419568576097,372,0,/imu_data_acquisition2,56952.0,0.0299072265625,-0.0780639648438,0.815246582031,0.573059082031,-21.9375,22.8125,23.9375,2.44,0.04,9.94
1541189419578569889,373,0,/imu_data_acquisition2,56961.0,-6.103515625e-05,-6.103515625e-05,-6.103515625e-05,0.571655273438,-35.5625,24.6875,37.125,2.45,-1.32,9.84
1541189419587438106,374,0,/imu_data_acquisition2,56971.0,0.0234375,-0.079833984375,0.81787109375,0.5693359375,-33.0,30.25,38.375,2.48,-0.74,9.99
1541189419598668098,375,0,/imu_data_acquisition2,56982.0,0.0194702148438,-0.0807495117188,0.819580078125,0.56689453125,-35.25,35.875,41.125,2.23,-0.81,9.96
1541189419608850955,376,0,/imu_data_acquisition2,56991.0,0.0166625976562,-0.08203125,0.821228027344,0.564453125,-41.0,41.125,-0.0625,1.75,-0.82,10.02
1541189419618366956,377,0,/imu_data_acquisition2,57002.0,-6.103515625e-05,-6.103515625e-05,-6.103515625e-05,0.561462402344,-44.0625,43.8125,54.3125,1.96,-0.01,-0.01
1541189419629523992,378,0,/imu_data_acquisition2,57012.0,0.0059814453125,-0.083984375,0.825561523438,0.557983398438,-50.6875,47.0,64.125,1.88,-0.61,10.45
1541189419637137889,379,0,/imu_data_acquisition2,57021.0,-0.0001220703125,-0.0853881835938,0.828186035156,0.553894042969,-50.6875,47.0,64.125,1.85,-0.89,10.3
1541189419648689985,380,0,/imu_data_acquisition2,57031.0,-0.006591796875,-0.0868530273438,0.831176757812,0.549133300781,-59.125,51.6875,80.625,1.59,-1.18,10.39
1541189419659118890,381,0,/imu_data_acquisition2,57041.0,-0.0135498046875,-0.0885620117188,0.834411621094,0.543823242188,-63.25,53.1875,87.875,1.34,-1.0,10.44
1541189419667874097,382,0,/imu_data_acquisition2,57052.0,-0.0052490234375,-6.103515625e-05,-6.103515625e-05,0.537902832031,-67.75,53.75,94.5,0.87,-0.01,-0.01
