%time,field.header.seq,field.header.stamp,field.header.frame_id,field.time_stamp,field.quat_x,field.quat_y,field.quat_z,field.quat_w,field.gyro_x,field.gyro_y,field.gyro_z,field.accel_x,field.accel_y,field.accel_z
1541188492692806959,185,0,/imu_data_acquisition2,195853.0,-0.0142211914062,-6.103515625e-05,-6.103515625e-05,0.525634765625,1.0,-54.9375,11.4375,-0.38,-7.38,6.81
1541188492700767040,186,0,/imu_data_acquisition2,195862.0,-0.136291503906,-0.203674316406,0.8154296875,0.524475097656,-4.8125,-14.4375,-0.0625,-0.28,-2.14,-0.01
1541188492710576057,187,0,/imu_data_acquisition2,195872.0,-0.134826660156,-0.205810546875,0.81494140625,0.524780273438,-12.3125,-26.0,-12.6875,-0.18,-6.78,6.99
1541188492720549106,188,0,/imu_data_acquisition2,195882.0,-0.133972167969,-0.207824707031,0.813903808594,0.525695800781,-15.3125,-0.0625,-0.0625,-0.11,-6.52,7.31
1541188492730716943,189,0,/imu_data_acquisition2,195892.0,-0.133483886719,-0.209838867188,0.8125,0.527282714844,-17.375,-10.4375,-12.1875,0.0,-0.01,-0.01
1541188492740698099,190,0,/imu_data_acquisition2,195902.0,-0.133361816406,-0.211730957031,0.810668945312,0.529296875,-18.5625,-5.5,-34.1875,0.1,-5.35,8.23
1541188492750725984,191,0,/imu_data_acquisition2,195912.0,-0.133361816406,-0.213562011719,0.808654785156,0.531677246094,-18.75,-2.375,-38.0625,0.13,-4.97,8.37
1541188492766741991,192,0,/imu_data_acquisition2,195923.0,-0.133361816406,-0.215270996094,0.806579589844,0.5341796875,-17.875,-1.0625,-7.875,0.2,-4.65,8.6
1541188492771203041,193,0,/imu_data_acquisition2,195932.0,-0.133239746094,-0.216796875,0.804443359375,0.536682128906,-15.5,-0.875,-40.1875,0.29,-4.06,9.04
1541188492783220052,194,0,/imu_data_acquisition2,195942.0,-0.132995605469,-0.218200683594,0.802490234375,0.539184570312,-12.6875,-2.125,-39.25,0.35,-4.1,9.16
1541188492797384977,195,0,/imu_data_acquisition2,195954.0,-0.00732421875,-6.103515625e-05,-6.103515625e-05,0.541625976562,-8.0625,-4.75,-6.1875,0.38,-0.01,-0.01
1541188492802407026,196,0,/imu_data_acquisition2,195963.0,-0.131286621094,-0.220458984375,0.799011230469,0.543823242188,-4.0625,-7.875,-36.0,0.43,-0.01,-0.01
1541188492810364007,197,0,/imu_data_acquisition2,195972.0,-6.103515625e-05,-6.103515625e-05,-6.103515625e-05,0.545959472656,1.25,-9.6875,-33.625,0.53,-4.03,8.99
1541188492821475982,198,0,/imu_data_acquisition2,195982.0,-0.128295898438,-0.221740722656,0.796325683594,0.547912597656,5.6875,-12.1875,-31.5625,0.53,-4.14,8.97
1541188492833415031,199,0,/imu_data_acquisition2,195993.0,-6.103515625e-05,-6.103515625e-05,-6.103515625e-05,0.549743652344,9.375,-14.5,-30.0,0.52,-4.38,8.86
1541188492840298891,200,0,/imu_data_acquisition2,196002.0,-0.124084472656,-0.222412109375,0.794372558594,0.551452636719,11.1875,-17.125,-28.75,0.4,-4.88,8.5
1541188492853244066,201,0,/imu_data_acquisition2,196014.0,-0.121704101562,-0.222839355469,0.79345703125,0.553161621094,12.125,-19.3125,-28.25,0.39,-5.0,8.21
1541188492863617897,202,0,/imu_data_acquisition2,196022.0,-0.119262695312,-0.223266601562,0.792602539062,0.554748535156,11.5,-4.75,-0.0625,0.3,-0.01,-0.01
1541188492870759010,203,0,/imu_data_acquisition2,196032.0,-0.116821289062,-0.223876953125,0.791687011719,0.556335449219,10.5,-0.0625,-0.0625,0.18,-5.49,7.72
1541188492892834901,205,0,/imu_data_acquisition2,196052.0,-0.1123046875,-0.225158691406,0.789733886719,0.559509277344,7.4375,-19.1875,-28.25,0.13,-0.01,-0.01
1541188492902945995,206,0,/imu_data_acquisition2,196063.0,-0.1103515625,-0.0072021484375,-6.103515625e-05,0.561096191406,4.8125,-17.875,-28.3125,0.08,-5.87,7.35
1541188492913038969,207,0,/imu_data_acquisition2,196072.0,-0.108581542969,-0.226806640625,0.787475585938,0.562683105469,3.0,-0.0625,-0.0625,0.06,-0.01,-0.01
1541188492926013946,208,0,/imu_data_acquisition2,196084.0,-0.106994628906,-0.227722167969,0.786254882812,0.564331054688,0.875,-14.625,-29.0,0.06,-0.82,-0.01
1541188492932646036,209,0,/imu_data_acquisition2,196094.0,-0.105590820312,-0.228637695312,0.784973144531,0.566040039062,-0.875,-13.0625,-0.0625,0.04,-0.73,-0.01
1541188492940768957,210,0,/imu_data_acquisition2,196101.0,-0.1044921875,-0.229736328125,0.783630371094,0.567626953125,-3.9375,-11.9375,-28.4375,0.07,-5.77,7.63
1541188492953834056,211,0,/imu_data_acquisition2,196114.0,-0.103576660156,-0.23095703125,0.782287597656,0.569152832031,-6.75,-10.5625,-27.375,0.13,-0.72,-0.01
1541188492963083028,212,0,/imu_data_acquisition2,196124.0,-0.105041503906,-0.233154296875,0.780822753906,0.570068359375,-8.75,-9.5,-26.5625,0.18,-0.01,-0.01
1541188492970340967,213,0,/imu_data_acquisition2,196132.0,-0.104431152344,-0.234497070312,0.779479980469,0.571472167969,-10.5625,-9.125,-25.25,0.33,-5.39,8.09
1541188492982311964,214,0,/imu_data_acquisition2,196143.0,-0.10400390625,-0.235961914062,0.778137207031,0.572692871094,-12.75,-9.125,-23.5625,0.43,-5.36,8.12
1541188492992753982,215,0,/imu_data_acquisition2,196153.0,-0.103637695312,-0.237548828125,0.776916503906,0.573791503906,-14.125,-9.1875,-21.5625,0.49,-5.27,8.19
1541188493000339031,216,0,/imu_data_acquisition2,196162.0,-0.103332519531,-0.239135742188,0.775756835938,0.574768066406,-15.0625,-9.5625,-19.375,0.71,-0.01,-0.01
1541188493012748956,217,0,/imu_data_acquisition2,196173.0,-0.10302734375,-0.240783691406,0.774658203125,0.575561523438,-14.25,-10.375,-17.6875,0.83,-2.27,-0.01
1541188493025830030,218,0,/imu_data_acquisition2,196185.0,-0.102661132812,-0.242309570312,0.773742675781,0.576293945312,-13.5,-10.6875,-15.8125,1.02,-4.78,8.58
1541188493030620098,219,0,/imu_data_acquisition2,196192.0,-0.102661132812,-0.242309570312,0.773742675781,0.576293945312,-12.4375,-0.0625,-0.0625,1.1,-2.06,-0.01
1541188493042222976,220,0,/imu_data_acquisition2,196202.0,-0.101684570312,-0.245300292969,0.772155761719,0.577331542969,-11.625,-12.3125,-12.5,1.41,-4.68,8.57
1541188493053152084,221,0,/imu_data_acquisition2,196213.0,-0.10107421875,-0.246643066406,0.771423339844,0.577758789062,-9.3125,-12.8125,-0.0625,1.54,-4.54,8.58
1541188493061079978,222,0,/imu_data_acquisition2,196222.0,-0.00653076171875,-6.103515625e-05,-6.103515625e-05,0.578308105469,-7.25,-13.125,-0.0625,1.66,-4.65,8.55
1541188493075378894,223,0,/imu_data_acquisition2,196235.0,-0.099365234375,-0.248901367188,0.770080566406,0.578918457031,-4.5625,-13.375,-14.1875,1.93,-4.53,8.55
1541188493081784009,224,0,/imu_data_acquisition2,196242.0,-0.0983276367188,-0.249938964844,0.769409179688,0.57958984375,-3.375,-13.625,-15.25,2.04,-1.95,-0.01
1541188493091711044,225,0,/imu_data_acquisition2,196253.0,-0.09716796875,-0.2509765625,0.768615722656,0.580383300781,-2.875,-14.0,-17.25,2.13,-2.11,-0.01
1541188493101811885,226,0,/imu_data_acquisition2,196262.0,-0.0958862304688,-0.252014160156,0.767700195312,0.581359863281,-2.3125,-14.875,-19.9375,2.21,-2.17,-0.01
1541188493113590002,227,0,/imu_data_acquisition2,196274.0,-0.0945434570312,-0.253112792969,0.766662597656,0.582458496094,-2.5,-15.5,-22.75,2.2,-4.73,8.49
1541188493123987913,228,0,/imu_data_acquisition2,196285.0,-0.093017578125,-0.00433349609375,-6.103515625e-05,0.583740234375,-2.875,-16.6875,-25.4375,2.21,-2.15,-0.01
1541188493132134914,229,0,/imu_data_acquisition2,196293.0,-0.0913696289062,-0.255554199219,0.76416015625,0.585083007812,-2.25,-18.25,-27.75,2.1,-1.96,-0.01
1541188493142919063,230,0,/imu_data_acquisition2,196304.0,-0.0913696289062,-0.255554199219,0.76416015625,0.585083007812,-1.3125,-19.875,-29.6875,2.01,-1.96,-0.01
1541188493153722047,231,0,/imu_data_acquisition2,196314.0,-0.0870971679688,-0.258117675781,0.761474609375,0.588134765625,-0.1875,-21.375,-30.1875,1.95,-4.42,8.29
1541188493162857055,232,0,/imu_data_acquisition2,196322.0,-6.103515625e-05,-6.103515625e-05,-6.103515625e-05,0.589599609375,0.8125,-0.0625,-0.0625,1.81,-2.09,-0.01
1541188493184432983,234,0,/imu_data_acquisition2,196345.0,-0.0799560546875,-0.261962890625,0.757751464844,0.59228515625,3.1875,-26.125,-12.8125,1.59,-2.35,-0.01
1541188493190640926,235,0,/imu_data_acquisition2,196352.0,-0.0799560546875,-0.261962890625,0.757751464844,0.59228515625,3.1875,-26.8125,-27.5625,1.43,-2.55,-0.01
1541188493215543985,237,0,/imu_data_acquisition2,196377.0,-0.0724487304688,-0.26611328125,0.754455566406,0.595581054688,2.0625,-28.3125,-25.5,1.12,-0.01,-0.01
1541188493220599889,238,0,/imu_data_acquisition2,196382.0,-0.0724487304688,-0.26611328125,0.754455566406,0.595581054688,0.0625,-27.875,-24.625,0.97,-5.76,7.23
1541188493232789993,239,0,/imu_data_acquisition2,196393.0,-0.0679931640625,-0.269287109375,0.752319335938,0.597412109375,-1.9375,-26.1875,-23.5,0.64,-6.11,6.81
1541188493243022918,240,0,/imu_data_acquisition2,196403.0,-0.0661010742188,-0.270690917969,0.751159667969,0.598388671875,-2.1875,-7.25,-0.0625,-0.24,-5.33,5.89
1541188493250952959,241,0,/imu_data_acquisition2,196412.0,-0.0661010742188,-0.270690917969,0.751159667969,0.598388671875,-8.4375,-15.0,-0.0625,-0.75,-5.58,5.85
1541188493264844894,242,0,/imu_data_acquisition2,196423.0,-0.06494140625,-0.273498535156,0.749145507812,0.599792480469,-13.4375,-8.375,-14.625,-1.01,-8.14,6.22
1541188493275813102,243,0,/imu_data_acquisition2,196434.0,-0.064697265625,-0.273986816406,0.748046875,0.601013183594,-5.3125,-0.8125,-19.3125,-4.65,-5.56,2.79
1541188493280901908,244,0,/imu_data_acquisition2,196442.0,-0.06640625,-0.271606445312,0.747680664062,0.602355957031,9.0625,36.3125,-7.375,-7.29,3.42,-1.22
1541188493306245088,246,0,/imu_data_acquisition2,196465.0,-0.0836791992188,-0.26318359375,0.749450683594,0.601684570312,-2.9375,112.5625,34.875,-5.24,-12.45,14.66
1541188493311232089,247,0,/imu_data_acquisition2,196473.0,-0.0911254882812,-0.260620117188,0.748901367188,0.602416992188,-31.75,87.125,15.4375,-1.18,-0.01,-0.01
1541188493326412916,248,0,/imu_data_acquisition2,196486.0,-0.0911254882812,-0.260620117188,0.748901367188,0.602416992188,145.5625,-41.5625,-116.625,2.64,13.4,4.99
1541188493332916975,249,0,/imu_data_acquisition2,196493.0,-6.103515625e-05,-6.103515625e-05,-6.103515625e-05,0.609924316406,-1.75,5.4375,8.375,1.58,-0.01,-0.01
1541188493340790033,250,0,/imu_data_acquisition2,196502.0,-0.0791015625,-0.004150390625,-6.103515625e-05,0.609497070312,71.625,-19.1875,-32.125,4.03,-0.01,-0.01
1541188493356507062,251,0,/imu_data_acquisition2,196514.0,-0.0735473632812,-0.250854492188,0.746765136719,0.611572265625,23.625,21.3125,-11.375,2.57,-9.56,7.7
1541188493364345073,252,0,/imu_data_acquisition2,196524.0,-0.0734252929688,-0.0139770507812,-6.103515625e-05,0.612915039062,46.3125,22.0,-34.75,3.6,4.37,8.7
1541188493371251106,253,0,/imu_data_acquisition2,196533.0,-0.0716552734375,-0.244445800781,0.745544433594,0.615844726562,6.4375,21.6875,-12.375,3.42,-4.39,10.1
1541188493386604070,254,0,/imu_data_acquisition2,196544.0,-0.0724487304688,-0.242980957031,0.744934082031,0.617065429688,-12.25,28.5625,-0.0625,1.92,-4.7,9.64
1541188493392966985,255,0,/imu_data_acquisition2,196553.0,-0.0747680664062,-0.242309570312,0.744201660156,0.617919921875,-16.8125,31.875,-9.9375,0.97,-3.9,10.2
1541188493401266098,256,0,/imu_data_acquisition2,196563.0,-0.0774536132812,-0.00738525390625,-6.103515625e-05,0.619079589844,-24.75,24.3125,-10.75,1.25,-0.66,-0.01
1541188493416940927,257,0,/imu_data_acquisition2,196574.0,-0.080078125,-0.242126464844,0.741943359375,0.6201171875,-33.4375,12.5625,-8.4375,1.63,-4.43,10.5
1541188493423553943,258,0,/imu_data_acquisition2,196583.0,-0.0845947265625,-0.246032714844,0.739624023438,0.620727539062,-40.0625,2.8125,-0.0625,1.55,-5.36,9.03
1541188493431366920,259,0,/imu_data_acquisition2,196593.0,-0.0845947265625,-0.246032714844,0.739624023438,0.620727539062,-39.25,-0.8125,-4.3125,2.0,-5.95,8.15
1541188493453099012,261,0,/imu_data_acquisition2,196614.0,-0.0890502929688,-0.252563476562,0.736999511719,0.62060546875,-26.5,-3.9375,-2.3125,2.3,-6.47,7.27
1541188493461817979,262,0,/imu_data_acquisition2,196623.0,-0.0890502929688,-0.252563476562,0.736999511719,0.62060546875,-15.1875,-0.0625,-0.0625,2.25,-2.02,-0.01
1541188493473649978,263,0,/imu_data_acquisition2,196634.0,-0.089599609375,-0.253723144531,0.736633300781,0.620483398438,-2.125,-0.4375,-0.5625,2.31,-6.5,6.05
1541188493489711046,264,0,/imu_data_acquisition2,196650.0,-0.0891723632812,-0.2529296875,0.73681640625,0.62060546875,12.9375,2.875,0.1875,2.24,-6.9,6.19
1541188493493320941,265,0,/imu_data_acquisition2,196654.0,-0.0881958007812,-0.250793457031,0.737426757812,0.620910644531,28.3125,7.25,0.9375,1.99,-6.6,5.91
1541188493504390954,266,0,/imu_data_acquisition2,196664.0,-0.0881958007812,-0.250793457031,0.737426757812,0.620910644531,43.8125,12.6875,1.4375,2.04,-6.1,6.08
1541188493516901016,267,0,/imu_data_acquisition2,196676.0,-6.103515625e-05,-6.103515625e-05,-6.103515625e-05,0.6220703125,59.5625,16.875,2.125,2.18,-6.49,6.25
1541188493522511005,268,0,/imu_data_acquisition2,196684.0,-0.0846557617188,-0.242736816406,0.739562988281,0.6220703125,74.6875,21.375,1.75,2.24,-6.18,6.16
1541188493532636880,269,0,/imu_data_acquisition2,196692.0,-6.103515625e-05,-6.103515625e-05,-6.103515625e-05,0.622924804688,74.6875,21.375,1.75,2.24,-0.01,-0.01
1541188493542011022,270,0,/imu_data_acquisition2,196703.0,-0.0792846679688,-0.229858398438,0.74267578125,0.623901367188,88.5,-0.0625,-0.0625,2.09,-5.35,7.05
1541188493553174018,271,0,/imu_data_acquisition2,196714.0,-0.0761108398438,-0.2216796875,0.744567871094,0.625061035156,112.75,38.8125,3.9375,1.95,-5.27,7.42
1541188493563041925,272,0,/imu_data_acquisition2,196723.0,-0.0726928710938,-0.212463378906,0.74658203125,0.626220703125,123.0625,42.5625,4.5,1.69,-5.32,8.13
1541188493573142051,273,0,/imu_data_acquisition2,196734.0,-0.00640869140625,-6.103515625e-05,-6.103515625e-05,0.62744140625,133.75,44.875,1.75,1.56,-4.17,8.49
1541188493582389116,274,0,/imu_data_acquisition2,196744.0,-0.064697265625,-0.191589355469,0.750793457031,0.628784179688,133.75,44.875,1.75,1.33,-4.13,9.12
1541188493591012954,275,0,/imu_data_acquisition2,196752.0,-0.0601196289062,-0.18017578125,0.752746582031,0.630249023438,140.75,-0.0625,-0.0625,1.33,-4.13,9.12
1541188493603960990,276,0,/imu_data_acquisition2,196764.0,-0.0550537109375,-0.168640136719,0.754516601562,0.631896972656,147.1875,40.3125,-9.0,1.25,-0.01,-0.01
1541188493612934112,277,0,/imu_data_acquisition2,196774.0,-6.103515625e-05,-6.103515625e-05,-6.103515625e-05,0.633666992188,141.0625,37.1875,-10.75,1.28,0.07,11.2
1541188493623553991,278,0,/imu_data_acquisition2,196783.0,-0.0130615234375,-6.103515625e-05,-6.103515625e-05,0.635375976562,124.5,31.0,-10.4375,0.82,0.07,11.36
1541188493634588956,279,0,/imu_data_acquisition2,196794.0,-0.0394897460938,-0.136596679688,0.757751464844,0.636840820312,124.5,31.0,-10.4375,0.93,-0.19,11.74
1541188493642870903,280,0,/imu_data_acquisition2,196803.0,-6.103515625e-05,-6.103515625e-05,-6.103515625e-05,0.638122558594,103.6875,24.125,-10.75,0.97,0.67,11.64
1541188493651854038,281,0,/imu_data_acquisition2,196813.0,-0.03173828125,-0.0130004882812,-6.103515625e-05,0.639343261719,62.25,10.0625,-8.5625,1.17,-1.19,10.14
1541188493664167881,282,0,/imu_data_acquisition2,196824.0,-0.0289306640625,-0.117858886719,0.758605957031,0.64013671875,50.875,10.125,-9.375,1.27,-1.53,11.02
1541188493772624015,283,0,/imu_data_acquisition2,196834.0,-0.0267333984375,-0.114074707031,0.758544921875,0.640991210938,45.8125,5.8125,-11.3125,1.65,-1.66,9.86
1541188493777600049,284,0,/imu_data_acquisition2,196842.0,-0.0245361328125,-0.11083984375,0.758361816406,0.641845703125,45.8125,5.8125,-11.3125,1.65,-1.66,9.86
1541188493780239105,285,0,/imu_data_acquisition2,196853.0,-0.022705078125,-0.108154296875,0.758117675781,0.642700195312,37.75,4.9375,-11.0625,1.14,-1.55,10.97
1541188493783535957,286,0,/imu_data_acquisition2,196863.0,-6.103515625e-05,-6.103515625e-05,-6.103515625e-05,0.643493652344,31.3125,1.5,-11.625,1.61,-1.34,10.36
1541188493785691022,287,0,/imu_data_acquisition2,196873.0,-6.103515625e-05,-6.103515625e-05,-6.103515625e-05,0.644226074219,22.9375,2.125,-10.1875,1.91,-1.17,10.07
1541188493786786079,288,0,/imu_data_acquisition2,196883.0,-0.0189208984375,-0.103393554688,0.757019042969,0.644836425781,8.75,1.0625,-7.9375,1.75,-1.3,9.94
1541188493791913032,289,0,/imu_data_acquisition2,196891.0,-6.103515625e-05,-6.103515625e-05,-6.103515625e-05,0.645385742188,8.75,1.0625,-0.0625,1.75,-1.3,9.94
1541188493793018102,290,0,/imu_data_acquisition2,196901.0,-6.103515625e-05,-6.103515625e-05,-6.103515625e-05,0.645812988281,2.3125,0.75,-0.0625,1.47,-1.91,10.19
1541188493799453020,291,0,/imu_data_acquisition2,196913.0,-0.0181884765625,-0.102722167969,0.756103515625,0.646118164062,-1.5,-1.1875,-3.125,1.25,-2.4,9.93
1541188493801203012,292,0,/imu_data_acquisition2,196923.0,-0.0181884765625,-0.102844238281,0.755920410156,0.646301269531,0.8125,-3.375,-3.0625,1.48,-2.26,9.34
1541188493802774906,293,0,/imu_data_acquisition2,196934.0,-6.103515625e-05,-6.103515625e-05,-6.103515625e-05,0.646484375,0.8125,-3.375,-3.0625,1.38,-2.61,9.87
1541188493808790922,294,0,/imu_data_acquisition2,196944.0,-0.017578125,-0.103088378906,0.755676269531,0.646545410156,1.625,-2.875,-1.9375,1.57,-2.23,-0.01
1541188493811749935,295,0,/imu_data_acquisition2,196952.0,-0.0170288085938,-0.102966308594,0.755615234375,0.646667480469,5.375,-4.375,-1.625,1.57,-2.23,9.42
1541188493814985990,296,0,/imu_data_acquisition2,196964.0,-6.103515625e-05,-6.103515625e-05,-6.103515625e-05,0.646667480469,8.875,-3.8125,-0.625,1.67,-2.58,9.32
1541188493824361085,298,0,/imu_data_acquisition2,196985.0,-0.0143432617188,-0.100891113281,0.756042480469,0.646545410156,20.0,-0.125,1.625,1.96,-2.15,9.32
1541188493832561969,299,0,/imu_data_acquisition2,196992.0,-0.0133056640625,-0.005859375,-6.103515625e-05,0.646423339844,20.0,-0.125,1.625,1.96,-2.15,9.32
1541188493842327117,300,0,/imu_data_acquisition2,197003.0,-0.01220703125,-0.0980834960938,0.756469726562,0.646484375,22.3125,2.1875,0.4375,1.56,-2.02,-0.01
1541188493853924989,301,0,/imu_data_acquisition2,197014.0,-0.0110473632812,-0.0963134765625,0.756652832031,0.646606445312,24.9375,3.375,-1.25,1.43,-1.71,9.49
1541188493865638017,302,0,/imu_data_acquisition2,197025.0,-0.0086669921875,-0.0926513671875,0.7568359375,0.646911621094,24.8125,3.9375,-0.0625,1.32,-1.6,9.8
1541188493875220060,303,0,/imu_data_acquisition2,197037.0,-0.0074462890625,-0.0908813476562,0.756896972656,0.647155761719,25.5,3.0625,-2.5625,1.52,-1.25,9.37
1541188493883470058,304,0,/imu_data_acquisition2,197042.0,-0.0074462890625,-0.0908813476562,0.756896972656,0.647155761719,25.5,3.0625,-0.0625,1.52,-1.25,9.37
1541188493896745920,305,0,/imu_data_acquisition2,197053.0,-0.0064697265625,-6.103515625e-05,-6.103515625e-05,0.647277832031,23.0,4.1875,-1.5,1.18,-1.47,9.82
1541188493902923107,306,0,/imu_data_acquisition2,197064.0,-6.103515625e-05,-6.103515625e-05,-6.103515625e-05,0.647399902344,21.5,3.8125,-0.0625,1.17,-1.66,9.66
1541188493922914028,307,0,/imu_data_acquisition2,197073.0,-6.103515625e-05,-6.103515625e-05,-6.103515625e-05,0.647521972656,20.8125,2.9375,-1.6875,1.31,-1.63,9.81
1541188493928072929,308,0,/imu_data_acquisition2,197085.0,-0.00360107421875,-0.0846557617188,0.757202148438,0.647644042969,20.4375,2.5,-0.0625,1.39,-1.55,9.79
1541188493934627056,309,0,/imu_data_acquisition2,197093.0,-0.00250244140625,-0.0835571289062,0.757202148438,0.647766113281,20.5625,1.625,-1.9375,1.39,-1.55,9.79
1541188493939913034,310,0,/imu_data_acquisition2,197101.0,-6.103515625e-05,-6.103515625e-05,-6.103515625e-05,0.647888183594,18.6875,2.5,-0.0625,1.55,-1.6,9.95
1541188493952604055,311,0,/imu_data_acquisition2,197114.0,-6.103515625e-05,-6.103515625e-05,-6.103515625e-05,0.648010253906,17.6875,1.1875,-2.0,1.8,-1.51,9.62
1541188493963803052,312,0,/imu_data_acquisition2,197125.0,6.103515625e-05,-0.0803833007812,0.75732421875,0.648071289062,14.875,1.0625,-1.125,1.89,-1.28,9.75
1541188493976233005,313,0,/imu_data_acquisition2,197135.0,0.0008544921875,-0.079345703125,0.75732421875,0.648193359375,15.5625,1.0,-1.625,1.69,-1.48,9.73
1541188493985972881,314,0,/imu_data_acquisition2,197147.0,0.001708984375,-0.0783081054688,0.75732421875,0.648315429688,15.3125,0.625,-1.6875,1.45,-1.42,9.81
1541188493993566036,315,0,/imu_data_acquisition2,197154.0,0.00250244140625,-0.0773315429688,0.75732421875,0.6484375,15.0625,0.625,-1.625,1.27,-1.4,9.67
1541188494004196882,316,0,/imu_data_acquisition2,197164.0,0.0032958984375,-0.0763549804688,0.75732421875,0.648559570312,15.0,-0.125,-1.875,1.28,-1.52,9.82
1541188494016326904,317,0,/imu_data_acquisition2,197176.0,0.004150390625,-0.0755004882812,0.75732421875,0.648620605469,15.5625,-1.0625,-2.5,1.67,-0.01,-0.01
1541188494027918100,318,0,/imu_data_acquisition2,197185.0,0.00506591796875,-0.0745849609375,0.757263183594,0.648803710938,15.5625,-0.0625,-0.0625,1.57,-1.44,9.89
1541188494032179117,319,0,/imu_data_acquisition2,197193.0,0.0059814453125,-0.0736694335938,0.757263183594,0.64892578125,15.0,-0.875,-2.125,1.57,-1.44,9.89
1541188494042601108,320,0,/imu_data_acquisition2,197203.0,0.007080078125,-0.0732421875,0.757202148438,0.649047851562,14.9375,-0.75,-2.125,1.65,-1.1,9.9
1541188494055924892,321,0,/imu_data_acquisition2,197212.0,-6.103515625e-05,-6.103515625e-05,-6.103515625e-05,0.649108886719,13.5,-0.625,-1.8125,1.58,-1.34,9.9
1541188494062602043,322,0,/imu_data_acquisition2,197224.0,0.009033203125,-0.07275390625,0.757080078125,0.649169921875,12.875,-0.25,-1.375,1.77,-0.01,-0.01
1541188494085587024,324,0,/imu_data_acquisition2,197242.0,0.0109252929688,-0.072265625,0.757019042969,0.649291992188,10.5,-0.0625,-0.0625,1.74,-0.01,-0.01
1541188494090846061,325,0,/imu_data_acquisition2,197252.0,0.0117797851562,-0.0721435546875,0.756958007812,0.649353027344,8.5,-0.0625,-0.0625,1.76,-0.01,-0.01
1541188494105773925,326,0,/imu_data_acquisition2,197263.0,0.0125732421875,-0.0721435546875,0.756958007812,0.649353027344,7.5625,-1.75,-1.125,1.59,-1.02,9.81
1541188494113760948,327,0,/imu_data_acquisition2,197274.0,-6.103515625e-05,-6.103515625e-05,-6.103515625e-05,0.6494140625,5.0625,-0.0625,-0.0625,1.71,-1.02,-0.01
1541188494123305082,328,0,/imu_data_acquisition2,197285.0,0.0137939453125,-0.0723266601562,0.7568359375,0.649475097656,4.4375,-2.375,-1.3125,1.68,-0.01,-0.01
1541188494132361888,329,0,/imu_data_acquisition2,197293.0,0.0142822265625,-0.0725708007812,0.756713867188,0.649536132812,2.4375,-2.4375,-1.1875,1.68,-1.06,9.79
1541188494141134023,330,0,/imu_data_acquisition2,197302.0,-6.103515625e-05,-6.103515625e-05,-6.103515625e-05,0.649536132812,2.0,-0.0625,-0.0625,1.51,-1.37,9.74
1541188494152899026,331,0,/imu_data_acquisition2,197314.0,0.0150146484375,-0.073486328125,0.756591796875,0.649597167969,1.8125,-2.6875,-1.125,1.5,-1.29,9.91
1541188494164623975,332,0,/imu_data_acquisition2,197325.0,0.0155029296875,-0.0739135742188,0.756469726562,0.649658203125,3.0,-3.0,-1.4375,1.3,-1.31,10.12
1541188494176119089,333,0,/imu_data_acquisition2,197335.0,0.0157470703125,-0.07421875,0.756408691406,0.649658203125,2.1875,-0.0625,-0.0625,2.05,-0.96,9.27
1541188494183748006,334,0,/imu_data_acquisition2,197344.0,0.0164184570312,-0.0746459960938,0.75634765625,0.649719238281,3.5,-0.0625,-0.0625,1.58,-0.01,-0.01
1541188494191673040,335,0,/imu_data_acquisition2,197352.0,0.0167846679688,-0.074951171875,0.756286621094,0.649719238281,2.5625,-0.0625,-0.0625,1.58,-1.27,10.22
1541188494203962087,336,0,/imu_data_acquisition2,197364.0,0.01708984375,-0.0753784179688,0.756225585938,0.649719238281,2.4375,-1.9375,-0.6875,1.55,-1.37,9.92
1541188494215894937,337,0,/imu_data_acquisition2,197375.0,0.0172729492188,-0.0128173828125,-6.103515625e-05,0.649719238281,2.125,-1.0,-0.0625,1.85,-0.99,9.71
1541188494226768016,338,0,/imu_data_acquisition2,197385.0,0.0175170898438,-0.0751342773438,0.756225585938,0.649719238281,3.0625,-0.75,-0.5625,1.92,-0.96,9.81
1541188494233477115,339,0,/imu_data_acquisition2,197393.0,0.017578125,-0.0750122070312,0.756225585938,0.649719238281,1.9375,0.1875,0.125,1.92,-0.96,9.81
1541188494245779991,340,0,/imu_data_acquisition2,197407.0,0.0183715820312,-0.0756225585938,0.756225585938,0.649719238281,1.9375,0.5,0.1875,1.83,-0.97,9.99
1541188494250238895,341,0,/imu_data_acquisition2,197412.0,0.0183715820312,-0.0756225585938,0.756225585938,0.649719238281,1.9375,0.5,0.1875,1.83,-0.97,9.99
1541188494267602920,342,0,/imu_data_acquisition2,197426.0,0.0185546875,-0.0758056640625,0.756164550781,0.649658203125,1.375,0.625,-0.0625,1.36,-1.0,-0.01
1541188494275680065,343,0,/imu_data_acquisition2,197436.0,0.0186157226562,-0.07568359375,0.756225585938,0.649658203125,1.375,0.625,-0.0625,1.34,-1.31,9.95
1541188494281539916,344,0,/imu_data_acquisition2,197442.0,0.0185546875,-0.0756225585938,0.756225585938,0.649658203125,0.5,0.75,0.125,1.34,-1.31,9.95
1541188494293854951,345,0,/imu_data_acquisition2,197454.0,0.0186157226562,-0.0131225585938,-6.103515625e-05,0.649658203125,0.6875,0.1875,-0.0625,1.19,-1.07,9.82
1541188494305280923,346,0,/imu_data_acquisition2,197465.0,0.0186157226562,-0.0756225585938,0.756225585938,0.649658203125,0.1875,-0.125,0.25,1.19,-1.35,9.82
1541188494314524888,347,0,/imu_data_acquisition2,197475.0,0.0186157226562,-0.0755615234375,0.756225585938,0.649658203125,0.8125,-0.125,0.125,1.24,-1.14,-0.01
1541188494327244997,348,0,/imu_data_acquisition2,197485.0,0.0185546875,-0.0756225585938,0.756225585938,0.649658203125,0.5,-0.1875,0.3125,1.38,-1.25,9.95
1541188494334183931,349,0,/imu_data_acquisition2,197494.0,0.0186157226562,-0.0758056640625,0.756225585938,0.649658203125,0.875,-0.6875,0.1875,1.38,-1.25,-0.01
1541188494344830036,350,0,/imu_data_acquisition2,197505.0,0.0186157226562,-0.0758666992188,0.756225585938,0.649658203125,0.8125,-0.5625,0.0,1.47,-0.97,9.5
1541188494357286930,351,0,/imu_data_acquisition2,197516.0,0.0186157226562,-0.0761108398438,0.756225585938,0.649597167969,0.8125,-0.375,0.1875,1.73,-0.01,-0.01
1541188494367074012,352,0,/imu_data_acquisition2,197525.0,0.0187377929688,-0.0134887695312,-6.103515625e-05,0.649597167969,1.8125,-0.875,-0.3125,1.73,-1.16,9.67
1541188494376380920,353,0,/imu_data_acquisition2,197537.0,0.0188598632812,-0.0134887695312,-6.103515625e-05,0.649597167969,1.125,-0.0625,-0.0625,1.7,-1.01,9.66
1541188494383474111,354,0,/imu_data_acquisition2,197544.0,0.01904296875,-0.0759887695312,0.756225585938,0.649597167969,1.5,-1.0625,0.0,1.7,-1.01,-0.01
1541188494393507957,355,0,/imu_data_acquisition2,197554.0,0.01904296875,-0.075927734375,0.756225585938,0.649597167969,0.6875,-0.375,0.25,1.32,-1.1,-0.01
1541188494404989004,356,0,/imu_data_acquisition2,197566.0,0.0191650390625,-0.075927734375,0.756225585938,0.649597167969,0.75,-0.875,0.0,1.47,-0.01,-0.01
1541188494420188903,357,0,/imu_data_acquisition2,197576.0,0.0191650390625,-0.0760498046875,0.756225585938,0.649597167969,-0.0625,-0.4375,0.375,1.42,-0.97,-0.01
1541188494425523042,358,0,/imu_data_acquisition2,197585.0,0.019287109375,-0.013671875,-6.103515625e-05,0.649536132812,0.8125,-0.0625,-0.0625,1.42,-0.01,-0.01
1541188494431302070,359,0,/imu_data_acquisition2,197593.0,0.0192260742188,-0.0762939453125,0.756225585938,0.649536132812,-0.25,-0.0625,0.1875,1.31,-1.06,-0.01
1541188494445457935,360,0,/imu_data_acquisition2,197605.0,0.0192260742188,-0.0763549804688,0.756225585938,0.649536132812,0.4375,-0.0625,-0.0625,1.29,-1.24,9.84
1541188494453866958,361,0,/imu_data_acquisition2,197615.0,0.0191040039062,-0.0764770507812,0.756225585938,0.649536132812,0.375,0.0625,0.0625,1.2,-1.31,10.0
1541188494463460922,362,0,/imu_data_acquisition2,197625.0,0.0191040039062,-0.0765991210938,0.756225585938,0.649536132812,0.8125,-0.5,0.0,1.46,-0.01,-0.01
1541188494477246046,363,0,/imu_data_acquisition2,197638.0,0.0191040039062,-0.076904296875,0.756225585938,0.649475097656,1.1875,0.3125,0.3125,1.33,-1.25,9.89
1541188494484143018,364,0,/imu_data_acquisition2,197643.0,0.0191040039062,-0.0770263671875,0.756225585938,0.649475097656,1.1875,0.3125,0.3125,1.33,-1.25,9.89
1541188494492271900,365,0,/imu_data_acquisition2,197654.0,0.0191650390625,-0.0772094726562,0.756286621094,0.6494140625,0.5,0.25,1.0625,1.6,-0.01,-0.01
1541188494510349035,366,0,/imu_data_acquisition2,197664.0,0.0191650390625,-0.0775146484375,0.756286621094,0.649353027344,1.1875,0.5,0.625,1.54,-1.61,10.15
1541188494518065929,367,0,/imu_data_acquisition2,197676.0,0.0193481445312,-0.0776977539062,0.75634765625,0.649291992188,1.0625,0.6875,1.0,2.01,-0.67,-0.01
1541188494524871110,368,0,/imu_data_acquisition2,197686.0,0.019287109375,-0.0775146484375,0.756408691406,0.649169921875,1.0,1.1875,1.375,1.82,-0.01,-0.01
1541188494532223939,369,0,/imu_data_acquisition2,197692.0,0.0192260742188,-0.0773315429688,0.756530761719,0.649108886719,1.3125,2.0,1.5,1.82,-0.01,-0.01
1541188494545083045,370,0,/imu_data_acquisition2,197703.0,0.0191650390625,-0.0771484375,0.756652832031,0.648986816406,1.1875,1.8125,1.8125,1.12,-0.01,-0.01
1541188494553380966,371,0,/imu_data_acquisition2,197714.0,0.01904296875,-0.0770263671875,0.756774902344,0.648864746094,0.1875,2.25,2.4375,1.6,-1.33,9.82
1541188494563668012,372,0,/imu_data_acquisition2,197723.0,0.0189208984375,-0.0772705078125,0.756896972656,0.648681640625,1.0625,1.6875,2.3125,1.57,-1.35,9.82
1541188494574578046,373,0,/imu_data_acquisition2,197735.0,0.0188598632812,-0.0773315429688,0.757019042969,0.648498535156,0.1875,2.0,2.8125,1.66,-0.01,-0.01
1541188494582753896,374,0,/imu_data_acquisition2,197743.0,0.0189208984375,-0.077392578125,0.757141113281,0.648376464844,1.125,1.4375,1.9375,1.59,-1.0,9.79
1541188494592317104,375,0,/imu_data_acquisition2,197752.0,0.0187377929688,-0.0772705078125,0.757263183594,0.648193359375,0.1875,2.0,2.625,1.05,-0.01,-0.01
1541188494605834960,376,0,/imu_data_acquisition2,197766.0,0.0186157226562,-0.0771484375,0.757446289062,0.648071289062,0.5,2.25,2.625,1.45,-1.31,9.6
1541188494614978075,377,0,/imu_data_acquisition2,197776.0,0.0184326171875,-0.0770263671875,0.757568359375,0.64794921875,0.25,1.875,2.375,1.3,-0.56,9.83
1541188494626204013,378,0,/imu_data_acquisition2,197784.0,0.018310546875,-0.076904296875,0.757751464844,0.647766113281,-0.4375,2.3125,3.0625,1.28,-1.19,9.77
1541188494633001089,379,0,/imu_data_acquisition2,197793.0,0.0181274414062,-0.014404296875,-6.103515625e-05,0.647583007812,-1.1875,1.625,2.5625,1.6,-1.87,9.79
1541188494642688989,380,0,/imu_data_acquisition2,197803.0,0.017822265625,-0.0769653320312,0.757995605469,0.6474609375,-2.4375,2.25,1.9375,1.65,-1.53,9.75
1541188494650223970,381,0,/imu_data_acquisition2,197812.0,0.0176391601562,-0.0768432617188,0.757995605469,0.6474609375,0.0,2.375,0.75,1.88,-1.32,9.83
1541188494663330078,382,0,/imu_data_acquisition2,197824.0,0.0174560546875,-0.0765991210938,0.758117675781,0.647338867188,0.9375,3.5,1.8125,1.7,-1.16,-0.01
1541188494675717115,383,0,/imu_data_acquisition2,197837.0,0.0172119140625,-0.0762939453125,0.75830078125,0.647216796875,0.625,4.25,2.625,1.54,-1.23,9.97
1541188494680463075,384,0,/imu_data_acquisition2,197842.0,0.0169067382812,-0.0759887695312,0.758422851562,0.647094726562,0.6875,4.875,2.6875,1.54,-1.23,-0.01
1541188494696006059,385,0,/imu_data_acquisition2,197857.0,0.0164794921875,-0.07568359375,0.758605957031,0.646911621094,-0.25,5.875,3.0,1.83,-1.33,9.81
1541188494705982923,386,0,/imu_data_acquisition2,197866.0,0.01611328125,-0.0753784179688,0.758728027344,0.646789550781,-0.5,5.5,2.25,1.83,-1.33,9.81
1541188494713298082,387,0,/imu_data_acquisition2,197873.0,0.0160522460938,-0.0757446289062,0.7587890625,0.646667480469,-1.125,6.375,2.1875,2.03,-1.08,9.61
1541188494724775075,388,0,/imu_data_acquisition2,197885.0,0.0154418945312,-0.0753784179688,0.758972167969,0.646545410156,-1.125,8.125,3.25,2.04,-0.01,-0.01
1541188494732882022,389,0,/imu_data_acquisition2,197893.0,0.0146484375,-0.0750732421875,0.75927734375,0.646240234375,-2.4375,9.375,5.125,2.01,-0.73,9.82
1541188494790380954,390,0,/imu_data_acquisition2,197902.0,-6.103515625e-05,-6.103515625e-05,-6.103515625e-05,0.645874023438,-2.8125,11.4375,6.875,2.08,-1.03,-0.01
1541188494792922019,391,0,/imu_data_acquisition2,197915.0,0.0126342773438,-0.07421875,0.760131835938,0.645385742188,-4.25,12.625,9.125,2.56,-0.76,9.69
1541188494794938087,392,0,/imu_data_acquisition2,197925.0,0.0114135742188,-0.07373046875,0.760681152344,0.644836425781,-4.5,-0.0625,-0.0625,2.26,-0.01,-0.01
1541188494797027111,393,0,/imu_data_acquisition2,197932.0,0.00994873046875,-0.0733032226562,0.761291503906,0.644226074219,-6.625,15.9375,-0.0625,2.57,-0.1,9.61
1541188494800005912,394,0,/imu_data_acquisition2,197943.0,0.00836181640625,-0.0731811523438,0.762084960938,0.643310546875,-10.125,14.6875,-0.0625,2.6,-1.16,9.48
1541188494801310062,395,0,/imu_data_acquisition2,197951.0,0.00628662109375,-0.0730590820312,0.763000488281,0.642211914062,-14.125,-0.0625,-0.0625,2.09,0.99,-0.01
1541188494804379940,396,0,/imu_data_acquisition2,197961.0,0.00390625,-0.0733642578125,0.763854980469,0.641235351562,-19.5625,17.8125,17.75,1.98,-1.11,9.89
1541188494815330982,397,0,/imu_data_acquisition2,197977.0,0.00048828125,-0.0745849609375,0.765197753906,0.639465332031,-35.875,20.0,-0.0625,1.8,-1.39,10.12
1541188494824404001,398,0,/imu_data_acquisition2,197981.0,-0.00311279296875,-0.0135498046875,-6.103515625e-05,0.637512207031,-38.9375,19.9375,32.375,1.8,-1.39,10.12
1541188494834156036,399,0,/imu_data_acquisition2,197993.0,-0.00762939453125,-0.077880859375,0.768371582031,0.635192871094,-49.375,25.4375,37.9375,2.22,-0.52,10.06
1541188494844233989,400,0,/imu_data_acquisition2,198002.0,-0.0123901367188,-0.0795288085938,0.77001953125,0.632873535156,-49.625,28.625,37.4375,2.18,-0.26,9.89
1541188494851943016,401,0,/imu_data_acquisition2,198013.0,-0.0181274414062,-0.0816040039062,0.771850585938,0.630310058594,-60.4375,33.5625,-0.0625,1.94,-1.53,10.11
1541188494863460063,402,0,/imu_data_acquisition2,198023.0,-0.0243530273438,-0.0838012695312,0.773803710938,0.627380371094,-65.375,37.3125,46.25,1.89,-0.01,-0.01
1541188494870759010,403,0,/imu_data_acquisition2,198032.0,-0.0311279296875,-0.0860595703125,0.775817871094,0.624328613281,-70.0625,42.0625,49.3125,1.85,-1.37,9.93
1541188494882035017,404,0,/imu_data_acquisition2,198043.0,-0.0387573242188,-0.08837890625,0.778015136719,0.620788574219,-76.75,48.3125,55.4375,1.84,-1.31,10.15
1541188494893354892,405,0,/imu_data_acquisition2,198052.0,-0.0468139648438,-0.0907592773438,0.780456542969,0.616821289062,-80.0,51.8125,-0.0625,1.5,-1.52,10.24
1541188494902072906,406,0,/imu_data_acquisition2,198062.0,-0.055419921875,-0.0930786132812,0.783142089844,0.6123046875,-4.125,-0.0625,-0.0625,1.26,-1.34,10.57
1541188494916702032,407,0,/imu_data_acquisition2,198076.0,-0.064208984375,-0.0955810546875,0.7861328125,0.607238769531,-87.0625,55.875,76.4375,1.5,-1.75,10.17
1541188494924693107,408,0,/imu_data_acquisition2,198084.0,-0.0733032226562,-0.098388671875,0.789306640625,0.601623535156,-92.0,55.3125,83.0625,0.46,-2.06,10.85
1541188494931551933,409,0,/imu_data_acquisition2,198093.0,-0.00457763671875,-6.103515625e-05,-6.103515625e-05,0.595520019531,-98.0625,55.1875,-0.0625,0.21,-2.02,-0.01
1541188494942749977,410,0,/imu_data_acquisition2,198103.0,-0.0921020507812,-0.105346679688,0.796020507812,0.5888671875,-104.0625,50.4375,94.3125,0.05,-2.33,-0.01
1541188494951220035,411,0,/imu_data_acquisition2,198112.0,-0.101745605469,-0.109802246094,0.799560546875,0.581604003906,-112.6875,47.375,100.3125,-0.35,-3.7,10.22
1541188494968380928,412,0,/imu_data_acquisition2,198128.0,-0.111328125,-0.114440917969,0.803039550781,0.574096679688,-114.5,44.125,101.3125,-0.19,-3.98,9.37
1541188494982026100,414,0,/imu_data_acquisition2,198142.0,-0.130126953125,-0.12353515625,0.809875488281,0.558532714844,-111.0,44.1875,-0.0625,-0.55,-3.68,9.03
1541188494993796110,415,0,/imu_data_acquisition2,198154.0,-0.139404296875,-0.127563476562,0.81298828125,0.55078125,-106.875,46.1875,101.9375,-1.01,-4.45,9.06
1541188495014281034,417,0,/imu_data_acquisition2,198174.0,-0.157470703125,-0.134216308594,0.818359375,0.5361328125,-96.3125,51.3125,94.125,-1.12,-0.01,-0.01
1541188495023447990,418,0,/imu_data_acquisition2,198184.0,-0.166442871094,-0.136901855469,0.820617675781,0.529296875,-92.0625,54.75,89.875,-0.28,-5.18,8.98
1541188495032869100,419,0,/imu_data_acquisition2,198192.0,-0.175048828125,-0.139038085938,0.822509765625,0.523010253906,-4.0625,-0.0625,-0.0625,2.15,-6.49,9.65
1541188495041287899,420,0,/imu_data_acquisition2,198203.0,-0.182922363281,-0.140991210938,0.823852539062,0.517578125,-77.0,52.75,70.0,4.7,-7.56,9.83
1541188495053330898,421,0,/imu_data_acquisition2,198212.0,-0.18896484375,-0.142578125,0.824462890625,0.514038085938,-59.0,41.5,45.125,7.44,-7.25,9.15
1541188495060283899,422,0,/imu_data_acquisition2,198222.0,-0.193542480469,-0.144287109375,0.823974609375,0.512634277344,-48.5625,33.25,-0.0625,6.4,-0.01,-0.01
1541188495071580886,423,0,/imu_data_acquisition2,198232.0,-0.196838378906,-0.147033691406,0.822265625,0.513366699219,-15.875,-0.0625,-0.0625,6.44,-5.01,9.89
1541188495084312915,424,0,/imu_data_acquisition2,198242.0,-0.19775390625,-0.150451660156,0.819519042969,0.516357421875,-36.6875,-0.875,-52.0,6.0,-0.01,-0.01
1541188495090284109,425,0,/imu_data_acquisition2,198252.0,-0.197875976562,-0.0142211914062,-6.103515625e-05,0.519836425781,-40.8125,-11.8125,-14.3125,5.15,-3.26,9.49
1541188495101208925,426,0,/imu_data_acquisition2,198262.0,-0.197143554688,-0.158996582031,0.813293457031,0.523803710938,-31.5625,-18.1875,-69.375,4.46,-3.54,10.17
1541188495113046884,427,0,/imu_data_acquisition2,198272.0,-0.195495605469,-0.00634765625,-6.103515625e-05,0.528015136719,-20.4375,-23.0,-6.625,3.84,-3.27,10.5
1541188495120532035,428,0,/imu_data_acquisition2,198282.0,-6.103515625e-05,-6.103515625e-05,-6.103515625e-05,0.532348632812,-4.3125,-30.9375,-71.125,2.72,-2.87,10.59
1541188495132388114,429,0,/imu_data_acquisition2,198293.0,-6.103515625e-05,-6.103515625e-05,-6.103515625e-05,0.536560058594,10.5,-39.875,-67.25,2.16,-0.01,-0.01
1541188495142637968,430,0,/imu_data_acquisition2,198302.0,-0.183349609375,-0.169189453125,0.803649902344,0.540283203125,22.125,-48.0,-59.1875,1.65,-3.43,10.25
1541188495150947093,431,0,/imu_data_acquisition2,198312.0,-0.177429199219,-0.17041015625,0.802734375,0.543273925781,31.1875,-0.0625,-0.0625,0.84,-4.33,9.45
1541188495161855936,432,0,/imu_data_acquisition2,198323.0,-0.170959472656,-0.171203613281,0.802368164062,0.545593261719,37.875,-61.375,-38.9375,0.55,-4.73,9.08
1541188495171991109,433,0,/imu_data_acquisition2,198332.0,-0.164245605469,-0.171875,0.802490234375,0.547241210938,40.75,-65.125,-29.75,0.23,-5.49,8.76
1541188495180727958,434,0,/imu_data_acquisition2,198342.0,-0.157531738281,-0.172546386719,0.803039550781,0.548217773438,40.4375,-66.875,-21.375,-0.12,-5.86,8.58
1541188495191399097,435,0,/imu_data_acquisition2,198353.0,-0.151245117188,-0.173583984375,0.803894042969,0.548400878906,32.625,-0.0625,-0.0625,-0.7,-6.6,8.11
1541188495201174974,436,0,/imu_data_acquisition2,198362.0,-0.00433349609375,-6.103515625e-05,-6.103515625e-05,0.548522949219,32.625,-67.9375,-10.5,-0.96,-6.87,7.67
1541188495210979938,437,0,/imu_data_acquisition2,198372.0,-0.139038085938,-0.176086425781,0.805603027344,0.54833984375,26.0625,-67.625,-7.5625,-1.24,-7.37,7.2
1541188495221963882,438,0,/imu_data_acquisition2,198383.0,-0.133544921875,-0.177978515625,0.806335449219,0.548034667969,18.6875,-65.875,-6.4375,-1.57,-7.79,6.46
1541188495231817960,439,0,/imu_data_acquisition2,198393.0,-0.128723144531,-0.180053710938,0.806823730469,0.547790527344,12.3125,-61.125,-7.9375,-1.69,-7.74,6.17
1541188495240709066,440,0,/imu_data_acquisition2,198402.0,-6.103515625e-05,-6.103515625e-05,-6.103515625e-05,0.548095703125,-1.5625,-45.4375,-15.0,-1.8,-7.72,6.07
1541188495252711057,441,0,/imu_data_acquisition2,198413.0,-0.122192382812,-0.184753417969,0.806335449219,0.548400878906,-1.5625,-45.4375,-15.0,-1.85,-7.52,5.92
1541188495262530088,442,0,/imu_data_acquisition2,198423.0,-0.119873046875,-0.187133789062,0.8056640625,0.549072265625,-8.0625,-35.3125,-19.5625,-1.83,-2.31,-0.01
1541188495271557092,443,0,/imu_data_acquisition2,198433.0,-0.119201660156,-0.189331054688,0.804260253906,0.550598144531,-17.375,-14.875,-0.0625,-1.82,-7.02,6.25
1541188495282757997,444,0,/imu_data_acquisition2,198444.0,-0.119323730469,-0.19140625,0.802490234375,0.552429199219,-5.75,-0.0625,-0.0625,-1.6,-1.16,-0.01
1541188495291651964,445,0,/imu_data_acquisition2,198452.0,-0.119995117188,-0.00592041015625,-6.103515625e-05,0.554382324219,-25.6875,0.6875,-0.0625,-1.48,-6.07,7.2
1541188495301882982,446,0,/imu_data_acquisition2,198463.0,-0.121154785156,-0.195373535156,0.798461914062,0.556457519531,-27.875,5.6875,-33.25,-1.29,-5.81,7.49
1541188495313002109,447,0,/imu_data_acquisition2,198474.0,-0.122619628906,-0.197387695312,0.796325683594,0.558471679688,-30.1875,8.5625,-32.875,-1.15,-0.01,-0.01
1541188495322256088,448,0,/imu_data_acquisition2,198483.0,-0.124145507812,-0.199340820312,0.794189453125,0.560485839844,-14.9375,-0.0625,-0.0625,-0.74,-4.96,8.34
1541188495331743001,449,0,/imu_data_acquisition2,198493.0,-0.125671386719,-0.201354980469,0.792114257812,0.562316894531,-14.9375,-0.0625,-0.0625,-0.5,-2.15,-0.01
1541188495342484951,450,0,/imu_data_acquisition2,198504.0,-0.126953125,-0.203369140625,0.790222167969,0.564025878906,-29.25,5.8125,-28.3125,-0.33,-4.25,8.85
1541188495351617097,451,0,/imu_data_acquisition2,198512.0,-0.128051757812,-0.205383300781,0.788513183594,0.565368652344,-28.4375,2.25,-24.5625,0.29,-3.94,9.09
1541188495361639976,452,0,/imu_data_acquisition2,198523.0,-0.128784179688,-0.207458496094,0.787048339844,0.566528320312,-26.1875,-1.75,-22.3125,0.59,-0.01,-0.01
1541188495372430086,453,0,/imu_data_acquisition2,198533.0,-6.103515625e-05,-6.103515625e-05,-6.103515625e-05,0.567565917969,-23.3125,-6.1875,-21.0,0.88,-0.01,-0.01
1541188495380871057,454,0,/imu_data_acquisition2,198542.0,-0.128967285156,-0.211547851562,0.784423828125,0.568542480469,-19.1875,-10.375,-20.8125,1.4,-1.02,-0.01
1541188495391498088,455,0,/imu_data_acquisition2,198553.0,-0.128356933594,-0.213439941406,0.783325195312,0.569580078125,-15.0,-14.1875,-0.0625,1.59,-3.47,9.29
1541188495401779890,456,0,/imu_data_acquisition2,198562.0,-0.127258300781,-0.21533203125,0.7822265625,0.570556640625,-11.125,-18.625,-21.9375,1.76,-0.01,-0.01
1541188495416238069,457,0,/imu_data_acquisition2,198576.0,-6.103515625e-05,-6.103515625e-05,-6.103515625e-05,0.571533203125,-7.625,-0.0625,-0.0625,1.93,-3.39,9.2
1541188495423949003,458,0,/imu_data_acquisition2,198585.0,-0.0142822265625,-6.103515625e-05,-6.103515625e-05,0.572570800781,-3.9375,-26.9375,-7.9375,1.99,-0.01,-0.01
1541188495433129072,459,0,/imu_data_acquisition2,198593.0,-0.121215820312,-0.220825195312,0.779357910156,0.573669433594,-1.1875,-31.1875,-25.5,1.98,-3.74,9.39
1541188495441152095,460,0,/imu_data_acquisition2,198603.0,-0.118347167969,-0.222717285156,0.778442382812,0.574829101562,1.5,-34.5,-27.25,1.92,-3.87,9.34
1541188495452347040,461,0,/imu_data_acquisition2,198613.0,-0.115173339844,-0.224548339844,0.777465820312,0.576110839844,3.5625,-0.0625,-0.0625,1.72,-4.06,9.17
1541188495461503982,462,0,/imu_data_acquisition2,198622.0,-6.103515625e-05,-6.103515625e-05,-6.103515625e-05,0.577392578125,4.875,-39.25,-30.6875,1.6,-4.18,9.08
1541188495471143960,463,0,/imu_data_acquisition2,198633.0,-0.108276367188,-0.228332519531,0.775390625,0.578735351562,5.75,-40.1875,-31.4375,1.52,-4.32,9.09
1541188495482939004,464,0,/imu_data_acquisition2,198643.0,-0.104675292969,-0.230224609375,0.774291992188,0.580078125,6.0,-40.8125,-31.875,1.17,-4.61,9.27
1541188495490204095,465,0,/imu_data_acquisition2,198652.0,-6.103515625e-05,-6.103515625e-05,-6.103515625e-05,0.581420898438,5.8125,-42.0625,-31.625,1.01,-4.64,9.29
1541188495501422882,466,0,/imu_data_acquisition2,198663.0,-0.0973510742188,-0.234252929688,0.772155761719,0.582641601562,4.875,-42.875,-30.875,0.84,-4.67,9.28
1541188495512892007,467,0,/imu_data_acquisition2,198673.0,-0.09375,-0.236389160156,0.771118164062,0.583679199219,3.625,-43.5,-29.25,0.66,-4.66,9.14
1541188495519869089,468,0,/imu_data_acquisition2,198682.0,-0.0902709960938,-0.238525390625,0.770202636719,0.584655761719,3.0625,-43.0,-27.375,0.35,-4.51,9.12
1541188495531747102,469,0,/imu_data_acquisition2,198692.0,-0.0869140625,-0.240661621094,0.769348144531,0.585388183594,1.8125,-42.9375,-24.3125,0.28,-4.8,9.0
1541188495542365074,470,0,/imu_data_acquisition2,198702.0,-0.0054931640625,-6.103515625e-05,-6.103515625e-05,0.5859375,2.1875,-42.0,-21.5,0.1,-4.59,9.07
1541188495550739049,471,0,/imu_data_acquisition2,198712.0,-0.0805053710938,-0.244873046875,0.76806640625,0.586242675781,1.125,-40.875,-17.625,0.01,-4.76,8.93
1541188495561603069,472,0,/imu_data_acquisition2,198722.0,-0.0775756835938,-0.246826171875,0.767639160156,0.586364746094,1.375,-39.875,-14.5625,-0.15,-4.61,8.9
1541188495571763038,473,0,/imu_data_acquisition2,198732.0,-0.0748291015625,-0.248779296875,0.767333984375,0.586303710938,0.75,-6.5,-0.0625,-0.14,-4.48,8.67
1541188495580451965,474,0,/imu_data_acquisition2,198742.0,-0.0723266601562,-0.250610351562,0.767211914062,0.585998535156,-0.3125,-36.0,-7.375,-0.18,-2.19,-0.01
1541188495591366052,475,0,/imu_data_acquisition2,198752.0,-0.070068359375,-0.252258300781,0.767150878906,0.585571289062,-0.125,-33.25,-4.625,-0.29,-4.67,8.43
1541188495601358890,476,0,/imu_data_acquisition2,198762.0,-0.0680541992188,-0.253784179688,0.767211914062,0.585083007812,-0.25,-30.375,-2.3125,-0.15,-4.87,8.13
1541188495611341953,477,0,/imu_data_acquisition2,198773.0,-0.0662231445312,-0.255126953125,0.767272949219,0.584655761719,-0.5625,-26.875,-1.8125,-0.04,-4.99,7.68
1541188495621377944,478,0,/imu_data_acquisition2,198782.0,-0.0647583007812,-0.25634765625,0.767272949219,0.584228515625,-1.0,-6.875,-0.0625,0.08,-2.49,-0.01
1541188495631937026,479,0,/imu_data_acquisition2,198793.0,-0.0635375976562,-0.257385253906,0.767272949219,0.583984375,-1.1875,-19.5,-2.125,0.12,-5.0,7.72
1541188495640661954,480,0,/imu_data_acquisition2,198802.0,-0.015625,-6.103515625e-05,-6.103515625e-05,0.583740234375,-2.5625,-16.8125,-2.375,0.23,-4.97,7.75
1541188495652358055,481,0,/imu_data_acquisition2,198813.0,-0.0617065429688,-0.259338378906,0.767028808594,0.583618164062,-3.375,-14.125,-0.0625,0.4,-2.35,-0.01
1541188495661323070,482,0,/imu_data_acquisition2,198822.0,-0.0610961914062,-0.260131835938,0.766845703125,0.583557128906,-3.6875,-11.1875,-3.5,0.45,-5.01,7.46
1541188495717576980,483,0,/imu_data_acquisition2,198832.0,-0.0606079101562,-0.260803222656,0.7666015625,0.583618164062,-3.8125,-8.5625,-4.25,0.53,-2.3,-0.01
1541188495785928964,484,0,/imu_data_acquisition2,198844.0,-0.060302734375,-0.261474609375,0.766296386719,0.583740234375,-4.0625,-6.5625,-0.0625,0.65,-4.86,7.48
1541188495789303064,485,0,/imu_data_acquisition2,198852.0,-0.060302734375,-0.261474609375,0.766296386719,0.583740234375,-4.875,-4.8125,-0.0625,0.65,-5.02,7.54
1541188495790862083,486,0,/imu_data_acquisition2,198863.0,-0.0599365234375,-0.262512207031,0.765625,0.584228515625,-4.4375,-3.625,-5.5625,0.69,-4.89,7.56
1541188495792529106,487,0,/imu_data_acquisition2,198873.0,-0.0598754882812,-0.263000488281,0.765258789062,0.58447265625,-4.625,-3.375,-5.375,0.73,-4.8,7.29
1541188495794336080,488,0,/imu_data_acquisition2,198882.0,-0.059814453125,-0.263549804688,0.764892578125,0.584716796875,-5.0625,-3.0,-5.0,0.75,-4.81,7.36
1541188495796030044,489,0,/imu_data_acquisition2,198892.0,-0.012939453125,-6.103515625e-05,-6.103515625e-05,0.584716796875,-5.6875,-2.875,-3.5625,0.73,-5.02,7.34
1541188495797883987,490,0,/imu_data_acquisition2,198902.0,-0.0621337890625,-0.263916015625,0.764953613281,0.584289550781,-5.625,-0.0625,-0.0625,0.8,-5.1,7.26
1541188495801219940,491,0,/imu_data_acquisition2,198912.0,-6.103515625e-05,-6.103515625e-05,-6.103515625e-05,0.583801269531,-5.6875,-2.75,-2.0625,0.85,-5.23,7.17
1541188495804266929,492,0,/imu_data_acquisition2,198922.0,-0.0667114257812,-0.0151977539062,-6.103515625e-05,0.583190917969,-6.625,-2.8125,-1.3125,0.87,-0.01,-0.01
1541188495806000947,493,0,/imu_data_acquisition2,198932.0,-6.103515625e-05,-6.103515625e-05,-6.103515625e-05,0.583190917969,-6.6875,-3.1875,-0.9375,0.86,-5.65,6.98
1541188495807096004,494,0,/imu_data_acquisition2,198942.0,-0.06689453125,-0.266357421875,0.764526367188,0.583129882812,-6.5,-2.75,-1.25,0.57,-5.77,6.53
1541188495809153079,495,0,/imu_data_acquisition2,198952.0,-0.0670166015625,-0.266906738281,0.764343261719,0.583129882812,-3.1875,1.125,-1.5625,-0.21,-4.24,4.74
1541188495811398029,496,0,/imu_data_acquisition2,198962.0,-0.0671997070312,-0.26708984375,0.76416015625,0.583251953125,-10.125,14.3125,6.75,-0.89,-6.36,5.6
1541188495812850952,497,0,/imu_data_acquisition2,198973.0,-0.0703125,-0.265808105469,0.76416015625,0.58349609375,0.625,23.8125,1.25,-5.29,-5.41,2.7
1541188495832117080,499,0,/imu_data_acquisition2,198992.0,-0.0728149414062,-0.260314941406,0.764770507812,0.584838867188,-25.25,111.75,45.6875,-0.12,-23.11,22.06
1541188495842611074,500,0,/imu_data_acquisition2,199003.0,-0.004150390625,-6.103515625e-05,-6.103515625e-05,0.584167480469,-25.25,111.75,45.6875,-0.12,-23.11,22.06
1541188495852595090,501,0,/imu_data_acquisition2,199013.0,-0.0751342773438,-0.249206542969,0.763549804688,0.591003417969,112.125,5.875,-92.4375,6.33,24.63,-2.05
1541188495861582994,502,0,/imu_data_acquisition2,199023.0,-0.0667724609375,-0.00592041015625,-6.103515625e-05,0.596130371094,52.4375,4.0,-12.25,2.12,-11.58,10.7
1541188495872733116,503,0,/imu_data_acquisition2,199034.0,-0.0615234375,-0.234741210938,0.763427734375,0.598571777344,90.25,-1.8125,-30.75,4.47,3.49,-0.01
1541188495881903886,504,0,/imu_data_acquisition2,199043.0,-0.0615234375,-0.234741210938,0.763427734375,0.598571777344,70.3125,24.6875,-17.0,3.54,-0.09,8.14
1541188495891710042,505,0,/imu_data_acquisition2,199053.0,-0.0592041015625,-0.229064941406,0.763793945312,0.600524902344,79.4375,-0.0625,-0.0625,4.16,1.25,7.55
1541188495904752969,506,0,/imu_data_acquisition2,199065.0,-0.056396484375,-0.222717285156,0.764099121094,0.602783203125,43.6875,44.1875,2.4375,3.88,-3.74,8.8
1541188495911398887,507,0,/imu_data_acquisition2,199073.0,-0.0570678710938,-0.217651367188,0.764831542969,0.603637695312,40.375,53.125,-0.0625,1.12,-2.75,11.06
1541188495923162937,508,0,/imu_data_acquisition2,199085.0,-0.059814453125,-0.207885742188,0.765319824219,0.606201171875,31.375,47.875,-3.9375,1.18,-0.01,-0.01
1541188495933727025,509,0,/imu_data_acquisition2,199094.0,-0.0609741210938,-0.204467773438,0.765258789062,0.607299804688,22.875,37.1875,-5.1875,1.14,-2.67,10.9
1541188495941688060,510,0,/imu_data_acquisition2,199103.0,-0.0609741210938,-0.204467773438,0.765258789062,0.607299804688,12.1875,-0.0625,-0.0625,1.34,-1.21,-0.01
1541188495952671051,511,0,/imu_data_acquisition2,199113.0,-0.0621337890625,-0.202270507812,0.765075683594,0.608215332031,12.1875,-0.0625,-0.0625,1.49,-3.52,9.65
1541188495961316108,512,0,/imu_data_acquisition2,199123.0,-6.103515625e-05,-6.103515625e-05,-6.103515625e-05,0.609130859375,3.9375,18.0,-7.375,1.35,-4.12,9.6
1541188495973577976,513,0,/imu_data_acquisition2,199133.0,-0.063720703125,-0.199401855469,0.764282226562,0.609924316406,2.125,-0.0625,-0.0625,1.4,-3.98,9.71
1541188495984745025,514,0,/imu_data_acquisition2,199144.0,-0.0643310546875,-0.198608398438,0.763854980469,0.610717773438,2.25,8.1875,-8.625,1.46,-4.13,9.14
1541188495990664958,515,0,/imu_data_acquisition2,199152.0,-0.0646362304688,-0.198120117188,0.763366699219,0.611389160156,2.25,-0.0625,-0.0625,1.61,-4.85,8.86
1541188496005750894,516,0,/imu_data_acquisition2,199163.0,-0.0645751953125,-0.19775390625,0.763061523438,0.611938476562,2.8125,3.8125,-7.1875,1.85,-4.71,8.66
1541188496012063980,517,0,/imu_data_acquisition2,199173.0,-0.0640258789062,-0.197204589844,0.762817382812,0.612487792969,16.1875,-0.0625,-0.0625,2.12,-0.01,-0.01
1541188496021955013,518,0,/imu_data_acquisition2,199183.0,-6.103515625e-05,-6.103515625e-05,-6.103515625e-05,0.612915039062,26.375,0.125,-4.375,2.03,-4.97,7.59
1541188496038605928,519,0,/imu_data_acquisition2,199194.0,-0.0616455078125,-0.00701904296875,-6.103515625e-05,0.613342285156,38.9375,1.75,-2.75,2.13,-5.43,7.66
1541188496044950962,520,0,/imu_data_acquisition2,199203.0,-0.0128173828125,-6.103515625e-05,-6.103515625e-05,0.61376953125,38.9375,1.75,-2.75,2.06,-5.46,6.97
1541188496051259040,521,0,/imu_data_acquisition2,199212.0,-0.0570678710938,-0.188171386719,0.764221191406,0.6142578125,55.0,4.0625,-2.5625,2.03,-0.01,-0.01
1541188496063715934,522,0,/imu_data_acquisition2,199224.0,-6.103515625e-05,-6.103515625e-05,-6.103515625e-05,0.61474609375,92.5625,16.0625,-0.375,2.03,-0.01,-0.01
1541188496072635889,523,0,/imu_data_acquisition2,199233.0,-0.0501708984375,-0.00439453125,-6.103515625e-05,0.615417480469,114.125,23.375,0.5,2.0,-4.85,7.5
1541188496083682060,524,0,/imu_data_acquisition2,199244.0,-0.0457763671875,-0.167663574219,0.768188476562,0.6162109375,134.9375,29.0625,1.625,2.03,-4.78,7.88
1541188496091764926,525,0,/imu_data_acquisition2,199252.0,-0.0406494140625,-0.157348632812,0.77001953125,0.617004394531,134.9375,29.0625,1.625,2.03,-2.22,-0.01
1541188496102725982,526,0,/imu_data_acquisition2,199263.0,-0.0348510742188,-0.00506591796875,-6.103515625e-05,0.61767578125,168.375,34.875,2.375,1.74,-3.67,9.11
1541188496113611936,527,0,/imu_data_acquisition2,199275.0,-0.0283813476562,-0.132873535156,0.774047851562,0.618408203125,172.0625,31.875,1.375,0.8,0.84,12.24
1541188496123588085,528,0,/imu_data_acquisition2,199283.0,-0.005859375,-6.103515625e-05,-6.103515625e-05,0.619018554688,149.4375,21.875,1.9375,1.76,2.75,12.16
1541188496135304927,529,0,/imu_data_acquisition2,199294.0,-0.01513671875,-6.103515625e-05,-6.103515625e-05,0.619323730469,107.3125,22.75,-6.6875,-0.22,5.07,13.5
1541188496144208908,530,0,/imu_data_acquisition2,199305.0,-0.0109252929688,-0.100708007812,0.777954101562,0.620056152344,107.3125,22.75,-6.6875,1.17,0.01,10.81
1541188496153273105,531,0,/imu_data_acquisition2,199312.0,-0.0087890625,-0.096435546875,0.777954101562,0.620788574219,55.25,12.5,-8.375,1.17,0.01,10.81
1541188496169307947,532,0,/imu_data_acquisition2,199326.0,-0.0067138671875,-0.0148315429688,-6.103515625e-05,0.622619628906,7.125,1.6875,-8.3125,1.64,-0.37,10.48
1541188496173155069,533,0,/imu_data_acquisition2,199334.0,-0.0067138671875,-0.0929565429688,0.776977539062,0.622619628906,-5.0,-1.9375,-5.875,1.89,-0.83,9.75
1541188496184612035,534,0,/imu_data_acquisition2,199344.0,-6.103515625e-05,-6.103515625e-05,-6.103515625e-05,0.622985839844,-10.0625,0.25,-5.3125,1.58,-1.41,10.03
1541188496191821098,535,0,/imu_data_acquisition2,199353.0,-0.00726318359375,-0.0940551757812,0.776245117188,0.623352050781,-10.0625,0.25,-5.3125,1.55,-1.64,9.8
1541188496204850912,536,0,/imu_data_acquisition2,199366.0,-0.00799560546875,-0.0949096679688,0.775939941406,0.623596191406,-13.625,0.9375,-3.0625,1.38,-1.69,9.74
1541188496213021993,537,0,/imu_data_acquisition2,199373.0,-0.0087890625,-0.0957641601562,0.775634765625,0.623779296875,-12.5,-0.0625,-0.0625,1.17,-2.12,9.53
1541188496223678112,538,0,/imu_data_acquisition2,199384.0,-0.0093994140625,-0.0966186523438,0.775451660156,0.623901367188,-10.5,-1.0625,-1.75,1.33,-2.01,9.55
1541188496235174894,539,0,/imu_data_acquisition2,199395.0,-0.0098876953125,-0.0973510742188,0.775268554688,0.6240234375,-8.9375,-1.5625,-0.75,1.23,-2.28,9.38
1541188496240209102,540,0,/imu_data_acquisition2,199402.0,-0.01025390625,-0.0980224609375,0.775146484375,0.6240234375,-8.9375,-1.5625,-0.75,1.23,-2.28,9.38
1541188496254612922,541,0,/imu_data_acquisition2,199413.0,-0.0103759765625,-0.098388671875,0.775085449219,0.624084472656,-4.6875,-1.75,-0.6875,1.63,-2.34,9.3
1541188496264027118,542,0,/imu_data_acquisition2,199425.0,-0.01025390625,-0.098388671875,0.775085449219,0.6240234375,8.625,0.3125,-0.75,1.5,-2.35,9.39
1541188496273556947,543,0,/imu_data_acquisition2,199434.0,-0.009765625,-0.0977783203125,0.775146484375,0.624084472656,14.25,1.3125,-0.0625,1.84,-1.89,9.5
1541188496285797119,544,0,/imu_data_acquisition2,199445.0,-0.00909423828125,-0.0968017578125,0.775207519531,0.624145507812,19.5,1.6875,-0.25,1.83,-2.26,9.5
1541188496292711019,545,0,/imu_data_acquisition2,199453.0,-0.0081787109375,-0.0953979492188,0.775390625,0.624206542969,19.5,1.6875,-0.0625,1.83,-2.26,9.5
1541188496301364898,546,0,/imu_data_acquisition2,199462.0,-0.007080078125,-6.103515625e-05,-6.103515625e-05,0.624267578125,23.625,2.75,-0.0625,1.93,-2.05,9.38
1541188496313644886,547,0,/imu_data_acquisition2,199474.0,-0.00592041015625,-0.091552734375,0.775634765625,0.62451171875,32.1875,6.9375,-0.0625,1.54,-1.62,9.61
1541188496324635028,548,0,/imu_data_acquisition2,199484.0,-0.004638671875,-6.103515625e-05,-6.103515625e-05,0.624755859375,32.1875,6.9375,-2.6875,1.45,-1.42,9.79
1541188496336210012,549,0,/imu_data_acquisition2,199496.0,-0.00335693359375,-0.08642578125,0.775756835938,0.625061035156,32.75,8.5,-0.0625,1.4,-1.12,9.93
1541188496344243049,550,0,/imu_data_acquisition2,199503.0,-6.103515625e-05,-6.103515625e-05,-6.103515625e-05,0.625366210938,32.75,8.5,-3.8125,1.4,-1.12,9.93
1541188496351564884,551,0,/imu_data_acquisition2,199513.0,-6.103515625e-05,-6.103515625e-05,-6.103515625e-05,0.625610351562,28.1875,6.9375,-2.5625,1.64,-1.01,10.06
1541188496363960981,552,0,/imu_data_acquisition2,199524.0,-6.103515625e-05,-6.103515625e-05,-6.103515625e-05,0.625732421875,18.125,3.75,-0.0625,1.47,-0.01,-0.01
1541188496373116970,553,0,/imu_data_acquisition2,199534.0,0.0006103515625,-0.0784301757812,0.776000976562,0.625854492188,14.1875,2.4375,-0.0625,1.65,-0.85,-0.01
1541188496386540889,554,0,/imu_data_acquisition2,199545.0,0.00115966796875,-0.0773315429688,0.776062011719,0.625915527344,9.8125,1.6875,-0.0625,1.46,-1.08,9.92
1541188496391134977,555,0,/imu_data_acquisition2,199553.0,0.0015869140625,-0.0765991210938,0.776062011719,0.6259765625,9.8125,1.6875,-0.0625,1.46,-0.01,-0.01
1541188496407257080,556,0,/imu_data_acquisition2,199564.0,0.00189208984375,-0.076171875,0.776123046875,0.6259765625,6.125,0.8125,-0.25,1.68,-1.22,-0.01
1541188496415714979,557,0,/imu_data_acquisition2,199573.0,0.0025634765625,-0.0762329101562,0.776123046875,0.6259765625,4.6875,-0.0625,-0.0625,1.62,-1.44,9.77
1541188496422760009,558,0,/imu_data_acquisition2,199584.0,0.00286865234375,-0.0760498046875,0.776123046875,0.6259765625,4.125,-0.0625,-0.0625,1.69,-0.01,-0.01
1541188496439182996,559,0,/imu_data_acquisition2,199595.0,0.00323486328125,-0.0758056640625,0.776123046875,0.6259765625,4.625,-1.5625,-0.6875,1.67,-1.54,9.79
1541188496441829919,560,0,/imu_data_acquisition2,199602.0,0.0035400390625,-0.0755615234375,0.776184082031,0.6259765625,4.875,-0.0625,-0.0625,1.67,-1.54,9.79
1541188496452184915,561,0,/imu_data_acquisition2,199613.0,0.0040283203125,-0.0751342773438,0.776184082031,0.626037597656,7.1875,-1.125,-0.625,1.34,-1.74,9.85
1541188496463922977,562,0,/imu_data_acquisition2,199625.0,0.00457763671875,-0.0120849609375,-6.103515625e-05,0.626037597656,8.75,-1.0625,-0.375,1.37,-1.35,9.49
1541188496474961042,563,0,/imu_data_acquisition2,199635.0,0.0052490234375,-0.0739135742188,0.776245117188,0.626098632812,11.875,-0.0625,-0.0625,1.58,-1.17,9.65
1541188496483418941,564,0,/imu_data_acquisition2,199645.0,0.006103515625,-0.0736694335938,0.776245117188,0.626098632812,12.5625,-0.0625,-0.0625,1.35,-0.01,-0.01
1541188496493196964,565,0,/imu_data_acquisition2,199652.0,0.0068359375,-0.0728759765625,0.776245117188,0.626159667969,12.5625,-0.625,-0.9375,1.35,-1.24,9.85
1541188496503432035,566,0,/imu_data_acquisition2,199662.0,0.0074462890625,-0.0720825195312,0.776306152344,0.626159667969,11.5625,-0.3125,-0.4375,1.39,-0.01,-0.01
1541188496513509035,567,0,/imu_data_acquisition2,199675.0,0.00799560546875,-0.0714111328125,0.7763671875,0.626159667969,10.8125,0.0,-0.6875,1.48,-0.87,9.74
1541188496524508953,568,0,/imu_data_acquisition2,199684.0,-6.103515625e-05,-6.103515625e-05,-6.103515625e-05,0.626159667969,8.5,-0.3125,-0.0625,1.52,-0.94,-0.01
1541188496534133911,569,0,/imu_data_acquisition2,199694.0,-6.103515625e-05,-6.103515625e-05,-6.103515625e-05,0.626159667969,6.4375,-0.0625,-0.0625,2.01,-0.89,9.77
1541188496542542934,570,0,/imu_data_acquisition2,199703.0,0.0091552734375,-0.0701904296875,0.776489257812,0.626159667969,4.3125,-1.875,-0.1875,2.01,-0.89,9.77
1541188496552443027,571,0,/imu_data_acquisition2,199712.0,-6.103515625e-05,-6.103515625e-05,-6.103515625e-05,0.626159667969,2.4375,-1.5625,-0.125,1.97,-1.06,9.93
