%time,field.header.seq,field.header.stamp,field.header.frame_id,field.time_stamp,field.quat_x,field.quat_y,field.quat_z,field.quat_w,field.gyro_x,field.gyro_y,field.gyro_z,field.accel_x,field.accel_y,field.accel_z
1542402254634268999,60,0,/imu_data_acquisition2,24190.0,-0.131225585938,0.09912109375,0.677856445312,0.716552734375,35.125,-266.8125,7.6875,-3.79,2.33,9.13
1542402254644018888,61,0,/imu_data_acquisition2,24200.0,-0.114013671875,0.086181640625,0.680847167969,0.718322753906,40.875,-254.9375,10.875,-3.88,2.32,9.59
1542402254655728101,62,0,/imu_data_acquisition2,24211.0,-0.0972900390625,0.0743408203125,0.683532714844,0.719604492188,45.9375,-239.75,13.75,-5.72,3.74,13.43
1542402254678771018,63,0,/imu_data_acquisition2,24222.0,-0.08056640625,0.0640258789062,0.68603515625,0.720275878906,57.5625,-227.5,18.625,-6.06,4.17,12.39
1542402254679713010,64,0,/imu_data_acquisition2,24232.0,-0.0633544921875,0.0547485351562,0.688842773438,0.720092773438,66.75,-211.6875,43.25,-6.45,3.41,11.3
1542402254683643102,65,0,/imu_data_acquisition2,24239.0,-0.0467529296875,0.0460205078125,0.692138671875,0.71875,66.75,-211.6875,43.25,-6.45,3.41,11.3
1542402254695575952,66,0,/imu_data_acquisition2,24251.0,-0.03173828125,0.0377197265625,0.695922851562,0.716430664062,57.1875,-194.4375,54.9375,-7.47,0.58,10.63
1542402254709887027,67,0,/imu_data_acquisition2,24263.0,-0.0181274414062,0.0307006835938,0.699951171875,0.713317871094,60.5625,-147.375,68.3125,-8.69,-1.28,11.6
1542402254716387033,68,0,/imu_data_acquisition2,24272.0,-0.005615234375,0.0255126953125,0.704040527344,0.709655761719,60.5625,-147.375,68.3125,-10.75,-1.6,13.21
1542402254735069036,70,0,/imu_data_acquisition2,24289.0,0.017822265625,0.021240234375,0.712036132812,0.701599121094,85.4375,-105.1875,70.5625,-12.08,-1.25,14.35
1542402254744642972,71,0,/imu_data_acquisition2,24300.0,0.029052734375,0.0213623046875,0.715881347656,0.697265625,94.375,-91.5,71.0625,-13.49,-0.68,15.8
1542402254759767055,72,0,/imu_data_acquisition2,24313.0,0.0400390625,0.0219116210938,0.7197265625,0.692749023438,87.4375,-96.125,74.1875,-18.35,0.84,21.85
1542402254774147033,73,0,/imu_data_acquisition2,24329.0,0.0625610351562,0.0177001953125,0.727172851562,0.683349609375,63.875,-124.0625,74.5625,-17.94,0.69,18.95
1542402254779218912,74,0,/imu_data_acquisition2,24334.0,0.07373046875,0.00994873046875,0.730346679688,0.679016113281,26.25,-155.3125,71.4375,-16.95,-0.64,13.88
1542402254789305925,75,0,/imu_data_acquisition2,24343.0,0.07373046875,0.00994873046875,0.730346679688,0.679016113281,26.25,-155.3125,71.4375,-15.3,-3.79,4.66
1542402254795341014,76,0,/imu_data_acquisition2,24350.0,0.0838012695312,-0.00079345703125,0.73291015625,0.675109863281,-8.6875,-170.875,64.6875,-15.3,-3.79,4.66
1542402254806713104,77,0,/imu_data_acquisition2,24362.0,0.0925903320312,-0.01220703125,0.734741210938,0.671875,-26.1875,-165.75,54.1875,-14.21,-4.74,-0.22
1542402254818408012,78,0,/imu_data_acquisition2,24373.0,0.100036621094,-0.0222778320312,0.735778808594,0.66943359375,-25.0,-144.125,39.5625,-12.69,-3.36,-2.24
1542402254828691959,79,0,/imu_data_acquisition2,24383.0,0.106140136719,-0.02978515625,0.736206054688,0.667724609375,-14.8125,-112.6875,25.0625,-12.37,-2.79,-2.08
1542402254836061954,80,0,/imu_data_acquisition2,24391.0,0.1103515625,-0.0345458984375,0.736267089844,0.666748046875,-7.3125,-74.8125,13.6875,-12.37,-2.79,-2.08
1542402254845884084,81,0,/imu_data_acquisition2,24400.0,0.111999511719,-0.0369873046875,0.736267089844,0.666320800781,-7.5625,-33.1875,6.125,-12.58,-2.7,-1.28
1542402254857578992,82,0,/imu_data_acquisition2,24412.0,0.110717773438,-0.0372314453125,0.736328125,0.66650390625,-12.6875,9.3125,0.4375,-14.0,-4.71,-5.68
1542402254867507934,83,0,/imu_data_acquisition2,24422.0,0.104125976562,-0.033935546875,0.736572265625,0.66748046875,-24.0625,84.25,-8.375,4.92,-0.47,16.43
1542402254879012107,84,0,/imu_data_acquisition2,24433.0,0.0943603515625,-0.0283203125,0.735961914062,0.669860839844,-31.625,129.75,-28.25,2.94,0.37,19.72
1542402254885225057,85,0,/imu_data_acquisition2,24440.0,0.0848999023438,-0.0218505859375,0.734924316406,0.672424316406,-21.375,133.1875,-34.8125,2.94,0.37,19.72
1542402254895261049,86,0,/imu_data_acquisition2,24450.0,0.0769653320312,-0.0157470703125,0.733764648438,0.6748046875,-12.875,116.875,-33.75,-0.71,0.89,4.85
1542402254905319929,87,0,/imu_data_acquisition2,24461.0,0.0694580078125,-0.0098876953125,0.732238769531,0.677429199219,-11.9375,111.75,-39.1875,-0.04,0.93,7.37
1542402254920361042,88,0,/imu_data_acquisition2,24474.0,0.0609741210938,-0.00311279296875,0.730773925781,0.679870605469,1.6875,130.0,-28.9375,-3.04,3.64,14.81
1542402254928997993,89,0,/imu_data_acquisition2,24483.0,0.0531005859375,0.004638671875,0.729736328125,0.681640625,1.6875,130.0,-28.9375,-2.28,2.92,12.79
1542402254933854103,90,0,/imu_data_acquisition2,24489.0,0.045654296875,0.011474609375,0.729125976562,0.682739257812,-1.0,118.8125,-18.875,-2.28,2.92,12.79
1542402254945287942,91,0,/imu_data_acquisition2,24500.0,0.0386962890625,0.0172729492188,0.728942871094,0.683288574219,-6.5625,106.875,-10.25,-1.71,2.65,12.26
1542402254958703041,92,0,/imu_data_acquisition2,24512.0,0.0321655273438,0.022705078125,0.729125976562,0.683227539062,-6.0,100.5,-1.625,-1.62,2.12,13.98
1542402254970283985,93,0,/imu_data_acquisition2,24523.0,0.0255737304688,0.0274658203125,0.729553222656,0.682861328125,-11.875,95.3125,2.8125,-5.81,-1.16,22.26
1542402254978009939,94,0,/imu_data_acquisition2,24533.0,0.018798828125,0.0303955078125,0.730346679688,0.68212890625,-29.75,82.5625,9.5625,-1.64,-1.97,11.14
1542402254986509084,95,0,/imu_data_acquisition2,24540.0,0.01416015625,0.0311279296875,0.731201171875,0.681274414062,-31.0,47.0,12.0625,-1.64,-1.97,11.14
1542402254994587898,96,0,/imu_data_acquisition2,24550.0,0.0111694335938,0.0318603515625,0.731689453125,0.680786132812,-17.8125,31.9375,7.375,-1.19,1.43,11.72
1542402255011360883,97,0,/imu_data_acquisition2,24563.0,0.0087890625,0.0328369140625,0.732177734375,0.680297851562,-11.5,28.625,6.8125,-0.97,0.36,10.87
1542402255018291950,98,0,/imu_data_acquisition2,24573.0,0.006591796875,0.0333862304688,0.732482910156,0.679931640625,-12.375,23.75,4.75,-1.0,0.34,11.32
1542402255027616024,99,0,/imu_data_acquisition2,24583.0,0.00469970703125,0.03369140625,0.732727050781,0.679626464844,-12.6875,18.75,3.6875,-0.68,0.18,9.92
1542402255044285058,100,0,/imu_data_acquisition2,24596.0,0.00323486328125,0.0338134765625,0.73291015625,0.679504394531,-8.8125,9.6875,1.0625,-0.66,-0.05,9.64
1542402255051441907,101,0,/imu_data_acquisition2,24603.0,0.00213623046875,0.0338134765625,-6.103515625e-05,0.679382324219,-8.8125,9.6875,1.0625,-0.68,0.48,10.1
1542402255058599948,102,0,/imu_data_acquisition2,24613.0,0.001220703125,0.033935546875,0.733032226562,0.679321289062,-2.75,7.5,1.625,-0.67,0.77,10.5
1542402255073949098,103,0,/imu_data_acquisition2,24624.0,0.0006103515625,0.0342407226562,0.733154296875,0.67919921875,-2.75,7.5,1.625,-0.43,0.65,10.24
1542402255078067064,104,0,/imu_data_acquisition2,24633.0,6.103515625e-05,0.0344848632812,0.733276367188,0.679077148438,-2.3125,6.9375,1.3125,-0.43,0.65,10.24
1542402255085711002,105,0,/imu_data_acquisition2,24641.0,-0.0003662109375,0.0346069335938,0.733276367188,0.679016113281,-2.375,5.125,0.875,-0.49,0.53,10.3
1542402255100756883,106,0,/imu_data_acquisition2,24652.0,-0.00048828125,0.0348510742188,0.733337402344,0.678955078125,0.6875,2.6875,0.625,-0.86,0.43,10.36
1542402255111484050,107,0,/imu_data_acquisition2,24667.0,-0.00067138671875,0.0350341796875,0.7333984375,0.678894042969,2.625,0.9375,0.5,-0.48,0.71,10.11
1542402255117369890,108,0,/imu_data_acquisition2,24673.0,-0.00054931640625,0.0352783203125,-6.103515625e-05,0.678894042969,2.625,0.9375,0.5,-0.48,0.71,10.11
1542402255130810022,109,0,/imu_data_acquisition2,24685.0,-0.00030517578125,0.0355224609375,0.733337402344,0.678894042969,3.5,0.4375,0.0625,-0.7,0.67,9.94
1542402255141772031,110,0,/imu_data_acquisition2,24695.0,-0.0001220703125,0.0357666015625,0.733337402344,0.678894042969,3.25,0.0,-0.3125,-0.82,0.75,10.57
1542402255145869970,111,0,/imu_data_acquisition2,24701.0,6.103515625e-05,0.0359497070312,0.733337402344,0.678894042969,3.25,0.0,-0.3125,-0.82,-0.01,-0.01
1542402255155313014,112,0,/imu_data_acquisition2,24709.0,0.00030517578125,0.0360717773438,0.733337402344,0.678894042969,3.3125,-1.0625,-0.4375,-0.64,0.84,9.99
1542402255167622089,113,0,/imu_data_acquisition2,24722.0,0.00054931640625,0.036376953125,0.733276367188,0.678955078125,2.875,-0.9375,-0.625,-0.66,0.83,9.95
1542402255178776025,114,0,/imu_data_acquisition2,24734.0,0.00079345703125,0.03662109375,0.733215332031,0.679016113281,2.125,-1.1875,-0.6875,-0.62,0.87,10.05
1542402255183829069,115,0,/imu_data_acquisition2,24739.0,0.0009765625,0.0366821289062,0.733154296875,0.679077148438,1.4375,-0.875,-0.75,-0.62,0.87,-0.01
1542402255197968959,116,0,/imu_data_acquisition2,24753.0,0.00103759765625,0.0366821289062,0.733154296875,0.679077148438,0.875,-0.6875,-0.75,-0.88,0.52,10.01
1542402255207386016,117,0,/imu_data_acquisition2,24762.0,0.00115966796875,0.0367431640625,0.733093261719,0.679138183594,1.25,-0.75,-0.6875,-0.85,0.68,10.3
1542402255215008020,118,0,/imu_data_acquisition2,24770.0,0.00128173828125,0.0368041992188,0.733093261719,0.679138183594,1.3125,-1.125,-0.5,-0.52,0.63,9.67
1542402255229223012,119,0,/imu_data_acquisition2,24784.0,0.0013427734375,0.0369873046875,0.733093261719,0.679138183594,1.375,-0.375,-0.25,-0.79,0.58,9.94
1542402255236543893,120,0,/imu_data_acquisition2,24790.0,0.00140380859375,0.037109375,0.733032226562,0.679138183594,1.6875,-0.8125,0.0,-0.72,0.5,9.96
1542402255244321107,121,0,/imu_data_acquisition2,24800.0,0.00152587890625,0.037353515625,0.733032226562,0.679138183594,1.9375,-0.5625,0.3125,-0.6,0.86,10.01
1542402255259469032,122,0,/imu_data_acquisition2,24810.0,0.0015869140625,0.03759765625,0.733032226562,0.679138183594,1.4375,-0.125,0.0,-0.72,0.85,9.85
1542402255267827987,123,0,/imu_data_acquisition2,24822.0,0.00164794921875,0.0377197265625,0.733032226562,0.679138183594,0.9375,-0.1875,0.1875,-0.59,0.72,9.66
1542402255276204109,124,0,/imu_data_acquisition2,24832.0,0.001708984375,0.037841796875,0.733032226562,0.679138183594,0.125,0.3125,0.1875,-0.5,0.91,9.8
1542402255290841102,125,0,/imu_data_acquisition2,24841.0,0.00164794921875,0.0382080078125,0.733032226562,0.679138183594,-0.5625,1.1875,0.0625,-0.87,0.9,9.97
1542402255296427011,126,0,/imu_data_acquisition2,24851.0,0.00152587890625,0.0383911132812,0.733032226562,0.679138183594,-0.75,1.1875,-0.3125,-0.72,0.78,9.83
1542402255305641889,127,0,/imu_data_acquisition2,24861.0,0.0013427734375,0.0385131835938,0.733032226562,0.679138183594,-0.8125,1.5,-0.1875,-0.54,0.6,9.88
1542402255321089982,128,0,/imu_data_acquisition2,24872.0,0.001220703125,0.0386962890625,-6.103515625e-05,0.679077148438,-0.5,2.0,0.0625,-0.6,0.71,9.65
1542402255325670003,129,0,/imu_data_acquisition2,24880.0,0.00103759765625,0.0389404296875,0.733032226562,0.679077148438,-0.6875,2.5625,0.25,-0.74,0.76,9.79
1542402255334985971,130,0,/imu_data_acquisition2,24890.0,0.00079345703125,0.0391845703125,0.733032226562,0.679077148438,-0.75,2.6875,0.4375,-0.75,0.79,9.89
1542402255351927995,131,0,/imu_data_acquisition2,24900.0,0.00054931640625,0.0394287109375,0.733032226562,0.679077148438,-1.125,3.3125,0.5,-0.76,0.67,9.93
1542402255355727910,132,0,/imu_data_acquisition2,24910.0,0.000244140625,0.0396118164062,0.733032226562,0.679016113281,-1.3125,3.3125,0.6875,-0.67,0.8,9.76
1542402255365480899,133,0,/imu_data_acquisition2,24921.0,-0.0001220703125,0.0398559570312,0.733093261719,0.679016113281,-1.9375,3.5625,0.5625,-0.75,0.81,9.83
1542402255378540992,134,0,/imu_data_acquisition2,24931.0,-0.00042724609375,0.0401000976562,0.733093261719,0.678955078125,-2.8125,4.125,0.375,-0.49,0.99,9.74
1542402255386181116,135,0,/imu_data_acquisition2,24940.0,-0.0009765625,0.0404052734375,0.733093261719,0.678955078125,-4.0625,5.875,0.1875,-0.84,0.94,9.94
1542402255395076036,136,0,/imu_data_acquisition2,24950.0,-0.0015869140625,0.0407104492188,-6.103515625e-05,0.678894042969,-5.0625,6.375,0.125,-0.82,0.88,9.82
1542402255408559083,137,0,/imu_data_acquisition2,24960.0,-0.0023193359375,0.0410766601562,0.733093261719,0.678894042969,-6.0,7.125,-0.125,-0.84,0.99,9.77
1542402255416526079,138,0,/imu_data_acquisition2,24970.0,-0.00311279296875,0.0413818359375,0.733093261719,0.678833007812,-6.9375,7.625,-0.1875,-0.79,0.82,9.8
1542402255426007032,139,0,/imu_data_acquisition2,24980.0,-0.00408935546875,0.0416259765625,0.733093261719,0.678833007812,-7.75,8.3125,-0.6875,-0.99,-0.01,-0.01
1542402255436899900,140,0,/imu_data_acquisition2,24991.0,-0.005126953125,-6.103515625e-05,-6.103515625e-05,0.678833007812,-8.5,8.75,-0.8125,-1.08,1.02,10.05
1542402255445933103,141,0,/imu_data_acquisition2,25000.0,-0.00616455078125,0.042236328125,0.733032226562,0.678833007812,-8.75,8.6875,-1.0,-0.73,0.62,9.89
1542402255456276893,142,0,/imu_data_acquisition2,25010.0,-0.00732421875,0.0424194335938,0.732971191406,0.678894042969,-9.0,9.75,-1.0625,-0.93,0.62,9.76
1542402255463922977,143,0,/imu_data_acquisition2,25019.0,-0.00848388671875,0.0425415039062,0.732971191406,0.678894042969,-9.0,10.5,-1.125,-0.76,0.57,9.68
1542402255476305961,144,0,/imu_data_acquisition2,25031.0,-0.00970458984375,0.0426635742188,0.73291015625,0.678894042969,-8.625,11.375,-0.8125,-0.88,0.46,9.81
1542402255486695051,145,0,/imu_data_acquisition2,25040.0,-0.0109252929688,0.0427856445312,0.73291015625,0.678894042969,-8.3125,12.0625,-0.875,-0.83,0.6,9.9
1542402255494266033,146,0,/imu_data_acquisition2,25050.0,-0.0121459960938,0.0430297851562,0.732849121094,0.678894042969,-8.125,12.6875,-1.0625,-0.98,0.49,9.85
1542402255506544113,147,0,/imu_data_acquisition2,25060.0,-0.0134887695312,0.0433959960938,0.732788085938,0.678955078125,-8.0,13.375,-1.1875,-0.92,0.59,9.95
1542402255517055988,148,0,/imu_data_acquisition2,25070.0,-0.0147705078125,0.0438232421875,0.732727050781,0.678955078125,-7.5625,14.5625,-1.5625,-0.87,0.71,10.03
1542402255524379968,149,0,/imu_data_acquisition2,25080.0,-0.0161743164062,0.0442504882812,0.732604980469,0.679016113281,-7.5625,15.1875,-1.75,-0.75,0.47,9.8
1542402255536243915,150,0,/imu_data_acquisition2,25091.0,-0.0176391601562,0.0447387695312,0.732482910156,0.679077148438,-7.75,-0.0625,-0.0625,-1.18,0.44,10.17
1542402255546792030,151,0,/imu_data_acquisition2,25100.0,-0.0191650390625,0.0452880859375,0.732421875,0.679077148438,-7.3125,17.125,-0.0625,-1.17,0.43,9.93
1542402255554395914,152,0,/imu_data_acquisition2,25109.0,-0.0206298828125,0.0458984375,-6.103515625e-05,0.679138183594,-6.75,16.9375,-2.25,-1.09,0.36,9.88
1542402255566443920,153,0,/imu_data_acquisition2,25121.0,-0.0220947265625,0.0465087890625,0.732116699219,0.67919921875,-6.5,17.8125,-2.125,-1.2,0.38,9.81
1542402255577244043,154,0,/imu_data_acquisition2,25131.0,-0.0235595703125,0.047119140625,0.731994628906,0.679260253906,-6.0625,17.9375,-2.1875,-1.12,0.23,9.87
1542402255584321022,155,0,/imu_data_acquisition2,25140.0,-0.0250854492188,0.0478515625,0.731811523438,0.679321289062,-5.625,18.75,-2.5,-1.04,0.34,9.98
1542402255596193075,156,0,/imu_data_acquisition2,25151.0,-0.026611328125,0.0486450195312,0.731628417969,0.679443359375,-5.6875,19.625,-2.875,-1.13,0.3,10.03
1542402255607175111,157,0,/imu_data_acquisition2,25160.0,-0.0282592773438,0.0494384765625,0.7314453125,0.679504394531,-5.625,20.25,-3.1875,-1.17,0.38,9.92
1542402255614335060,158,0,/imu_data_acquisition2,25170.0,-0.0142822265625,-6.103515625e-05,-6.103515625e-05,0.6796875,-5.875,21.0625,-4.0,-1.77,1.64,9.88
1542402255626831054,159,0,/imu_data_acquisition2,25180.0,-0.031494140625,0.05126953125,0.73095703125,0.679809570312,-4.1875,21.8125,-3.5625,-1.13,0.18,9.69
1542402255637434959,160,0,/imu_data_acquisition2,25191.0,-0.0330810546875,0.05224609375,0.730590820312,0.679992675781,-4.0625,21.75,-4.875,-0.9,-0.27,9.87
1542402255644404888,161,0,/imu_data_acquisition2,25200.0,-0.0347290039062,0.0532836914062,0.730224609375,0.680236816406,-3.4375,22.5,-5.5,-1.36,0.07,10.31
1542402255665110111,163,0,/imu_data_acquisition2,25220.0,-0.0379028320312,0.0556640625,0.729431152344,0.680725097656,-2.0,23.8125,-6.1875,-1.18,0.4,9.69
1542402255674588918,164,0,/imu_data_acquisition2,25230.0,-0.03955078125,0.0570678710938,0.72900390625,0.680969238281,-1.4375,25.8125,-6.5625,-1.12,0.65,9.83
1542402255696485042,166,0,/imu_data_acquisition2,25251.0,-0.0433349609375,0.0606079101562,0.727966308594,0.681518554688,1.25,32.5,-7.1875,-1.08,0.28,9.98
1542402255704535961,167,0,/imu_data_acquisition2,25260.0,-0.0454711914062,0.062744140625,0.727416992188,0.681823730469,1.6875,35.8125,-7.75,-1.17,0.44,10.41
1542402255715972900,168,0,/imu_data_acquisition2,25270.0,-0.0477905273438,0.0650634765625,0.726745605469,0.68212890625,2.0,39.0,-8.1875,-1.19,0.35,9.83
1542402255730237007,169,0,/imu_data_acquisition2,25284.0,-0.0504150390625,0.067626953125,0.726013183594,0.682434082031,1.8125,42.9375,-9.125,-1.1,-0.24,10.05
1542402255735238075,170,0,/imu_data_acquisition2,25290.0,-0.0532836914062,0.0703735351562,0.725219726562,0.682861328125,0.9375,46.9375,-10.875,-1.3,-0.24,10.25
1542402255746402025,171,0,/imu_data_acquisition2,25302.0,-0.0565185546875,0.0732421875,0.724304199219,0.683227539062,0.375,51.25,-11.5,-1.65,0.65,10.34
1542402255756541013,172,0,/imu_data_acquisition2,25311.0,-0.06005859375,0.0763549804688,0.723327636719,0.683654785156,-1.1875,56.0625,-12.1875,-1.38,0.12,10.1
1542402255764884948,173,0,/imu_data_acquisition2,25320.0,-0.0641479492188,0.0795288085938,0.722229003906,0.68408203125,-4.25,61.25,-13.625,-1.93,0.83,9.8
1542402255790123939,175,0,/imu_data_acquisition2,25340.0,-0.0736694335938,0.0860595703125,0.719787597656,0.684936523438,-10.625,70.5,-17.0,-1.92,0.55,-0.01
1542402255794791936,176,0,/imu_data_acquisition2,25350.0,-0.0792236328125,0.0892944335938,0.71826171875,0.685485839844,-15.3125,74.3125,-4.0625,-1.77,0.81,9.36
1542402255805839061,177,0,/imu_data_acquisition2,25360.0,-0.0855712890625,0.0924682617188,0.716674804688,0.685913085938,-22.375,80.1875,-19.9375,-1.87,0.62,9.93
1542402255817501068,178,0,/imu_data_acquisition2,25371.0,-0.0923461914062,0.0958251953125,0.714965820312,0.686401367188,-24.25,86.0625,-22.25,-2.51,-0.01,-0.01
1542402255825484037,179,0,/imu_data_acquisition2,25380.0,-0.0991821289062,0.099365234375,0.712829589844,0.687133789062,-22.5625,88.5,-27.75,-3.07,0.08,10.61
1542402255835927963,180,0,/imu_data_acquisition2,25390.0,-0.105346679688,0.103698730469,0.710571289062,0.687927246094,-9.625,88.6875,-27.125,-3.21,0.22,9.87
1542402255847177982,181,0,/imu_data_acquisition2,25401.0,-0.11083984375,0.109008789062,0.708374023438,0.688537597656,3.5,91.8125,-22.625,-1.74,0.37,9.97
1542402255854365110,182,0,/imu_data_acquisition2,25410.0,-0.116577148438,0.114807128906,0.70556640625,0.689453125,6.5625,97.8125,-30.5,-2.82,0.8,9.85
1542402255865627050,183,0,/imu_data_acquisition2,25420.0,-0.122924804688,0.120788574219,0.702392578125,0.690612792969,3.8125,104.1875,-35.6875,-3.74,0.86,9.79
1542402255879601001,184,0,/imu_data_acquisition2,25433.0,-0.133239746094,0.131408691406,0.699157714844,0.690063476562,8.0,178.25,-21.1875,-4.53,-0.2,16.97
1542402255884586095,185,0,/imu_data_acquisition2,25440.0,-0.146484375,0.146057128906,0.695617675781,0.68798828125,15.1875,238.375,-9.1875,-0.33,0.52,9.93
1542402255895709991,186,0,/imu_data_acquisition2,25451.0,-0.157531738281,0.157043457031,0.690551757812,0.688232421875,9.125,188.625,-43.4375,-2.92,-0.18,11.36
1542402255907839059,187,0,/imu_data_acquisition2,25462.0,-0.169250488281,0.169799804688,0.684509277344,0.6884765625,20.75,210.3125,-49.25,-1.59,-0.83,10.6
1542402255914287090,188,0,/imu_data_acquisition2,25470.0,-0.180969238281,0.184814453125,0.676940917969,0.689086914062,42.5625,231.4375,-60.25,-2.92,-1.24,11.41
1542402255927619934,189,0,/imu_data_acquisition2,25481.0,-0.19287109375,0.202270507812,0.667724609375,0.68994140625,64.625,256.0,-70.4375,-2.55,-1.29,10.81
1542402255937557935,190,0,/imu_data_acquisition2,25492.0,-0.20458984375,0.222106933594,0.656860351562,0.690856933594,89.5,277.375,-78.9375,-6.79,-1.61,10.09
1542402255944648027,191,0,/imu_data_acquisition2,25500.0,-0.214538574219,0.242980957031,0.644775390625,0.692260742188,116.1875,273.375,-85.4375,-4.65,-0.68,10.1
1542402255956115007,192,0,/imu_data_acquisition2,25511.0,-0.223327636719,0.264465332031,0.631164550781,0.694152832031,136.125,272.875,-96.625,-3.73,-0.59,12.95
1542402255969297885,193,0,/imu_data_acquisition2,25523.0,-0.231018066406,0.283752441406,0.616271972656,0.697387695312,136.1875,245.0625,-119.375,-0.05,-2.54,17.91
1542402255976921081,194,0,/imu_data_acquisition2,25532.0,-0.237670898438,0.29833984375,0.601440429688,0.701965332031,113.6875,194.3125,-138.75,-5.16,-1.62,24.06
1542402255986017942,195,0,/imu_data_acquisition2,25541.0,-0.243957519531,0.305908203125,0.5888671875,0.707153320312,60.6875,124.625,-14.0625,0.13,1.86,21.41
1542402255995198011,196,0,/imu_data_acquisition2,25549.0,-0.251098632812,0.307678222656,0.578674316406,0.712341308594,4.375,75.125,-142.0,2.05,2.56,-0.01
1542402256006083011,197,0,/imu_data_acquisition2,25561.0,-0.259216308594,0.305358886719,0.570678710938,0.716857910156,-42.0,43.875,-135.0,2.2,2.69,14.81
1542402256017853975,198,0,/imu_data_acquisition2,25572.0,-0.267944335938,0.300537109375,0.564636230469,0.720458984375,-73.5625,23.0,-122.25,1.65,2.01,11.49
1542402256024580955,199,0,/imu_data_acquisition2,25580.0,-0.276245117188,0.294372558594,0.560180664062,0.723388671875,-86.6875,6.375,-106.8125,1.42,-0.01,-0.01
1542402256036034107,200,0,/imu_data_acquisition2,25589.0,-0.282958984375,0.287719726562,0.556823730469,0.726013183594,-81.75,-10.1875,-91.125,1.11,1.57,11.1
1542402256044029951,201,0,/imu_data_acquisition2,25599.0,-0.287475585938,0.281127929688,0.554382324219,0.728698730469,-64.75,-28.1875,-76.4375,0.37,2.58,11.72
1542402256054264068,202,0,/imu_data_acquisition2,25609.0,-0.289672851562,0.274536132812,0.552917480469,0.7314453125,-47.625,-46.5625,-60.1875,0.43,3.71,12.25
1542402256063633918,203,0,/imu_data_acquisition2,25619.0,-0.289672851562,0.267700195312,0.552795410156,0.734069824219,-35.75,-66.8125,-41.4375,0.43,4.38,12.47
1542402256074119091,204,0,/imu_data_acquisition2,25629.0,-0.287780761719,0.260314941406,0.554260253906,0.736328125,-28.6875,-88.625,-5.6875,-0.32,4.99,12.88
1542402256083926916,205,0,/imu_data_acquisition2,25639.0,-0.2841796875,0.251953125,0.557434082031,0.738220214844,-27.0,-113.75,-2.0,-1.58,4.68,12.41
1542402256095442056,206,0,/imu_data_acquisition2,25650.0,-0.279113769531,0.242492675781,0.562194824219,0.73974609375,-27.125,-136.3125,14.75,-1.33,4.07,11.19
1542402256105701923,207,0,/imu_data_acquisition2,25661.0,-6.103515625e-05,-6.103515625e-05,-6.103515625e-05,0.740905761719,-23.5,-152.5,28.0,-1.15,3.72,10.19
1542402256116799116,208,0,/imu_data_acquisition2,25671.0,-0.265258789062,0.222229003906,0.574401855469,0.741821289062,-17.875,-163.4375,38.25,-1.83,3.37,9.86
1542402256128304958,209,0,/imu_data_acquisition2,25682.0,-0.2568359375,0.211791992188,0.581359863281,0.742431640625,-13.375,-172.875,45.75,-1.93,3.18,9.93
1542402256135891914,210,0,/imu_data_acquisition2,25691.0,-0.247497558594,0.200927734375,0.588562011719,0.742919921875,-8.8125,-182.6875,50.875,-2.01,2.93,9.92
1542402256146357059,211,0,/imu_data_acquisition2,25701.0,-0.237243652344,0.189819335938,0.595947265625,0.743347167969,-3.5625,-191.8125,53.75,-2.41,2.28,10.35
1542402256166449069,213,0,/imu_data_acquisition2,25722.0,-0.213439941406,0.167175292969,0.610595703125,0.744079589844,15.3125,-209.875,57.375,-3.13,2.25,11.77
1542402256177474975,214,0,/imu_data_acquisition2,25732.0,-0.199645996094,0.155456542969,0.617736816406,0.744506835938,23.375,-221.625,57.8125,-3.3,2.41,-0.01
1542402256189352989,215,0,/imu_data_acquisition2,25742.0,-0.185119628906,0.143188476562,0.624877929688,0.744812011719,25.75,-231.625,57.9375,-3.44,1.82,11.74
1542402256194787025,216,0,/imu_data_acquisition2,25750.0,-0.013916015625,-6.103515625e-05,-6.103515625e-05,0.744995117188,27.0,-238.375,56.25,-3.6,1.22,11.42
1542402256205740928,217,0,/imu_data_acquisition2,25760.0,-0.154479980469,0.117736816406,0.637939453125,0.745178222656,33.3125,-242.3125,52.5,-3.73,0.61,11.06
1542402256219707012,218,0,/imu_data_acquisition2,25772.0,-0.138305664062,0.10546875,0.643493652344,0.745483398438,43.1875,-241.25,47.0,-3.6,0.5,10.04
1542402256226233959,219,0,/imu_data_acquisition2,25781.0,-0.121887207031,0.0939331054688,0.648193359375,0.745788574219,51.75,-235.0625,40.625,-3.72,0.64,10.09
1542402256236399888,220,0,/imu_data_acquisition2,25791.0,-0.105529785156,0.083251953125,0.652038574219,0.746154785156,58.5625,-225.8125,33.6875,-3.9,0.4,10.76
1542402256245119094,221,0,/imu_data_acquisition2,25800.0,-0.0889892578125,0.0736083984375,0.655029296875,0.746704101562,69.0625,-216.9375,26.8125,-5.43,0.62,14.95
1542402256255108118,222,0,/imu_data_acquisition2,25810.0,-0.0716552734375,0.0648803710938,0.657470703125,0.747253417969,84.3125,-214.875,22.9375,-5.87,2.31,15.15
1542402256265847921,223,0,/imu_data_acquisition2,25821.0,-6.103515625e-05,-6.103515625e-05,-6.103515625e-05,0.747436523438,89.4375,-215.9375,25.1875,-6.06,3.89,13.9
1542402256274576902,224,0,/imu_data_acquisition2,25829.0,-0.0369262695312,0.0475463867188,0.662414550781,0.746704101562,78.9375,-211.375,35.5,-7.0,4.36,12.62
1542402256286140918,225,0,/imu_data_acquisition2,25842.0,-0.021728515625,0.0384521484375,0.665771484375,0.744812011719,60.4375,-200.1875,48.75,-7.42,3.35,12.57
1542402256295512914,226,0,/imu_data_acquisition2,25850.0,-0.0076904296875,0.0296630859375,0.669799804688,0.741943359375,51.375,-187.9375,62.1875,-7.78,1.38,13.11
1542402256305084943,227,0,/imu_data_acquisition2,25859.0,0.0064697265625,0.022216796875,0.67431640625,0.738098144531,63.625,-176.6875,74.375,-8.23,0.04,14.23
1542402256314800024,228,0,/imu_data_acquisition2,25870.0,0.021484375,0.0162963867188,0.679260253906,0.7333984375,83.0,-170.125,85.1875,-8.94,1.9,15.44
1542402256326822996,229,0,/imu_data_acquisition2,25882.0,0.0364990234375,0.0106811523438,0.684692382812,0.727844238281,85.0,-166.9375,95.625,-9.43,2.63,16.1
1542402256334156990,230,0,/imu_data_acquisition2,25890.0,0.0504760742188,0.0040283203125,0.690551757812,0.721496582031,69.0625,-166.875,107.125,-10.15,2.7,17.0
1542402256346347093,231,0,/imu_data_acquisition2,25901.0,0.0634155273438,-0.00421142578125,0.696899414062,0.71435546875,46.75,-172.5,117.8125,-11.09,1.82,16.44
1542402256361210107,232,0,/imu_data_acquisition2,25914.0,0.0755004882812,-0.0143432617188,0.703369140625,0.706665039062,24.5,-180.625,124.9375,-11.19,0.78,14.49
1542402256365375995,233,0,/imu_data_acquisition2,25921.0,0.0868530273438,-0.0256958007812,0.709655761719,0.69873046875,9.125,-185.25,127.5,-11.04,-0.25,11.87
1542402256375807046,234,0,/imu_data_acquisition2,25930.0,0.09765625,-0.0371704101562,0.715515136719,0.690734863281,2.8125,-182.5,124.125,-10.71,-2.46,6.84
1542402256384354114,235,0,/imu_data_acquisition2,25940.0,0.09765625,-0.0371704101562,0.715515136719,0.690734863281,7.875,-170.125,114.5625,-10.45,-0.8,-0.01
1542402256394961118,236,0,/imu_data_acquisition2,25950.0,0.108032226562,-0.0475463867188,0.720703125,0.68310546875,22.3125,-149.5625,102.125,-10.18,-4.11,3.85
1542402256406342029,237,0,/imu_data_acquisition2,25960.0,0.12744140625,-0.061279296875,0.729248046875,0.669494628906,40.1875,-123.75,88.9375,-10.2,-4.07,3.18
1542402256414534091,238,0,/imu_data_acquisition2,25970.0,0.1357421875,-0.0645141601562,0.732788085938,0.663696289062,48.8125,-96.0,77.375,-10.41,-2.98,2.45
1542402256426788091,239,0,/imu_data_acquisition2,25981.0,-6.103515625e-05,-6.103515625e-05,-6.103515625e-05,0.663696289062,41.4375,-67.75,66.6875,-10.36,-3.15,2.37
1542402256440984964,240,0,/imu_data_acquisition2,25994.0,0.145690917969,-0.0676879882812,0.73876953125,0.654541015625,28.3125,-40.6875,57.4375,-10.22,-3.56,2.25
1542402256444202899,241,0,/imu_data_acquisition2,25999.0,0.145690917969,-6.103515625e-05,-6.103515625e-05,0.654541015625,17.5,-14.6875,47.9375,-9.88,-4.2,2.68
1542402256453948974,242,0,/imu_data_acquisition2,26009.0,0.147277832031,-0.0679931640625,0.741333007812,0.651184082031,10.5,9.9375,36.8125,-9.25,-4.03,1.43
1542402256464757919,243,0,/imu_data_acquisition2,26020.0,0.147033691406,-0.0672607421875,0.743530273438,0.648803710938,3.125,40.9375,24.4375,-9.6,-3.79,1.72
1542402256474667072,244,0,/imu_data_acquisition2,26030.0,0.144470214844,-0.0651245117188,0.745422363281,0.6474609375,-7.5,69.75,11.875,-5.78,-6.65,-4.91
1542402256484775066,245,0,/imu_data_acquisition2,26040.0,0.139587402344,-0.0618896484375,0.746887207031,0.647216796875,-11.875,122.375,-4.4375,0.67,-1.33,5.7
1542402256494615077,246,0,/imu_data_acquisition2,26050.0,0.131225585938,-0.055908203125,0.747985839844,0.648254394531,-24.9375,167.0625,-23.4375,4.74,-2.8,15.34
1542402256504352092,247,0,/imu_data_acquisition2,26059.0,0.119445800781,-0.048095703125,0.748352050781,0.650695800781,-38.625,154.5,-45.75,4.21,-2.16,14.06
1542402256514777898,248,0,/imu_data_acquisition2,26070.0,0.107727050781,-0.0415649414062,0.747131347656,0.654541015625,-34.5,143.9375,-55.4375,-0.82,-0.36,8.46
1542402256525111913,249,0,/imu_data_acquisition2,26080.0,0.096923828125,-0.0352783203125,0.745178222656,0.658813476562,-24.8125,148.125,-55.25,-0.47,0.51,10.45
1542402256534632921,250,0,/imu_data_acquisition2,26090.0,0.0863647460938,-0.0125122070312,-6.103515625e-05,0.662902832031,-5.9375,155.0625,-45.0625,-0.42,1.6,11.59
1542402256544332027,251,0,/imu_data_acquisition2,26099.0,0.0763549804688,-0.01953125,0.74169921875,0.666076660156,-5.9375,155.0625,-45.0625,-2.07,2.31,13.67
1542402256554687976,252,0,/imu_data_acquisition2,26110.0,0.0670776367188,-0.00982666015625,0.74072265625,0.668395996094,9.3125,157.8125,-34.5625,-2.59,1.71,14.68
1542402256564675092,253,0,/imu_data_acquisition2,26120.0,0.0578002929688,-0.0003662109375,0.739990234375,0.670104980469,7.5,146.1875,-22.6875,-2.66,1.84,15.1
1542402256575321912,254,0,/imu_data_acquisition2,26130.0,0.0491333007812,0.00848388671875,0.739379882812,0.671447753906,8.625,133.9375,-17.9375,-2.33,3.09,14.45
1542402256585263967,255,0,/imu_data_acquisition2,26140.0,0.0411987304688,0.0167236328125,0.738830566406,0.672424316406,7.125,122.3125,-12.6875,-2.5,-0.01,-0.01
1542402256594280958,256,0,/imu_data_acquisition2,26150.0,0.033935546875,0.024169921875,0.738525390625,0.672973632812,7.125,122.3125,-12.6875,-2.92,5.96,16.1
1542402256604228973,257,0,/imu_data_acquisition2,26159.0,0.027099609375,0.0307006835938,0.738647460938,0.6728515625,3.0,112.3125,-2.1875,-2.92,5.96,16.1
1542402256615844964,258,0,/imu_data_acquisition2,26170.0,0.0201416015625,0.0346069335938,0.740051269531,0.67138671875,-27.5,51.375,18.375,-0.58,-0.49,8.49
1542402256625155925,259,0,/imu_data_acquisition2,26180.0,0.015380859375,0.0357666015625,0.7412109375,0.670104980469,-19.5625,36.625,10.5625,-0.26,1.02,11.02
1542402256635214090,260,0,/imu_data_acquisition2,26190.0,0.0120239257812,0.03662109375,0.741943359375,0.669372558594,-13.0,33.375,10.1875,-0.92,1.53,11.01
1542402256644606113,261,0,/imu_data_acquisition2,26200.0,0.00921630859375,0.0376586914062,0.742553710938,0.668640136719,-13.0,33.375,10.1875,-0.9,0.28,11.24
1542402256654086112,262,0,/imu_data_acquisition2,26209.0,0.00653076171875,0.038330078125,0.743103027344,0.668090820312,-15.6875,29.125,7.5625,-0.9,0.28,11.24
1542402256665124893,263,0,/imu_data_acquisition2,26220.0,0.004150390625,0.0386962890625,0.743408203125,0.667724609375,-15.125,19.5,2.75,-1.2,0.61,10.67
1542402256675549983,264,0,/imu_data_acquisition2,26231.0,0.0020751953125,0.038818359375,0.743591308594,0.66748046875,-14.5,14.5,1.25,-0.48,0.03,9.96
1542402256685046911,265,0,/imu_data_acquisition2,26241.0,0.00030517578125,0.0387573242188,0.743713378906,0.667358398438,-13.125,11.875,0.6875,-0.5,0.1,10.51
1542402256693877935,266,0,/imu_data_acquisition2,26249.0,-0.00115966796875,0.03857421875,0.743835449219,0.667297363281,-13.125,11.875,0.6875,-0.5,0.1,10.51
1542402256704463005,267,0,/imu_data_acquisition2,26259.0,-0.00238037109375,0.0385131835938,0.743896484375,0.667175292969,-10.5625,10.375,0.75,-0.55,0.4,9.79
1542402256715964078,268,0,/imu_data_acquisition2,26271.0,-0.0035400390625,0.0385131835938,0.743957519531,0.667114257812,-7.625,-0.0625,-0.0625,-0.66,0.31,9.95
1542402256725465059,269,0,/imu_data_acquisition2,26281.0,-0.00457763671875,0.03857421875,0.744018554688,0.6669921875,-6.5625,9.6875,0.8125,-0.88,0.34,10.16
1542402256735402107,270,0,/imu_data_acquisition2,26291.0,-0.00555419921875,0.0387573242188,0.744140625,0.666931152344,-4.875,8.3125,0.6875,-0.89,0.73,10.64
1542402256744683980,271,0,/imu_data_acquisition2,26299.0,-0.00634765625,0.0388793945312,0.744140625,0.666809082031,-4.875,8.3125,0.6875,-0.89,-0.01,-0.01
1542402256754028081,272,0,/imu_data_acquisition2,26309.0,-0.0069580078125,0.0390014648438,0.744201660156,0.666809082031,-4.1875,6.25,0.4375,-0.54,0.71,10.09
1542402256765917062,273,0,/imu_data_acquisition2,26321.0,-0.00762939453125,0.0390625,0.744201660156,0.666809082031,-4.0,6.1875,-0.25,-0.57,0.61,10.01
1542402256775121927,274,0,/imu_data_acquisition2,26331.0,-0.00823974609375,0.0391845703125,0.744201660156,0.666748046875,-4.4375,6.75,-0.5,-0.47,0.86,9.82
1542402256785974025,275,0,/imu_data_acquisition2,26341.0,-0.0089111328125,0.0392456054688,0.744201660156,0.666748046875,-5.0625,7.75,-0.75,-0.68,0.91,9.73
1542402256794116973,276,0,/imu_data_acquisition2,26349.0,-0.00970458984375,0.0393676757812,0.744140625,0.666748046875,-5.0625,7.75,-0.75,-0.68,0.91,-0.01
1542402256804869890,277,0,/imu_data_acquisition2,26359.0,-0.0106811523438,0.0394897460938,0.744079589844,0.666809082031,-6.6875,9.4375,-1.4375,-0.47,0.88,10.32
1542402256815412044,278,0,/imu_data_acquisition2,26371.0,-0.01171875,0.0394897460938,0.744018554688,0.666870117188,-8.75,10.1875,-1.9375,-0.9,-0.01,-0.01
1542402256830154895,279,0,/imu_data_acquisition2,26381.0,-0.0128784179688,0.03955078125,0.743896484375,0.6669921875,-8.5625,9.375,-1.9375,-0.7,0.39,10.09
1542402256837558031,280,0,/imu_data_acquisition2,26392.0,-0.0139770507812,0.0394897460938,0.743835449219,0.667053222656,-7.9375,8.75,-1.6875,-0.49,0.48,9.88
1542402256845122098,281,0,/imu_data_acquisition2,26401.0,-0.0149536132812,0.0394897460938,-6.103515625e-05,0.667114257812,-7.9375,8.75,-1.6875,-0.49,0.48,9.88
1542402256854154109,282,0,/imu_data_acquisition2,26409.0,-0.0159912109375,0.03955078125,0.74365234375,0.667175292969,-7.8125,9.375,-1.4375,-0.95,0.54,9.99
1542402256866614103,283,0,/imu_data_acquisition2,26421.0,-0.01708984375,0.0396118164062,0.743591308594,0.667236328125,-7.5,9.3125,-1.125,-1.05,0.35,10.06
1542402256877510070,284,0,/imu_data_acquisition2,26431.0,-0.01806640625,0.0396728515625,0.743591308594,0.667236328125,-6.375,8.375,-1.0625,-0.98,0.18,9.93
1542402256885967016,285,0,/imu_data_acquisition2,26441.0,-0.0189819335938,0.0397338867188,0.743530273438,0.667297363281,-5.25,7.5,-0.9375,-1.2,0.18,10.13
1542402256895684003,286,0,/imu_data_acquisition2,26451.0,-0.019775390625,0.039794921875,0.743469238281,0.667297363281,-5.25,7.5,-0.9375,-1.06,0.18,10.19
1542402256905874967,287,0,/imu_data_acquisition2,26460.0,-0.0203857421875,0.0399780273438,0.743469238281,0.667236328125,-3.5625,6.5625,-0.4375,-1.1,0.48,9.96
1542402256915806055,288,0,/imu_data_acquisition2,26471.0,-0.0208129882812,0.0401611328125,0.743469238281,0.667236328125,-1.0,4.9375,0.25,-1.32,0.45,10.11
1542402256928539037,289,0,/imu_data_acquisition2,26483.0,-0.0211791992188,0.0403442382812,0.743469238281,0.667236328125,-0.4375,3.8125,0.125,-1.12,0.43,9.94
1542402256938304901,290,0,/imu_data_acquisition2,26492.0,-0.021484375,0.0407104492188,0.743469238281,0.667236328125,-0.125,3.125,0.125,-1.08,0.45,9.99
1542402256943862915,291,0,/imu_data_acquisition2,26499.0,-0.0217895507812,0.0409545898438,0.743469238281,0.667175292969,-0.125,3.125,0.125,-1.08,0.45,9.99
1542402256955657958,292,0,/imu_data_acquisition2,26510.0,-0.0219116210938,0.0411987304688,0.743408203125,0.667175292969,0.125,2.375,0.25,-0.92,0.47,10.06
1542402256966203927,293,0,/imu_data_acquisition2,26521.0,-0.0220336914062,0.0413208007812,0.743408203125,0.667175292969,0.375,1.6875,0.0,-1.39,0.46,9.9
1542402256977745056,294,0,/imu_data_acquisition2,26532.0,-0.0221557617188,0.0415649414062,0.743408203125,0.667175292969,1.0625,1.125,0.375,-0.95,0.6,-0.01
1542402256991687059,295,0,/imu_data_acquisition2,26545.0,-0.022216796875,0.0421752929688,0.743408203125,0.667175292969,1.0,1.875,0.3125,-1.15,0.62,9.97
1542402256995436906,296,0,/imu_data_acquisition2,26551.0,-0.022216796875,0.0421752929688,0.743408203125,0.667175292969,1.0,1.875,0.3125,-1.1,0.6,9.88
1542402257005703926,297,0,/imu_data_acquisition2,26561.0,-0.0223388671875,0.04248046875,0.743408203125,0.667114257812,0.375,1.9375,0.1875,-0.86,0.41,9.76
1542402257026910066,298,0,/imu_data_acquisition2,26576.0,-0.0225830078125,0.0428466796875,0.743408203125,0.667114257812,-0.25,2.0625,-0.125,-1.11,0.45,9.88
1542402257030210018,299,0,/imu_data_acquisition2,26581.0,-0.0225830078125,0.0428466796875,0.743408203125,0.667114257812,-0.25,2.0625,-0.125,-1.03,0.45,9.72
1542402257037492990,300,0,/imu_data_acquisition2,26593.0,-0.0227661132812,0.0430297851562,0.743347167969,0.667114257812,-0.375,3.0625,-0.1875,-1.02,0.48,9.85
1542402257055874109,302,0,/imu_data_acquisition2,26609.0,-0.0231323242188,0.0435180664062,0.743347167969,0.667053222656,-0.5,3.1875,-0.25,-1.01,0.51,9.89
1542402257067662000,303,0,/imu_data_acquisition2,26621.0,-0.0233764648438,0.043701171875,0.743347167969,0.667053222656,-0.8125,3.25,-0.4375,-0.72,0.56,9.81
1542402257079288959,304,0,/imu_data_acquisition2,26635.0,-0.0239868164062,0.0440673828125,0.743347167969,0.6669921875,-1.8125,4.625,-0.5625,-1.03,0.4,9.8
1542402257087603092,305,0,/imu_data_acquisition2,26642.0,-0.0239868164062,0.0440673828125,-6.103515625e-05,0.6669921875,-2.125,5.8125,-0.8125,-1.05,0.51,9.89
1542402257095968008,306,0,/imu_data_acquisition2,26650.0,-0.0244750976562,0.0443115234375,0.743286132812,0.667053222656,-2.125,5.8125,-0.8125,-1.05,0.51,9.89
1542402257111532926,307,0,/imu_data_acquisition2,26664.0,-0.0250244140625,0.0445556640625,0.743225097656,0.667053222656,-2.5625,6.125,-0.875,-1.13,0.37,9.83
1542402257119898080,308,0,/imu_data_acquisition2,26673.0,-0.0255737304688,0.0447387695312,0.743225097656,0.667053222656,-2.625,6.5625,-1.0625,-1.44,0.34,9.67
1542402257127578020,309,0,/imu_data_acquisition2,26683.0,-0.026123046875,0.044921875,0.7431640625,0.667114257812,-2.75,7.4375,-1.1875,-0.88,0.27,9.78
1542402257146819114,311,0,/imu_data_acquisition2,26702.0,-0.02734375,0.0454711914062,0.742980957031,0.667175292969,-1.9375,7.375,-1.0625,-1.05,0.27,9.82
1542402257155822038,312,0,/imu_data_acquisition2,26711.0,-0.0280151367188,0.0458984375,0.742919921875,0.667236328125,-1.875,9.125,-1.125,-1.05,0.27,9.82
1542402257178977966,314,0,/imu_data_acquisition2,26733.0,-0.029541015625,0.046875,0.742736816406,0.667297363281,-1.3125,12.125,-1.5,-1.14,0.36,9.77
1542402257186476945,315,0,/imu_data_acquisition2,26742.0,-0.0303344726562,0.0474853515625,-6.103515625e-05,0.667358398438,-1.3125,12.125,-1.5,-1.21,0.21,9.98
1542402257206729888,317,0,/imu_data_acquisition2,26762.0,-0.0324096679688,0.0489501953125,0.742309570312,0.66748046875,-1.5,15.4375,-2.3125,-1.33,0.42,9.96
1542402257215156078,318,0,/imu_data_acquisition2,26769.0,-0.0335083007812,0.0498046875,0.742126464844,0.667602539062,-1.1875,16.5,-2.5625,-1.33,0.42,9.96
1542402257239468097,320,0,/imu_data_acquisition2,26795.0,-0.0371704101562,0.0526123046875,0.741394042969,0.66796875,-1.0625,18.5,-4.0,-1.35,0.28,10.08
1542402257246181964,321,0,/imu_data_acquisition2,26800.0,-0.00592041015625,-6.103515625e-05,-6.103515625e-05,0.66796875,-1.0625,18.5,-4.0,-1.35,0.28,10.08
1542402257256349086,322,0,/imu_data_acquisition2,26810.0,-0.0384521484375,0.0535888671875,0.741027832031,0.668212890625,-1.5,19.125,-4.6875,-1.3,0.44,9.62
1542402257267281055,323,0,/imu_data_acquisition2,26823.0,-0.039794921875,0.0546264648438,0.74072265625,0.66845703125,-0.4375,20.6875,-5.375,-1.08,0.02,9.44
1542402257277673006,324,0,/imu_data_acquisition2,26832.0,-0.0411376953125,0.0557861328125,0.740295410156,0.668701171875,-0.4375,20.6875,-0.0625,-1.39,0.34,10.18
1542402257295835971,326,0,/imu_data_acquisition2,26850.0,-0.0125732421875,-6.103515625e-05,-6.103515625e-05,0.669189453125,0.6875,21.75,-5.5,-1.18,0.67,9.94
1542402257305768013,327,0,/imu_data_acquisition2,26861.0,-0.013916015625,-6.103515625e-05,-6.103515625e-05,0.669311523438,1.9375,22.625,-3.8125,-1.02,0.0,10.02
1542402257316848993,328,0,/imu_data_acquisition2,26872.0,-0.0466918945312,0.0611572265625,0.738891601562,0.66943359375,2.0625,25.5625,-3.6875,-1.12,0.67,10.16
1542402257328737974,329,0,/imu_data_acquisition2,26884.0,-0.0484008789062,0.06298828125,0.738525390625,0.669555664062,1.3125,33.8125,-5.5,-0.97,0.64,10.08
1542402257338362932,330,0,/imu_data_acquisition2,26893.0,-0.0504760742188,0.06494140625,0.738037109375,0.669738769531,1.3125,33.8125,-5.5,-1.11,0.47,10.32
1542402257344322919,331,0,/imu_data_acquisition2,26900.0,-0.0529174804688,0.0670776367188,0.737426757812,0.669982910156,0.4375,38.6875,-7.75,-1.11,0.47,10.32
1542402257360111951,332,0,/imu_data_acquisition2,26914.0,-0.0557250976562,0.0695190429688,0.736694335938,0.670349121094,-1.5625,48.5625,-12.125,-1.19,-0.24,10.35
1542402257368560075,333,0,/imu_data_acquisition2,26923.0,-0.0588989257812,0.0720825195312,0.735778808594,0.670776367188,-1.5625,48.5625,-12.125,-1.52,0.67,9.85
1542402257378798961,334,0,/imu_data_acquisition2,26933.0,-0.0625,0.074951171875,0.734680175781,0.67138671875,-2.75,54.0625,-14.75,-1.47,0.16,9.94
1542402257390897989,335,0,/imu_data_acquisition2,26945.0,-0.0711059570312,0.0810546875,0.732360839844,0.67236328125,-8.0625,64.125,-15.0625,-1.47,0.52,9.89
1542402257396842002,336,0,/imu_data_acquisition2,26952.0,-0.0711059570312,0.0810546875,0.732360839844,0.67236328125,-8.0625,64.125,-15.0625,-1.47,0.52,9.89
1542402257406213998,337,0,/imu_data_acquisition2,26959.0,-0.0135498046875,-6.103515625e-05,-6.103515625e-05,0.6728515625,-10.5,68.8125,-16.6875,-1.54,0.35,9.62
1542402257418869018,338,0,/imu_data_acquisition2,26973.0,-0.08154296875,0.08740234375,0.729553222656,0.673400878906,-21.125,77.0625,-19.5625,-1.87,0.45,9.8
1542402257427273988,339,0,/imu_data_acquisition2,26983.0,-0.0875854492188,0.09033203125,0.72802734375,0.673889160156,-21.125,77.0625,-19.5625,-2.5,-0.01,-0.01
1542402257438357114,340,0,/imu_data_acquisition2,26993.0,-0.09423828125,0.0933837890625,0.726501464844,0.674255371094,-24.75,82.75,-19.25,-3.26,0.05,10.1
1542402257444504022,341,0,/imu_data_acquisition2,27000.0,-0.101135253906,0.0965576171875,0.724548339844,0.674865722656,-24.875,86.25,-24.75,-3.26,0.05,10.1
1542402257456104993,342,0,/imu_data_acquisition2,27011.0,-0.107604980469,0.10009765625,0.722412109375,0.675720214844,-17.8125,84.9375,-27.75,-3.65,0.31,9.97
1542402257466859102,343,0,/imu_data_acquisition2,27020.0,-0.113220214844,0.104309082031,0.720336914062,0.676330566406,-5.5625,84.0625,-22.75,-2.66,0.35,10.44
1542402257477276086,344,0,/imu_data_acquisition2,27032.0,-0.118713378906,0.109802246094,-6.103515625e-05,0.676574707031,5.75,92.625,-0.0625,-5.37,0.16,11.57
1542402257487812042,345,0,/imu_data_acquisition2,27043.0,-0.125,0.116027832031,0.715942382812,0.677001953125,6.4375,106.4375,-22.0625,-1.76,0.92,8.88
1542402257494702100,346,0,/imu_data_acquisition2,27049.0,-0.134033203125,0.124755859375,0.713684082031,0.676147460938,2.9375,150.875,-10.875,-1.76,0.92,8.88
1542402257504642009,347,0,/imu_data_acquisition2,27060.0,-0.143737792969,0.134338378906,0.71142578125,0.674682617188,4.5,164.1875,-4.5,-2.51,1.17,8.99
1542402257517304897,348,0,/imu_data_acquisition2,27072.0,-0.152770996094,0.142395019531,0.708312988281,0.67431640625,0.1875,146.5,-22.875,-3.18,0.25,9.77
1542402257528598070,349,0,/imu_data_acquisition2,27083.0,-0.162536621094,0.150268554688,0.704467773438,0.674377441406,-4.9375,151.8125,-0.0625,-1.9,-0.42,9.91
1542402257537477016,350,0,/imu_data_acquisition2,27093.0,-0.172729492188,0.159118652344,0.699951171875,0.674438476562,0.1875,164.0,-37.625,-1.9,-0.42,9.91
1542402257545883893,351,0,/imu_data_acquisition2,27100.0,-0.0117797851562,-6.103515625e-05,-6.103515625e-05,0.674621582031,11.1875,185.5,-12.1875,-2.38,-0.41,11.17
1542402257557105064,352,0,/imu_data_acquisition2,27111.0,-0.195434570312,0.182312011719,0.687805175781,0.674926757812,23.875,212.5,-52.125,-2.89,-1.04,11.09
1542402257566644906,353,0,/imu_data_acquisition2,27122.0,-0.208129882812,0.197204589844,0.679504394531,0.67529296875,38.3125,240.125,-62.0625,-5.56,-1.32,10.43
1542402257577552080,354,0,/imu_data_acquisition2,27133.0,-0.221130371094,0.214477539062,0.669860839844,0.675537109375,58.0625,266.0625,-67.0,-5.31,-1.84,9.81
1542402257588639020,355,0,/imu_data_acquisition2,27143.0,-0.233581542969,0.233764648438,0.658569335938,0.676086425781,83.75,281.125,-75.4375,-5.31,-1.84,9.81
1542402257598980903,356,0,/imu_data_acquisition2,27151.0,-0.244262695312,0.256042480469,0.644958496094,0.677368164062,129.4375,295.875,-87.0625,-5.88,-0.43,8.91
1542402257607294082,357,0,/imu_data_acquisition2,27162.0,-0.252990722656,0.280639648438,0.629089355469,0.679321289062,171.8125,304.3125,-97.625,-6.48,0.99,9.53
1542402257616523981,358,0,/imu_data_acquisition2,27171.0,-0.2607421875,0.305480957031,0.611389160156,0.681884765625,188.5625,302.25,-112.9375,-2.06,1.83,17.91
1542402257631114959,359,0,/imu_data_acquisition2,27183.0,-0.267578125,0.328125,0.592895507812,0.684997558594,186.0,277.9375,-126.75,-6.09,4.64,28.94
1542402257639848947,360,0,/imu_data_acquisition2,27194.0,-0.272766113281,0.343994140625,-6.103515625e-05,0.689514160156,148.3125,200.9375,-138.0,0.94,9.79,19.54
1542402257644407987,361,0,/imu_data_acquisition2,27200.0,-0.276916503906,0.351745605469,0.5634765625,0.6943359375,86.125,112.4375,-127.5625,0.94,9.79,-0.01
1542402257656388998,362,0,/imu_data_acquisition2,27211.0,-0.281921386719,0.35302734375,0.555786132812,0.697875976562,11.375,54.6875,-103.375,0.29,7.18,16.69
1542402257671885967,363,0,/imu_data_acquisition2,27227.0,-0.288757324219,0.348999023438,0.553161621094,0.699157714844,-109.25,-13.25,-46.4375,1.03,-0.44,9.73
1542402257681965112,364,0,/imu_data_acquisition2,27235.0,-0.2958984375,0.341918945312,0.553955078125,0.699035644531,-107.3125,-30.8125,-32.1875,1.0,-0.68,8.86
1542402257688399076,365,0,/imu_data_acquisition2,27244.0,-0.301696777344,0.334289550781,0.555847167969,0.69873046875,-107.3125,-30.8125,-32.1875,0.96,-0.37,8.47
1542402257694504022,366,0,/imu_data_acquisition2,27249.0,-0.305297851562,0.327087402344,0.557800292969,0.699035644531,-83.0625,-44.0625,-25.9375,0.96,-0.37,8.47
1542402257704463958,367,0,/imu_data_acquisition2,27260.0,-0.306457519531,0.320983886719,0.559387207031,0.700134277344,-52.3125,-52.875,-20.8125,0.97,2.01,8.56
1542402257715687990,368,0,/imu_data_acquisition2,27270.0,-0.305541992188,0.315551757812,0.560729980469,0.701904296875,-27.125,-62.375,-16.5,0.78,3.58,9.24
1542402257730561971,369,0,/imu_data_acquisition2,27283.0,-0.303161621094,0.310180664062,0.5625,0.703918457031,-15.25,-74.125,-9.125,0.42,4.64,10.15
1542402257736015081,370,0,/imu_data_acquisition2,27292.0,-0.2998046875,0.304260253906,0.565368652344,0.705627441406,-16.0,-0.0625,-0.0625,-0.01,5.02,11.18
1542402257745258092,371,0,/imu_data_acquisition2,27300.0,-0.294311523438,0.296325683594,0.571472167969,0.706420898438,-26.3125,-127.625,37.0,-0.67,4.27,11.73
1542402257754811048,372,0,/imu_data_acquisition2,27309.0,-0.287292480469,0.287475585938,0.578796386719,0.706970214844,-24.8125,-148.8125,51.625,-1.07,3.63,11.66
1542402257764252901,373,0,/imu_data_acquisition2,27320.0,-0.2802734375,0.278625488281,0.586059570312,0.707397460938,-24.8125,-148.8125,51.625,-1.38,3.21,11.26
1542402257778136014,374,0,/imu_data_acquisition2,27333.0,-0.271545410156,0.268981933594,0.59423828125,0.707702636719,-20.0,-169.3125,62.875,-1.79,2.56,9.98
1542402257786349058,375,0,/imu_data_acquisition2,27341.0,-0.260620117188,0.257934570312,-6.103515625e-05,0.708068847656,-14.5,-7.9375,-0.0625,-2.17,2.0,9.96
1542402257794949054,376,0,/imu_data_acquisition2,27350.0,-0.248779296875,0.246337890625,0.61279296875,0.708435058594,-10.75,-212.0625,75.875,-2.69,1.39,10.03
1542402257805932044,377,0,/imu_data_acquisition2,27361.0,-0.235900878906,0.234313964844,0.621948242188,0.708923339844,-4.75,-222.75,75.0625,-3.02,0.97,10.27
1542402257813893079,378,0,/imu_data_acquisition2,27369.0,-0.222290039062,0.2216796875,0.630798339844,0.709594726562,-1.25,-232.75,71.625,-2.99,0.8,10.46
1542402257828063964,379,0,/imu_data_acquisition2,27384.0,-0.208129882812,0.208374023438,0.63916015625,0.71044921875,0.125,-242.0,65.625,-3.1,0.43,10.66
1542402257836977005,380,0,/imu_data_acquisition2,27391.0,-0.193298339844,0.194458007812,0.646789550781,0.711669921875,3.5625,-250.875,57.4375,-3.28,-0.09,11.24
1542402257851188898,381,0,/imu_data_acquisition2,27405.0,-0.177612304688,0.18017578125,0.653564453125,0.71337890625,11.0,-260.0,47.6875,-3.46,-0.38,11.64
1542402257858129978,382,0,/imu_data_acquisition2,27414.0,-0.161071777344,0.165649414062,0.659362792969,0.715454101562,19.4375,-267.5,37.75,-3.46,-0.38,11.64
1542402257865294933,383,0,/imu_data_acquisition2,27420.0,-0.14404296875,0.151062011719,0.664184570312,0.717834472656,25.1875,-270.1875,27.8125,-3.4,-0.22,11.45
1542402257881236076,384,0,/imu_data_acquisition2,27436.0,-0.126953125,0.136779785156,0.667907714844,0.720458984375,41.375,-261.9375,5.3125,-4.29,-1.0,12.54
1542402257889532089,385,0,/imu_data_acquisition2,27445.0,-0.109558105469,0.123168945312,0.67041015625,0.723449707031,60.125,-257.875,-4.75,-5.48,-0.74,14.94
1542402257895662069,386,0,/imu_data_acquisition2,27450.0,-0.09130859375,0.110717773438,0.671691894531,0.726745605469,60.125,-257.875,-4.75,-5.48,-0.74,14.94
1542402257910577058,387,0,/imu_data_acquisition2,27465.0,-0.0720825195312,0.098876953125,0.67236328125,0.730041503906,73.9375,-259.875,-7.9375,-6.74,3.26,15.86
1542402257916749000,388,0,/imu_data_acquisition2,27471.0,-0.0533447265625,0.0867309570312,0.672973632812,0.732666015625,66.3125,-258.1875,-3.9375,-6.93,4.61,14.59
1542402257927165031,389,0,/imu_data_acquisition2,27481.0,-0.036376953125,0.0740356445312,0.673828125,0.734252929688,46.0625,-247.0625,4.1875,-7.53,4.47,13.66
1542402257939259052,390,0,/imu_data_acquisition2,27494.0,-6.103515625e-05,-6.103515625e-05,-6.103515625e-05,0.734924316406,35.625,-229.8125,13.0625,-8.39,3.18,13.45
1542402257945424079,391,0,/imu_data_acquisition2,27500.0,-0.006103515625,0.0513916015625,0.676391601562,0.734741210938,45.3125,-210.25,21.9375,-9.86,1.08,13.88
1542402257954333066,392,0,/imu_data_acquisition2,27510.0,0.0089111328125,0.0431518554688,0.677978515625,0.733764648438,63.5,-191.4375,30.0,-10.37,1.43,14.12
1542402257970536947,393,0,/imu_data_acquisition2,27521.0,0.0235595703125,0.0365600585938,0.679931640625,0.731994628906,73.625,-173.5625,39.25,-10.9,2.28,-0.01
1542402257977299928,394,0,/imu_data_acquisition2,27532.0,0.03759765625,0.0308227539062,0.682312011719,0.729431152344,74.5,-161.125,49.1875,-13.67,2.94,18.56
1542402257985917091,395,0,/imu_data_acquisition2,27541.0,0.0519409179688,0.0247802734375,0.685302734375,0.725952148438,75.75,-165.1875,61.375,-15.78,3.42,21.84
1542402258001322031,396,0,/imu_data_acquisition2,27550.0,0.0672607421875,0.0170288085938,0.68896484375,0.721496582031,70.1875,-187.5,77.0625,-16.61,4.19,21.66
1542402258005413055,397,0,/imu_data_acquisition2,27560.0,0.0822143554688,0.0067138671875,0.693237304688,0.715942382812,47.1875,-205.4375,92.875,-14.77,2.93,11.53
1542402258015938043,398,0,/imu_data_acquisition2,27571.0,0.0950927734375,-0.00518798828125,0.697875976562,0.709838867188,17.5625,-201.75,102.3125,-13.89,1.31,6.25
1542402258031121015,399,0,/imu_data_acquisition2,27580.0,0.105407714844,-0.016845703125,0.70263671875,0.703491210938,-2.4375,-178.0625,104.4375,-13.46,-0.58,2.52
1542402258035980939,400,0,/imu_data_acquisition2,27591.0,0.113586425781,-0.0265502929688,0.707214355469,0.697326660156,-3.6875,-144.5625,100.3125,-13.34,-3.93,-0.44
1542402258049213886,401,0,/imu_data_acquisition2,27601.0,0.120544433594,-6.103515625e-05,-6.103515625e-05,0.69140625,12.1875,-107.9375,91.9375,-13.48,-4.47,-0.79
1542402258054292917,402,0,/imu_data_acquisition2,27610.0,0.12646484375,-0.0363159179688,0.715637207031,0.685974121094,30.125,-72.5625,81.0,-13.55,-4.14,-0.78
1542402258066044092,403,0,/imu_data_acquisition2,27620.0,0.130737304688,-0.037109375,0.719299316406,0.681274414062,36.375,-39.375,69.4375,-13.42,-3.6,-0.59
1542402258077073097,404,0,/imu_data_acquisition2,27632.0,0.132751464844,-0.036376953125,0.722778320312,0.67724609375,30.5,-7.625,60.3125,-12.52,-2.52,0.36
1542402258086616992,405,0,/imu_data_acquisition2,27639.0,0.132080078125,-0.03466796875,0.726196289062,0.673828125,16.125,23.5625,53.9375,-12.05,-1.95,0.19
1542402258099613904,406,0,/imu_data_acquisition2,27652.0,0.127746582031,-0.0321655273438,0.729614257812,0.671020507812,-7.5625,61.0625,49.375,-11.44,-1.96,-0.06
1542402258105787038,407,0,/imu_data_acquisition2,27661.0,0.120483398438,-0.0288696289062,0.732849121094,0.669006347656,-24.75,92.8125,40.5625,-4.4,-5.53,2.77
1542402258116405010,408,0,/imu_data_acquisition2,27671.0,0.111083984375,-0.0225830078125,0.735473632812,0.668029785156,-17.625,135.0625,23.4375,8.51,0.62,9.09
1542402258134591102,410,0,/imu_data_acquisition2,27690.0,0.0878295898438,-0.0146484375,0.737243652344,0.669738769531,-77.375,127.375,-16.0,-0.46,-3.26,5.77
1542402258145509958,411,0,/imu_data_acquisition2,27700.0,0.0752563476562,-0.0114135742188,0.736877441406,0.671752929688,-73.875,135.25,-21.5,-0.75,-2.24,7.11
1542402258158058881,412,0,/imu_data_acquisition2,27712.0,0.0637817382812,-0.0059814453125,0.736633300781,0.673278808594,-44.6875,143.5625,-18.0625,-0.48,-1.23,12.67
1542402258164266109,413,0,/imu_data_acquisition2,27720.0,0.0540771484375,0.00067138671875,0.736755371094,0.673950195312,-20.125,138.0625,-9.375,-1.62,-0.28,15.57
1542402258176409006,414,0,/imu_data_acquisition2,27731.0,0.045166015625,0.0068359375,0.736938476562,0.674438476562,-17.375,126.5625,-7.125,-1.95,-1.43,13.63
1542402258190376043,415,0,/imu_data_acquisition2,27740.0,0.0366821289062,0.0123291015625,0.736633300781,0.675170898438,-20.6875,117.6875,-12.0625,-1.63,-2.14,13.08
1542402258195985078,416,0,/imu_data_acquisition2,27750.0,0.0289306640625,0.0178833007812,0.736083984375,0.676025390625,-13.375,111.8125,-15.6875,-1.18,-1.37,13.13
1542402258205794095,417,0,/imu_data_acquisition2,27761.0,0.0221557617188,0.0238037109375,0.735412597656,0.676818847656,-2.8125,106.0,-15.25,-1.53,1.22,13.29
1542402258217171907,418,0,/imu_data_acquisition2,27769.0,0.0162353515625,0.0298461914062,0.734985351562,0.67724609375,5.375,99.625,-10.9375,-2.07,2.27,13.45
1542402258226543903,419,0,/imu_data_acquisition2,27782.0,0.0110473632812,0.0357055664062,0.73486328125,0.677185058594,9.0,91.9375,-2.875,-2.44,2.5,13.57
1542402258239635944,420,0,/imu_data_acquisition2,27794.0,0.006103515625,0.0403442382812,0.735168457031,0.676635742188,0.875,80.1875,4.6875,-2.9,2.46,17.95
1542402258244133949,421,0,/imu_data_acquisition2,27799.0,0.001953125,0.0429077148438,0.735961914062,0.675659179688,-11.5,57.5625,12.1875,-4.47,1.4,19.07
1542402258256714105,422,0,/imu_data_acquisition2,27812.0,-0.00067138671875,0.0443725585938,0.736633300781,0.674865722656,-8.5625,35.0625,11.25,-1.48,0.3,10.61
1542402258269912004,423,0,/imu_data_acquisition2,27825.0,-0.0030517578125,0.0455932617188,0.737243652344,0.674072265625,-8.3125,31.1875,10.125,0.14,1.38,10.13
1542402258285178899,424,0,/imu_data_acquisition2,27840.0,-0.00726318359375,0.0469360351562,0.737854003906,0.673278808594,-11.8125,21.25,3.5625,-1.15,0.65,10.85
1542402258296452045,425,0,/imu_data_acquisition2,27847.0,-0.00726318359375,0.0469360351562,0.737854003906,0.673278808594,-10.8125,16.5625,2.0625,-1.02,-0.21,10.58
1542402258298063993,426,0,/imu_data_acquisition2,27852.0,-0.0089111328125,0.0471801757812,0.738037109375,0.673095703125,-10.8125,16.5625,2.0625,-1.02,-0.21,10.58
1542402258304358959,427,0,/imu_data_acquisition2,27859.0,-0.01025390625,0.0475463867188,0.738159179688,0.6728515625,-8.0625,14.25,2.1875,-0.81,0.3,10.3
1542402258315706968,428,0,/imu_data_acquisition2,27870.0,-0.0113525390625,0.0477905273438,0.73828125,0.672668457031,-6.0625,11.75,2.0,-0.57,-0.07,10.42
1542402258327893972,429,0,/imu_data_acquisition2,27882.0,-0.01220703125,0.0481567382812,0.738403320312,0.672546386719,-3.8125,10.3125,1.8125,-0.45,0.39,10.36
1542402258334824085,430,0,/imu_data_acquisition2,27890.0,-0.0128784179688,0.048583984375,0.738525390625,0.67236328125,-1.9375,9.4375,2.125,-1.01,0.27,10.47
1542402258345144033,431,0,/imu_data_acquisition2,27900.0,-0.0133666992188,0.0490112304688,0.738586425781,0.672241210938,0.0625,7.5625,1.75,-0.85,-0.03,10.53
1542402258355858087,432,0,/imu_data_acquisition2,27909.0,-0.0135498046875,-6.103515625e-05,-6.103515625e-05,0.672058105469,2.625,5.5625,2.1875,-0.73,0.18,10.39
1542402258364640951,433,0,/imu_data_acquisition2,27920.0,-0.0135498046875,0.0498657226562,0.738830566406,0.671875,3.9375,3.875,2.3125,-0.72,0.73,10.3
1542402258375456094,434,0,/imu_data_acquisition2,27930.0,-0.013427734375,0.0502319335938,0.738952636719,0.671752929688,3.9375,2.0,1.875,-0.78,0.92,-0.01
1542402258385282039,435,0,/imu_data_acquisition2,27939.0,-0.0133056640625,-6.103515625e-05,-6.103515625e-05,0.671691894531,3.625,1.0,1.3125,-0.74,0.83,10.12
1542402258395039081,436,0,/imu_data_acquisition2,27950.0,-0.0131225585938,0.0507202148438,0.739013671875,0.671630859375,3.125,0.25,0.875,-0.58,0.71,10.04
1542402258406634092,437,0,/imu_data_acquisition2,27961.0,-0.012939453125,0.0509033203125,0.739074707031,0.671630859375,3.0,0.0625,0.6875,-0.51,0.64,10.06
1542402258417331933,438,0,/imu_data_acquisition2,27969.0,-0.0127563476562,0.0511474609375,0.739013671875,0.671630859375,3.0625,0.25,0.375,-0.94,0.76,9.83
1542402258426476001,439,0,/imu_data_acquisition2,27982.0,-0.0125732421875,0.05126953125,0.739013671875,0.671630859375,2.8125,-0.4375,0.3125,-0.66,-0.01,-0.01
1542402258436837911,440,0,/imu_data_acquisition2,27992.0,-0.012451171875,0.0514526367188,0.739013671875,0.671630859375,2.125,-0.5,-0.0625,-0.42,1.01,10.39
1542402258446321964,441,0,/imu_data_acquisition2,28000.0,-0.0120849609375,0.0513916015625,0.739013671875,0.671630859375,1.125,-0.5625,-0.375,-0.34,0.71,9.99
1542402258455075979,442,0,/imu_data_acquisition2,28010.0,-0.0117797851562,0.0513916015625,0.739013671875,0.671630859375,0.5625,-0.125,-0.8125,-0.72,0.9,9.75
1542402258466243982,443,0,/imu_data_acquisition2,28020.0,-0.0115966796875,0.0513916015625,0.738952636719,0.671691894531,0.875,-0.875,-0.625,-0.71,0.52,9.93
1542402258476653099,444,0,/imu_data_acquisition2,28030.0,-0.011474609375,0.0513916015625,0.738952636719,0.671691894531,1.0,-0.0625,-0.0625,-0.55,0.86,10.04
1542402258485054969,445,0,/imu_data_acquisition2,28040.0,-0.0113525390625,0.05126953125,0.738952636719,0.671691894531,0.3125,-1.25,-0.25,-0.5,0.85,9.69
1542402258496665954,446,0,/imu_data_acquisition2,28050.0,-0.0114135742188,0.0512084960938,0.738952636719,0.671691894531,-0.875,-0.3125,-0.375,-0.4,0.88,10.01
1542402258506077051,447,0,/imu_data_acquisition2,28060.0,-0.0115966796875,0.0512084960938,0.738952636719,0.671691894531,-1.6875,1.3125,-0.375,-0.72,0.87,10.01
1542402258515053033,448,0,/imu_data_acquisition2,28070.0,-0.0115356445312,0.0510864257812,0.739013671875,0.671691894531,-2.1875,1.75,-0.1875,-0.39,0.71,9.62
1542402258529838085,449,0,/imu_data_acquisition2,28084.0,-0.0115966796875,0.051025390625,0.739013671875,0.671630859375,-2.9375,2.6875,-0.375,-0.46,0.81,9.6
1542402258534245967,450,0,/imu_data_acquisition2,28090.0,-0.0117797851562,0.051025390625,0.739013671875,0.671630859375,-3.0,3.625,-0.4375,-0.72,0.87,9.88
1542402258545773983,451,0,/imu_data_acquisition2,28100.0,-0.0118408203125,0.051025390625,0.739074707031,0.671630859375,-3.0625,3.625,-0.25,-0.41,0.82,9.8
1542402258558849096,452,0,/imu_data_acquisition2,28111.0,-0.011962890625,0.0509643554688,0.739074707031,0.671569824219,-3.75,4.125,-0.375,-0.45,0.78,9.64
