%time,field.header.seq,field.header.stamp,field.header.frame_id,field.time_stamp,field.quat_x,field.quat_y,field.quat_z,field.quat_w,field.gyro_x,field.gyro_y,field.gyro_z,field.accel_x,field.accel_y,field.accel_z
1542402604779112100,113,0,/imu_data_acquisition2,36250.0,0.00457763671875,0.0441284179688,0.732727050781,0.679077148438,0.8125,-1.125,-0.125,-0.91,0.43,9.78
1542402604789417982,114,0,/imu_data_acquisition2,36260.0,0.00457763671875,0.0440673828125,-6.103515625e-05,0.679077148438,1.0,-2.1875,-0.0625,-0.75,0.53,9.81
1542402604799484968,115,0,/imu_data_acquisition2,36270.0,0.00457763671875,0.0440673828125,0.732727050781,0.679077148438,1.1875,-2.3125,0.1875,-0.8,0.61,9.67
1542402604809431076,116,0,/imu_data_acquisition2,36281.0,0.00457763671875,0.0440673828125,0.732727050781,0.679077148438,1.0625,-2.125,0.25,-0.88,0.51,9.98
1542402604823503017,117,0,/imu_data_acquisition2,36292.0,0.00445556640625,0.0441284179688,0.732666015625,0.679138183594,1.0,-2.0,0.5,-1.0,0.53,9.97
1542402604833992004,118,0,/imu_data_acquisition2,36303.0,0.0045166015625,0.044189453125,0.732666015625,0.679138183594,1.0,-1.1875,0.4375,-0.59,0.71,9.87
1542402604842407941,119,0,/imu_data_acquisition2,36312.0,0.0045166015625,0.0441284179688,0.732666015625,0.679138183594,0.5625,-1.125,0.5625,-0.56,0.67,9.55
1542402604849409103,120,0,/imu_data_acquisition2,36320.0,0.00445556640625,0.044189453125,0.732666015625,0.679138183594,-0.125,-0.25,0.5,-0.97,0.69,9.65
1542402604861546993,121,0,/imu_data_acquisition2,36332.0,0.00421142578125,0.044189453125,0.732666015625,0.679138183594,-1.1875,0.625,0.25,-0.68,0.44,9.93
1542402604871077060,122,0,/imu_data_acquisition2,36341.0,0.00390625,0.044189453125,0.732666015625,0.679138183594,-1.625,1.1875,0.125,-0.66,0.46,9.64
1542402604877968072,123,0,/imu_data_acquisition2,36350.0,0.00360107421875,0.044189453125,0.732666015625,0.679138183594,-1.875,2.5,0.1875,-0.63,0.58,9.69
1542402604890901088,124,0,/imu_data_acquisition2,36362.0,0.003173828125,0.0443115234375,0.732666015625,0.679138183594,-2.25,3.1875,0.3125,-0.91,0.6,9.83
1542402604901106119,125,0,/imu_data_acquisition2,36371.0,0.00262451171875,0.04443359375,0.732727050781,0.679077148438,-2.625,4.3125,0.1875,-0.9,0.65,9.61
1542402604907587051,126,0,/imu_data_acquisition2,36379.0,0.00201416015625,0.0445556640625,0.732727050781,0.679077148438,-3.25,5.4375,-0.0625,-0.69,0.51,9.85
1542402604920445919,127,0,/imu_data_acquisition2,36391.0,0.00128173828125,0.0447387695312,0.732727050781,0.679077148438,-3.875,6.375,-0.1875,-0.81,0.66,-0.01
1542402604930193901,128,0,/imu_data_acquisition2,36400.0,0.00048828125,0.044921875,0.732727050781,0.679016113281,-4.375,7.3125,-0.3125,-0.85,0.55,9.86
1542402604937800884,129,0,/imu_data_acquisition2,36410.0,-0.0003662109375,0.045166015625,0.732727050781,0.679016113281,-5.0,8.4375,-0.4375,-0.88,0.59,9.74
1542402604950675964,130,0,/imu_data_acquisition2,36421.0,-0.00140380859375,0.04541015625,0.732727050781,0.679016113281,-5.5,9.125,-0.625,-0.96,0.51,9.99
1542402604960822105,131,0,/imu_data_acquisition2,36432.0,-0.00244140625,0.0457153320312,0.732727050781,0.679016113281,-5.3125,10.0,-0.625,-0.99,0.61,9.91
1542402604967458009,132,0,/imu_data_acquisition2,36439.0,-0.00347900390625,0.0460205078125,0.732666015625,0.679016113281,-5.1875,10.1875,-0.75,-0.97,0.51,9.86
1542402604981127977,133,0,/imu_data_acquisition2,36451.0,-0.00457763671875,0.0463256835938,0.732604980469,0.679016113281,-5.3125,10.75,-0.875,-0.8,0.3,9.78
1542402604991112947,134,0,/imu_data_acquisition2,36461.0,-0.00567626953125,0.046630859375,0.732604980469,0.679016113281,-5.0,11.5,-0.875,-0.69,0.28,9.76
1542402605001488924,135,0,/imu_data_acquisition2,36470.0,-0.00665283203125,0.047119140625,0.732543945312,0.679016113281,-3.75,11.875,-0.75,-1.24,0.09,9.7
1542402605011487007,136,0,/imu_data_acquisition2,36481.0,-0.007568359375,0.0477294921875,0.732543945312,0.678955078125,-2.25,13.125,-0.375,-0.99,0.14,9.96
1542402605020119905,137,0,/imu_data_acquisition2,36491.0,-0.0084228515625,0.0484008789062,0.732543945312,0.678955078125,-0.6875,12.9375,-0.3125,-1.0,0.47,10.07
1542402605029834032,138,0,/imu_data_acquisition2,36500.0,-0.0084228515625,0.0484008789062,0.732543945312,0.678955078125,0.125,13.5,0.0625,-1.18,0.54,10.13
1542402605041558027,139,0,/imu_data_acquisition2,36510.0,-0.0101318359375,0.0499877929688,0.732543945312,0.678833007812,0.25,14.3125,-0.25,-1.02,0.61,10.0
1542402605049099922,140,0,/imu_data_acquisition2,36520.0,-0.0110473632812,0.0508422851562,0.732482910156,0.678833007812,0.4375,14.5,-0.8125,-1.17,0.28,10.0
1542402605061745882,141,0,/imu_data_acquisition2,36532.0,-0.011962890625,0.0516967773438,0.732360839844,0.678833007812,0.375,14.8125,-1.3125,-1.14,0.38,10.02
1542402605068737983,142,0,/imu_data_acquisition2,36540.0,-0.0130615234375,0.0526123046875,0.732299804688,0.678833007812,0.6875,15.1875,-1.1875,-1.17,0.38,9.96
1542402605078828096,143,0,/imu_data_acquisition2,36550.0,-0.0130615234375,0.0526123046875,0.732299804688,0.678833007812,0.875,15.625,-1.375,-0.92,-0.01,-0.01
1542402605091625928,144,0,/imu_data_acquisition2,36562.0,-0.014892578125,0.0545043945312,0.732055664062,0.678894042969,0.875,15.4375,-1.5625,-1.25,0.77,10.01
1542402605099133014,145,0,/imu_data_acquisition2,36570.0,-0.0158081054688,0.0554809570312,0.731994628906,0.678894042969,1.4375,15.5,-1.3125,-1.06,0.82,9.86
1542402605109039068,146,0,/imu_data_acquisition2,36580.0,-0.0167846679688,0.056396484375,0.731872558594,0.678894042969,1.3125,15.125,-1.5625,-1.23,0.09,9.57
1542402605121876955,147,0,/imu_data_acquisition2,36592.0,-0.017822265625,0.0573120117188,0.731689453125,0.679016113281,0.5625,16.5625,-2.5625,-0.79,0.59,-0.01
1542402605128175973,148,0,/imu_data_acquisition2,36600.0,-0.017822265625,0.0573120117188,0.731689453125,0.679016113281,1.1875,17.375,-2.5625,-0.54,0.84,10.46
1542402605141004085,149,0,/imu_data_acquisition2,36613.0,-0.0198974609375,0.0595092773438,0.731262207031,0.67919921875,1.3125,18.3125,-3.0,-0.77,0.8,9.92
1542402605151040077,150,0,/imu_data_acquisition2,36622.0,-0.021240234375,0.0607299804688,0.73095703125,0.679382324219,-0.0625,21.3125,-4.6875,-1.19,1.29,9.97
1542402605159130096,151,0,/imu_data_acquisition2,36630.0,-0.0228881835938,0.0620727539062,0.730590820312,0.679626464844,-1.625,24.5,-6.0625,-0.69,0.44,10.37
1542402605169250011,152,0,/imu_data_acquisition2,36641.0,-0.0228881835938,0.0620727539062,0.730590820312,0.679626464844,-2.0625,29.125,-7.0625,-0.47,0.44,9.9
1542402605181317090,153,0,/imu_data_acquisition2,36651.0,-0.0248413085938,0.0635986328125,0.730163574219,0.679870605469,-1.875,35.375,-9.0,-0.72,0.15,9.83
1542402605188704013,154,0,/imu_data_acquisition2,36660.0,-0.0271606445312,0.0654907226562,0.729553222656,0.680236816406,-1.4375,42.0625,-10.5625,-0.73,0.38,10.04
1542402605200390100,155,0,/imu_data_acquisition2,36671.0,-0.0330200195312,0.0704345703125,0.72802734375,0.68115234375,-0.875,48.25,-12.125,-0.78,0.0,9.81
1542402605211294889,156,0,/imu_data_acquisition2,36681.0,-0.0364990234375,0.073486328125,0.72705078125,0.681640625,-1.1875,54.375,-13.6875,-1.58,0.0,10.31
1542402605217967033,157,0,/imu_data_acquisition2,36690.0,-0.0364990234375,0.073486328125,0.72705078125,0.681640625,-1.5625,60.1875,-14.3125,-1.12,1.02,10.08
1542402605230880022,158,0,/imu_data_acquisition2,36700.0,-0.0404052734375,0.0767822265625,0.72607421875,0.68212890625,-2.9375,65.75,-15.1875,-0.75,-0.25,9.97
1542402605241497039,159,0,/imu_data_acquisition2,36711.0,-0.044677734375,0.0803833007812,0.724975585938,0.6826171875,-6.1875,69.6875,-15.625,-1.35,0.22,9.83
1542402605249022960,160,0,/imu_data_acquisition2,36721.0,-0.0545654296875,0.0875854492188,0.722473144531,0.683654785156,-8.8125,74.0625,-18.875,-1.59,0.25,9.78
1542402605261423110,161,0,/imu_data_acquisition2,36732.0,-0.0603637695312,0.0912475585938,0.720947265625,0.684326171875,-13.3125,79.4375,-22.0625,-2.08,0.85,9.92
1542402605269160032,162,0,/imu_data_acquisition2,36740.0,-0.0603637695312,0.0912475585938,0.720947265625,0.684326171875,-13.3125,79.4375,-22.0625,-1.6,0.34,-0.01
1542402605278438091,163,0,/imu_data_acquisition2,36750.0,-0.0673217773438,0.0949096679688,0.719360351562,0.684814453125,-23.6875,95.75,-24.3125,-2.76,0.55,10.58
1542402605291049003,164,0,/imu_data_acquisition2,36762.0,-0.07470703125,0.098876953125,0.717529296875,0.685363769531,-16.4375,98.3125,-30.125,-2.93,0.92,10.14
1542402605301645040,165,0,/imu_data_acquisition2,36771.0,-0.0819091796875,0.103332519531,0.715270996094,0.686279296875,-1.0625,102.25,-28.0625,-3.02,1.27,9.95
1542402605308660030,166,0,/imu_data_acquisition2,36780.0,-0.08837890625,0.109008789062,0.712951660156,0.68701171875,2.9375,105.875,-34.625,-2.55,0.81,10.03
1542402605320660114,167,0,/imu_data_acquisition2,36791.0,-0.0949096679688,0.115051269531,0.710083007812,0.688110351562,-1.6875,108.1875,-49.0625,-3.06,0.55,9.78
1542402605327609062,168,0,/imu_data_acquisition2,36799.0,-0.101928710938,0.120849609375,0.706359863281,0.690002441406,-1.6875,108.1875,-49.0625,-2.01,0.9,10.86
1542402605339046955,169,0,/imu_data_acquisition2,36811.0,-0.109008789062,0.126647949219,-6.103515625e-05,0.691772460938,-6.0625,126.125,-36.9375,-1.04,0.08,11.09
1542402605350867986,170,0,/imu_data_acquisition2,36822.0,-0.117248535156,0.13330078125,0.69921875,0.692504882812,-7.75,164.6875,-35.1875,-0.21,-0.85,12.14
1542402605362436056,171,0,/imu_data_acquisition2,36831.0,-0.127807617188,0.14208984375,0.695556640625,0.692565917969,5.1875,217.625,-45.1875,-1.1,0.38,12.3
1542402605368824958,172,0,/imu_data_acquisition2,36841.0,-0.140808105469,0.154602050781,0.690368652344,0.692565917969,37.6875,326.5625,-65.625,-0.83,0.28,12.51
1542402605380206108,173,0,/imu_data_acquisition2,36850.0,-0.158447265625,0.175109863281,0.681884765625,0.692260742188,37.6875,326.5625,-65.625,-5.46,-2.3,9.17
1542402605388837099,174,0,/imu_data_acquisition2,36860.0,-0.175903320312,0.195373535156,0.6728515625,0.691467285156,107.9375,363.0,-69.75,-6.05,-1.6,9.36
1542402605400088071,175,0,/imu_data_acquisition2,36871.0,-0.191284179688,0.221557617188,0.661254882812,0.690673828125,141.1875,363.0625,-80.375,-5.99,-0.15,9.53
1542402605411456108,176,0,/imu_data_acquisition2,36881.0,-0.204711914062,0.249206542969,0.647705078125,0.690246582031,153.0,348.8125,-94.8125,-2.72,0.72,17.1
1542402605417535066,177,0,/imu_data_acquisition2,36889.0,-0.013671875,-6.103515625e-05,-6.103515625e-05,0.690368652344,153.0,348.8125,-94.8125,-7.86,-1.19,27.82
1542402605428653955,178,0,/imu_data_acquisition2,36900.0,-0.226806640625,0.295043945312,0.616760253906,0.693603515625,119.25,259.8125,-137.4375,-4.22,0.08,29.14
1542402605442650079,179,0,/imu_data_acquisition2,36911.0,-0.233459472656,0.302795410156,0.604919433594,0.698486328125,5.9375,56.875,-0.0625,1.56,2.0,18.4
1542402605448549985,180,0,/imu_data_acquisition2,36920.0,-0.239318847656,0.303894042969,0.595886230469,0.703735351562,-37.375,14.5,-127.6875,1.97,2.16,14.68
1542402605460365056,181,0,/imu_data_acquisition2,36932.0,-0.245544433594,0.300231933594,0.588928222656,0.708984375,-70.875,-10.9375,-119.3125,2.4,1.51,11.67
1542402605467933893,182,0,/imu_data_acquisition2,36939.0,-0.252258300781,0.293579101562,0.583801269531,0.713684082031,-6.875,-0.0625,-0.0625,2.4,1.51,11.67
1542402605479644060,183,0,/imu_data_acquisition2,36951.0,-0.264404296875,0.2763671875,0.575805664062,0.722595214844,-81.0,-40.75,-108.6875,1.89,0.01,8.96
1542402605490394115,184,0,/imu_data_acquisition2,36962.0,-0.264404296875,0.2763671875,0.575805664062,0.722595214844,-61.625,-54.5,-104.8125,1.41,0.28,9.15
1542402605499954938,185,0,/imu_data_acquisition2,36971.0,-0.267944335938,0.267639160156,0.572021484375,0.7275390625,-37.5625,-69.875,-99.1875,1.34,1.19,9.46
1542402605509505033,186,0,/imu_data_acquisition2,36981.0,-0.269104003906,0.25927734375,0.568359375,0.733032226562,-22.0,-85.375,-88.1875,1.0,5.49,11.06
1542402605518907070,187,0,/imu_data_acquisition2,36989.0,-0.268249511719,0.250915527344,0.565246582031,0.738586425781,-22.0,-85.375,-88.1875,1.0,5.49,11.06
1542402605530817031,188,0,/imu_data_acquisition2,37000.0,-0.26611328125,0.241943359375,0.563720703125,0.743530273438,-20.5,-102.625,-68.5625,0.07,7.15,12.85
1542402605540240049,189,0,/imu_data_acquisition2,37011.0,-0.262573242188,0.23193359375,0.564270019531,0.74755859375,-24.25,-149.1875,-17.8125,-0.74,5.76,11.7
1542402605551765918,190,0,/imu_data_acquisition2,37023.0,-0.25732421875,0.220947265625,0.56689453125,0.750732421875,-16.25,-169.375,4.125,-0.65,4.82,10.41
1542402605562215089,191,0,/imu_data_acquisition2,37033.0,-0.250122070312,0.209533691406,0.571044921875,0.753295898438,0.3125,-183.8125,22.625,-0.64,4.32,9.4
1542402605570177078,192,0,/imu_data_acquisition2,37041.0,-0.240844726562,0.1982421875,0.576354980469,0.75537109375,16.5625,-193.1875,38.1875,-0.96,4.05,8.98
1542402605580845117,193,0,/imu_data_acquisition2,37052.0,-0.229675292969,0.1875,0.582336425781,0.756958007812,29.0625,-201.0625,51.0625,-1.73,3.38,10.01
1542402605590295076,194,0,/imu_data_acquisition2,37061.0,-0.217102050781,0.177062988281,0.588928222656,0.758056640625,38.75,-210.75,61.5,-2.21,2.92,10.92
1542402605600142002,195,0,/imu_data_acquisition2,37071.0,-0.203186035156,0.166564941406,0.596069335938,0.758728027344,45.625,-222.75,68.625,-2.62,2.46,11.78
1542402605610193014,196,0,/imu_data_acquisition2,37081.0,-0.188049316406,0.15576171875,0.603515625,0.759033203125,49.625,-236.0625,72.0625,-3.11,1.72,12.35
1542402605618676900,197,0,/imu_data_acquisition2,37090.0,-0.171813964844,0.144226074219,0.611083984375,0.759094238281,49.625,-12.0625,-0.0625,-3.11,1.72,12.35
1542402605632435083,198,0,/imu_data_acquisition2,37103.0,-0.154846191406,0.131958007812,0.618591308594,0.758911132812,51.6875,-255.4375,69.0625,-3.27,0.27,11.72
1542402605639568090,199,0,/imu_data_acquisition2,37111.0,-0.137390136719,0.119201660156,0.625610351562,0.758605957031,56.4375,-258.5625,62.3125,-3.53,-0.91,10.85
1542402605650861978,200,0,/imu_data_acquisition2,37122.0,-0.119445800781,0.106262207031,0.631896972656,0.758361816406,63.5625,-256.875,52.75,-3.55,-1.26,-0.01
1542402605661319971,201,0,/imu_data_acquisition2,37132.0,-0.101196289062,0.09375,0.637145996094,0.75830078125,70.75,-249.875,41.0625,-3.42,-1.32,9.82
1542402605667370080,202,0,/imu_data_acquisition2,37139.0,-0.0828247070312,0.0818481445312,0.641174316406,0.758483886719,70.75,-249.875,41.0625,-3.42,-1.32,9.82
1542402605679972887,203,0,/imu_data_acquisition2,37150.0,-0.0647583007812,0.0709838867188,0.64404296875,0.758911132812,77.4375,-238.0625,29.0625,-0.72,-0.01,-0.01
1542402605691500902,204,0,/imu_data_acquisition2,37162.0,-0.046875,0.0614624023438,0.645690917969,0.759704589844,101.75,-218.0625,7.9375,-4.94,0.0,15.44
1542402605699281930,205,0,/imu_data_acquisition2,37171.0,-0.0283813476562,0.0530395507812,0.646362304688,0.760620117188,105.5625,-217.5,5.6875,-4.87,2.22,15.53
1542402605710901975,206,0,/imu_data_acquisition2,37182.0,-0.00970458984375,0.0447998046875,0.646667480469,0.761413574219,90.0625,-209.5625,10.75,-4.46,4.7,12.38
1542402605718158006,207,0,/imu_data_acquisition2,37189.0,0.007568359375,0.0362548828125,0.647033691406,0.761535644531,90.0625,-209.5625,10.75,-4.46,4.7,12.38
1542402605729763031,208,0,/imu_data_acquisition2,37201.0,0.0224609375,0.0277709960938,0.648010253906,0.760803222656,61.1875,-164.375,31.625,-5.29,2.57,11.21
1542402605741048097,209,0,/imu_data_acquisition2,37212.0,0.0354614257812,0.0205078125,0.649475097656,0.75927734375,74.0,-139.9375,41.4375,-7.37,0.54,14.86
1542402605752197980,210,0,/imu_data_acquisition2,37222.0,0.0479736328125,0.0154418945312,0.651550292969,0.756958007812,106.25,-126.125,51.875,-9.35,0.22,18.82
1542402605760051965,211,0,/imu_data_acquisition2,37232.0,0.061767578125,0.0130004882812,0.654113769531,0.753723144531,140.625,-128.4375,66.3125,-10.99,1.99,21.17
1542402605772277116,212,0,/imu_data_acquisition2,37242.0,0.077880859375,0.0122680664062,0.657470703125,0.749389648438,144.875,-142.375,85.5,-13.37,6.26,22.82
1542402605779608964,213,0,/imu_data_acquisition2,37250.0,0.0950317382812,0.0107421875,0.661682128906,0.743713378906,144.875,-142.375,85.5,-13.37,6.26,22.82
1542402605789508104,214,0,/imu_data_acquisition2,37261.0,0.111328125,0.00592041015625,0.667053222656,0.736633300781,56.8125,-185.625,135.5,-14.59,6.28,18.93
1542402605801698923,215,0,/imu_data_acquisition2,37273.0,0.125366210938,-0.00372314453125,0.673583984375,0.728393554688,3.375,-198.8125,154.5,-14.56,3.73,14.95
1542402605812793970,216,0,/imu_data_acquisition2,37282.0,0.136779785156,-6.103515625e-05,-6.103515625e-05,0.719360351562,3.375,-198.8125,154.5,-14.05,-2.27,6.59
1542402605818454980,217,0,/imu_data_acquisition2,37290.0,0.146423339844,-0.0327758789062,0.688232421875,0.709838867188,-25.5,-198.5625,163.1875,-14.05,-2.27,6.59
1542402605831505060,218,0,/imu_data_acquisition2,37303.0,0.155090332031,-0.0473022460938,0.6953125,0.700134277344,-9.875,-156.5625,144.875,-13.61,-5.86,-0.22
1542402605842127084,219,0,/imu_data_acquisition2,37312.0,0.1630859375,-0.0590209960938,0.701721191406,0.691040039062,11.25,-119.0,122.8125,-12.86,-6.57,-3.87
1542402605849796056,220,0,/imu_data_acquisition2,37321.0,-6.103515625e-05,-6.103515625e-05,-6.103515625e-05,0.682922363281,11.25,-119.0,122.8125,-12.52,-5.69,-3.88
1542402605860790014,221,0,/imu_data_acquisition2,37332.0,0.175720214844,-0.071044921875,0.712097167969,0.675964355469,32.1875,-30.75,84.5,-12.15,-4.45,-2.73
1542402605870523929,222,0,/imu_data_acquisition2,37341.0,0.178894042969,-0.0721435546875,0.716674804688,0.670227050781,32.1875,-14.75,-0.0625,-12.15,-4.45,-2.73
1542402605877536058,223,0,/imu_data_acquisition2,37350.0,0.179138183594,-0.0714721679688,0.721069335938,0.665466308594,21.25,8.0625,73.4375,-10.81,-2.54,1.26
1542402605890763998,224,0,/imu_data_acquisition2,37363.0,0.176330566406,-0.0701293945312,0.725524902344,0.661499023438,-26.3125,74.9375,66.5625,-9.76,-1.74,2.96
1542402605902947902,225,0,/imu_data_acquisition2,37373.0,0.169860839844,-0.0685424804688,0.730163574219,0.658264160156,-46.5625,99.1875,62.3125,-9.62,-3.48,4.39
1542402605910027027,226,0,/imu_data_acquisition2,37382.0,0.160827636719,-0.0667724609375,0.734741210938,0.655639648438,-46.5625,99.1875,62.3125,5.86,-0.16,8.74
1542402605920877933,227,0,/imu_data_acquisition2,37392.0,0.149353027344,-0.0626831054688,0.739013671875,0.653930664062,-63.25,154.5625,35.3125,4.46,-1.52,16.28
1542402605930639982,228,0,/imu_data_acquisition2,37402.0,0.135986328125,-0.0585327148438,0.742492675781,0.653259277344,-63.25,154.5625,35.3125,3.26,-3.32,9.22
1542402605939300060,229,0,/imu_data_acquisition2,37411.0,0.122375488281,-0.0556640625,0.744567871094,0.653869628906,-15.125,-0.0625,-0.0625,3.26,-3.32,9.22
1542402605956048011,230,0,/imu_data_acquisition2,37425.0,0.109191894531,-0.05126953125,0.746276855469,0.654602050781,-36.875,160.375,-0.0625,-1.46,-2.3,13.1
1542402605968954086,232,0,/imu_data_acquisition2,37440.0,0.0865478515625,-0.037109375,0.75048828125,0.654113769531,-10.375,154.625,20.4375,-1.77,-2.57,14.98
1542402605979659080,233,0,/imu_data_acquisition2,37450.0,0.0772094726562,-0.0292358398438,0.75244140625,0.653442382812,-1.0625,145.4375,17.1875,-2.49,-4.54,14.81
1542402605991892099,234,0,/imu_data_acquisition2,37462.0,0.0681762695312,-0.00665283203125,-6.103515625e-05,0.653747558594,-7.8125,135.25,1.0625,-1.84,-3.68,14.8
1542402606000967025,235,0,/imu_data_acquisition2,37472.0,0.0597534179688,-0.0160522460938,0.753173828125,0.654907226562,-10.9375,123.25,-14.375,-1.26,-1.21,11.85
1542402606012295961,236,0,/imu_data_acquisition2,37483.0,0.0525512695312,-0.0096435546875,0.752624511719,0.656311035156,0.9375,113.9375,-19.6875,-1.68,0.56,12.16
1542402606020216941,237,0,/imu_data_acquisition2,37492.0,0.0465698242188,-6.103515625e-05,-6.103515625e-05,0.657409667969,17.25,110.125,-18.1875,-1.68,0.56,12.16
1542402606039882898,239,0,/imu_data_acquisition2,37511.0,0.0361938476562,0.0114135742188,0.751586914062,0.658569335938,18.8125,92.5,-5.5,-2.86,6.05,17.78
1542402606051089048,240,0,/imu_data_acquisition2,37523.0,0.0333862304688,0.0150146484375,0.752136230469,0.658020019531,10.1875,53.875,7.0625,0.79,-0.01,-0.01
1542402606062818050,241,0,/imu_data_acquisition2,37533.0,0.0309448242188,0.0164184570312,0.752319335938,0.657836914062,-6.125,32.875,2.25,-0.49,-0.37,12.49
1542402606067287921,242,0,/imu_data_acquisition2,37539.0,0.0287475585938,0.0175170898438,0.752624511719,0.657592773438,-7.625,27.75,3.375,-0.49,-0.37,12.49
1542402606078967094,243,0,/imu_data_acquisition2,37550.0,0.0269165039062,0.0183715820312,0.752868652344,0.657348632812,-6.375,23.25,3.4375,-0.99,0.86,11.0
1542402606091397047,244,0,/imu_data_acquisition2,37562.0,0.0254516601562,0.0189819335938,0.753051757812,0.657165527344,-5.8125,18.125,2.5,-0.77,0.05,10.32
1542402606101476907,245,0,/imu_data_acquisition2,37572.0,0.024169921875,0.0195922851562,0.753173828125,0.657104492188,-4.8125,16.125,1.375,-0.66,0.45,10.3
1542402606111780881,246,0,/imu_data_acquisition2,37583.0,0.0230712890625,0.0200805664062,0.753295898438,0.656982421875,-3.875,13.125,1.3125,-0.5,0.07,10.17
1542402606121987104,247,0,/imu_data_acquisition2,37590.0,0.022216796875,0.020263671875,0.753356933594,0.656921386719,-4.75,9.5625,0.6875,-0.5,0.07,10.17
1542402606127851009,248,0,/imu_data_acquisition2,37600.0,0.0214233398438,0.0205078125,0.75341796875,0.656860351562,-4.1875,9.0625,0.75,-0.74,0.28,10.24
1542402606142100095,249,0,/imu_data_acquisition2,37614.0,0.0206909179688,0.020751953125,0.753479003906,0.656799316406,-3.25,8.1875,1.1875,-0.51,-0.13,9.65
1542402606153729915,250,0,/imu_data_acquisition2,37625.0,0.0202026367188,0.0210571289062,0.753601074219,0.656677246094,1.25,7.25,2.25,-0.6,0.23,10.02
1542402606165452003,251,0,/imu_data_acquisition2,37635.0,0.019775390625,0.0215454101562,0.753723144531,0.656494140625,3.0625,6.75,2.8125,-0.69,0.45,10.0
1542402606171968936,252,0,/imu_data_acquisition2,37644.0,0.01953125,0.0220947265625,0.75390625,0.656311035156,3.5,6.8125,2.75,-0.84,0.81,10.29
1542402606181786060,253,0,/imu_data_acquisition2,37650.0,0.019287109375,0.022705078125,0.754089355469,0.656127929688,3.5,6.8125,2.75,-0.84,0.81,10.29
1542402606188694000,254,0,/imu_data_acquisition2,37660.0,0.01904296875,0.023193359375,0.754211425781,0.656005859375,2.5625,6.0,2.125,-0.63,0.81,-0.01
1542402606201232910,255,0,/imu_data_acquisition2,37672.0,0.018798828125,0.0236206054688,0.754272460938,0.655822753906,1.6875,5.75,1.75,-0.88,0.65,9.95
1542402606213797092,256,0,/imu_data_acquisition2,37685.0,0.0184936523438,0.0244140625,0.754455566406,0.655639648438,2.375,4.3125,1.3125,-0.75,0.91,10.0
1542402606217619895,257,0,/imu_data_acquisition2,37690.0,0.0184936523438,0.0244140625,0.754455566406,0.655639648438,2.375,4.3125,1.3125,-0.75,0.91,10.0
1542402606228537082,258,0,/imu_data_acquisition2,37700.0,0.018310546875,0.0247192382812,0.754516601562,0.655578613281,1.4375,4.125,1.0,-0.44,0.83,9.9
1542402606238501071,259,0,/imu_data_acquisition2,37710.0,0.0177612304688,0.0254516601562,0.754516601562,0.655578613281,0.1875,4.75,0.25,-0.54,0.85,9.97
1542402606250720977,260,0,/imu_data_acquisition2,37722.0,0.01708984375,0.0260009765625,0.754516601562,0.655578613281,-1.8125,5.4375,-0.375,-0.65,0.72,10.32
1542402606261603116,261,0,/imu_data_acquisition2,37733.0,0.016357421875,0.0264282226562,0.754516601562,0.655578613281,-2.4375,4.875,-0.5625,-1.0,0.59,10.24
1542402606269119024,262,0,/imu_data_acquisition2,37741.0,0.0155029296875,0.0270385742188,0.754455566406,0.655639648438,-2.375,5.0,-0.875,-1.0,0.59,10.24
1542402606278881072,263,0,/imu_data_acquisition2,37751.0,0.0147094726562,0.0274658203125,0.75439453125,0.655700683594,-2.1875,4.0625,-0.0625,-0.74,0.61,10.18
1542402606292608022,264,0,/imu_data_acquisition2,37764.0,0.0139770507812,0.0278930664062,0.75439453125,0.655700683594,-2.125,3.6875,-0.5,-0.7,0.52,10.25
1542402606303865909,265,0,/imu_data_acquisition2,37775.0,0.013671875,0.0279541015625,0.75439453125,0.655700683594,-1.8125,3.0625,-0.3125,-1.03,0.63,10.02
1542402606311978101,266,0,/imu_data_acquisition2,37784.0,0.0133666992188,0.028076171875,0.75439453125,0.655639648438,-1.5,3.375,-0.0625,-0.91,0.46,9.96
1542402606320421934,267,0,/imu_data_acquisition2,37792.0,0.0130615234375,0.0281372070312,0.75439453125,0.655639648438,-1.25,3.5,-0.0625,-0.91,0.46,9.96
1542402606329348087,268,0,/imu_data_acquisition2,37799.0,0.0121459960938,0.0286865234375,0.75439453125,0.655639648438,-1.0625,2.9375,0.1875,-0.9,0.45,9.97
1542402606339443922,269,0,/imu_data_acquisition2,37811.0,0.0113525390625,0.0292358398438,0.75439453125,0.655700683594,-0.625,2.625,0.25,-0.89,0.52,9.96
1542402606353341102,270,0,/imu_data_acquisition2,37825.0,0.0106811523438,0.0297241210938,0.75439453125,0.655700683594,-0.5,1.9375,0.5625,-0.94,0.47,9.78
1542402606363512039,271,0,/imu_data_acquisition2,37834.0,0.00994873046875,0.0302124023438,0.75439453125,0.655639648438,-0.1875,1.5625,0.625,-0.94,0.47,9.78
1542402606369560003,272,0,/imu_data_acquisition2,37842.0,0.0093994140625,0.0306396484375,0.75439453125,0.655578613281,-0.125,1.5,0.8125,-0.79,0.58,10.06
1542402606380748987,273,0,/imu_data_acquisition2,37852.0,0.0087890625,0.0311279296875,0.754455566406,0.655578613281,-0.0625,1.5625,0.9375,-1.03,0.58,10.13
1542402606388916015,274,0,/imu_data_acquisition2,37861.0,0.00811767578125,0.0316772460938,0.754455566406,0.655517578125,0.0,1.1875,0.8125,-1.04,-0.01,-0.01
1542402606402565956,275,0,/imu_data_acquisition2,37875.0,0.0074462890625,0.0321655273438,0.754516601562,0.655456542969,0.375,0.3125,0.9375,-0.93,0.68,9.77
1542402606410989046,276,0,/imu_data_acquisition2,37882.0,0.00701904296875,0.0325927734375,0.754516601562,0.655395507812,0.375,0.3125,0.9375,-0.93,0.68,-0.01
1542402606418948888,277,0,/imu_data_acquisition2,37891.0,0.00653076171875,0.0330810546875,0.754577636719,0.655395507812,0.0625,1.0625,0.6875,-1.0,0.72,10.03
1542402606432647943,278,0,/imu_data_acquisition2,37904.0,0.006103515625,0.0335083007812,0.754516601562,0.655395507812,-0.5625,1.375,0.375,-0.95,0.5,9.81
1542402606438934087,279,0,/imu_data_acquisition2,37910.0,0.005615234375,0.033935546875,0.754516601562,0.655395507812,-0.625,1.4375,0.3125,-0.95,0.5,9.81
1542402606454174995,280,0,/imu_data_acquisition2,37925.0,0.005126953125,0.0343627929688,0.754516601562,0.655395507812,-0.5625,1.75,0.375,-0.9,0.66,9.66
1542402606464726924,281,0,/imu_data_acquisition2,37936.0,0.00433349609375,0.0350341796875,0.754516601562,0.655334472656,-0.9375,1.6875,0.125,-0.91,0.67,10.04
1542402606472721099,282,0,/imu_data_acquisition2,37941.0,0.00433349609375,0.0350341796875,0.754516601562,0.655334472656,-0.9375,1.6875,0.125,-0.91,0.67,10.04
1542402606478581905,283,0,/imu_data_acquisition2,37950.0,0.00384521484375,0.0353393554688,0.754455566406,0.655334472656,-1.4375,2.3125,0.0,-0.93,0.64,9.83
1542402606489331960,284,0,/imu_data_acquisition2,37960.0,0.0032958984375,0.0357055664062,0.754455566406,0.655334472656,-1.6875,3.1875,-0.375,-0.96,0.62,9.85
1542402606500931978,285,0,/imu_data_acquisition2,37970.0,0.0028076171875,0.0359497070312,0.754455566406,0.655395507812,-2.0625,3.4375,-0.625,-0.78,0.61,9.66
1542402606510924100,286,0,/imu_data_acquisition2,37981.0,0.00201416015625,0.036376953125,0.75439453125,0.655395507812,-2.75,4.5,-0.6875,-1.16,0.6,9.73
1542402606519632101,287,0,/imu_data_acquisition2,37990.0,0.00128173828125,0.0366821289062,0.754333496094,0.655456542969,-3.1875,5.25,-0.0625,-0.89,0.58,9.86
1542402606527580976,288,0,/imu_data_acquisition2,37999.0,0.00054931640625,0.0369873046875,0.754272460938,0.655517578125,-3.5625,6.0625,-0.9375,-0.79,0.6,-0.01
1542402606538759946,289,0,/imu_data_acquisition2,38010.0,-0.0003662109375,0.0372924804688,0.754211425781,0.655578613281,-3.875,7.1875,-0.0625,-0.87,0.44,9.72
1542402606551264047,290,0,/imu_data_acquisition2,38021.0,-0.0013427734375,0.0376586914062,0.754150390625,0.655578613281,-3.875,8.625,-1.1875,-0.91,0.42,9.83
1542402606557295083,291,0,/imu_data_acquisition2,38029.0,-0.0023193359375,0.0380859375,0.754089355469,0.655639648438,-3.875,9.8125,-1.1875,-0.85,0.56,9.6
1542402606569060087,292,0,/imu_data_acquisition2,38040.0,-0.00347900390625,0.03857421875,0.754028320312,0.655700683594,-3.5625,10.875,-1.375,-1.01,-0.01,-0.01
1542402606580024003,293,0,/imu_data_acquisition2,38050.0,-0.00469970703125,0.0391235351562,0.753967285156,0.65576171875,-2.9375,11.3125,-1.25,-1.07,0.23,9.98
1542402606587342977,294,0,/imu_data_acquisition2,38059.0,-6.103515625e-05,-6.103515625e-05,-6.103515625e-05,0.65576171875,-1.75,11.25,-1.0,-0.92,0.23,9.9
1542402606600811004,295,0,/imu_data_acquisition2,38071.0,-0.0069580078125,0.0403442382812,0.753784179688,0.655822753906,-0.9375,11.75,-0.9375,-0.99,0.25,9.76
1542402606608480930,296,0,/imu_data_acquisition2,38080.0,-0.008056640625,0.0411987304688,0.753723144531,0.655822753906,-0.1875,12.875,-0.8125,-1.14,0.5,9.95
1542402606617954015,297,0,/imu_data_acquisition2,38089.0,-0.009033203125,0.0419921875,0.753662109375,0.655822753906,0.0,12.4375,-0.875,-1.02,-0.01,-0.01
1542402606629018068,298,0,/imu_data_acquisition2,38100.0,-0.00994873046875,0.0427856445312,0.753601074219,0.655883789062,-0.25,12.4375,-1.1875,-1.11,0.6,9.87
1542402606641314029,299,0,/imu_data_acquisition2,38112.0,-0.010986328125,0.0435791015625,0.753479003906,0.655944824219,-0.4375,12.75,-0.0625,-1.1,0.31,9.92
1542402606653141975,300,0,/imu_data_acquisition2,38122.0,-0.0120849609375,0.04443359375,0.753356933594,0.656005859375,-0.1875,12.5625,-1.9375,-1.3,0.33,9.99
1542402606662883996,301,0,/imu_data_acquisition2,38135.0,-0.0131225585938,0.0452880859375,0.753234863281,0.656066894531,0.625,12.75,-1.6875,-1.31,0.37,10.2
1542402606672847032,302,0,/imu_data_acquisition2,38142.0,-0.01416015625,0.046142578125,0.753112792969,0.656127929688,1.3125,12.4375,-1.5,-1.31,0.37,10.2
1542402606678147077,303,0,/imu_data_acquisition2,38150.0,-0.01513671875,0.047119140625,0.752990722656,0.656188964844,2.125,13.0,-1.3125,-1.25,-0.01,-0.01
1542402606688607931,304,0,/imu_data_acquisition2,38160.0,-0.0159912109375,0.048095703125,0.752868652344,0.656188964844,2.625,12.9375,-1.3125,-1.0,0.36,10.17
1542402606701611995,305,0,/imu_data_acquisition2,38171.0,-0.0170288085938,0.0490112304688,0.752746582031,0.656311035156,2.6875,13.375,-2.0625,-1.37,0.1,9.73
1542402606707636117,306,0,/imu_data_acquisition2,38179.0,-0.0177612304688,0.0499877929688,0.752563476562,0.656372070312,2.9375,13.75,-2.25,-1.54,0.69,9.15
1542402606718827962,307,0,/imu_data_acquisition2,38190.0,-0.0185546875,0.0509643554688,0.752380371094,0.656494140625,2.5625,14.75,-2.8125,-1.05,0.34,9.82
1542402606730103015,308,0,/imu_data_acquisition2,38200.0,-0.0194091796875,0.0518798828125,0.752136230469,0.656677246094,2.3125,14.8125,-3.625,-1.25,0.41,10.38
1542402606737948894,309,0,/imu_data_acquisition2,38210.0,-6.103515625e-05,-6.103515625e-05,-6.103515625e-05,0.656921386719,1.5,15.3125,-4.625,-1.56,0.83,9.96
1542402606749811887,310,0,/imu_data_acquisition2,38221.0,-0.0213623046875,0.0538330078125,0.75146484375,0.657165527344,0.8125,17.125,-5.5625,-1.37,1.05,9.71
1542402606763715982,311,0,/imu_data_acquisition2,38232.0,-0.0225830078125,0.0548706054688,0.751098632812,0.657531738281,0.5,19.125,-6.25,-1.09,0.7,9.83
1542402606767762899,312,0,/imu_data_acquisition2,38240.0,-0.0239868164062,0.05615234375,0.750671386719,0.657836914062,0.875,22.25,-7.0,-1.14,0.46,10.03
1542402606778795003,313,0,/imu_data_acquisition2,38250.0,-0.0256958007812,0.0577392578125,0.750183105469,0.658203125,1.0,26.9375,-8.0625,-1.02,0.76,9.91
1542402606788149118,314,0,/imu_data_acquisition2,38259.0,-0.027587890625,0.0594482421875,0.749572753906,0.658630371094,1.4375,30.125,-8.6875,-1.1,0.35,10.16
1542402606799395084,315,0,/imu_data_acquisition2,38271.0,-0.0296630859375,0.0614624023438,0.7490234375,0.658996582031,1.9375,34.125,-8.8125,-1.36,0.22,10.25
1542402606810082912,316,0,/imu_data_acquisition2,38281.0,-0.0319213867188,0.0635986328125,0.748413085938,0.659362792969,1.875,37.0,-8.5,-1.23,0.25,10.22
1542402606821572065,317,0,/imu_data_acquisition2,38292.0,-6.103515625e-05,-6.103515625e-05,-6.103515625e-05,0.65966796875,1.9375,39.9375,-8.3125,-0.97,0.4,9.9
1542402606829509973,318,0,/imu_data_acquisition2,38300.0,-0.0372314453125,0.068359375,0.747253417969,0.659912109375,0.375,43.8125,-7.9375,-1.25,0.32,9.89
1542402606841835975,319,0,/imu_data_acquisition2,38310.0,-0.0403442382812,0.07080078125,0.746704101562,0.66015625,-2.4375,46.4375,-8.125,-0.99,0.2,9.74
1542402606868514060,321,0,/imu_data_acquisition2,38340.0,-0.0521850585938,0.0789794921875,0.744140625,0.661254882812,-8.0625,61.0,-14.4375,-1.39,0.73,10.07
1542402606877636909,322,0,/imu_data_acquisition2,38345.0,-0.0521850585938,0.0789794921875,0.744140625,0.661254882812,-8.0625,61.0,-14.4375,-1.39,0.73,10.07
1542402606885828018,323,0,/imu_data_acquisition2,38354.0,-0.0572509765625,0.08203125,0.742919921875,0.661865234375,-11.0,68.3125,-18.3125,-1.3,0.57,9.9
1542402606887852907,324,0,/imu_data_acquisition2,38360.0,-0.062744140625,0.085205078125,0.741516113281,0.662536621094,-13.1875,74.0,-19.625,-1.72,1.0,9.59
1542402606900988101,325,0,/imu_data_acquisition2,38371.0,-0.0690307617188,0.0887451171875,0.739929199219,0.663269042969,-16.1875,82.625,-22.75,-1.76,0.86,9.68
1542402606917772054,327,0,/imu_data_acquisition2,38390.0,-0.0828247070312,0.0972290039062,0.735656738281,0.665222167969,-10.125,97.625,-31.375,-2.41,0.44,10.23
1542402606930706024,328,0,/imu_data_acquisition2,38400.0,-0.0894165039062,0.102966308594,0.733032226562,0.666381835938,2.4375,104.0,-33.0625,-2.59,0.98,9.89
1542402606945832967,329,0,/imu_data_acquisition2,38414.0,-0.0960693359375,0.10888671875,0.729797363281,0.668090820312,4.6875,105.875,-41.75,-2.83,0.66,10.03
1542402606949767112,330,0,/imu_data_acquisition2,38421.0,-0.103210449219,0.115173339844,0.725891113281,0.670166015625,4.875,113.375,-51.0625,-2.63,0.92,10.07
1542402606961061954,331,0,/imu_data_acquisition2,38432.0,-0.111328125,0.121520996094,0.721557617188,0.672485351562,-0.875,122.3125,-57.5,-1.65,1.06,10.99
1542402606974292993,332,0,/imu_data_acquisition2,38443.0,-0.121398925781,0.129638671875,0.716918945312,0.674133300781,-2.125,154.375,-54.3125,-1.51,-0.48,11.2
1542402606978682994,333,0,/imu_data_acquisition2,38450.0,-0.133178710938,0.141296386719,0.711059570312,0.675842285156,16.5625,198.5625,-63.0625,-1.36,-0.17,11.53
1542402606988828897,334,0,/imu_data_acquisition2,38460.0,-0.146179199219,0.156433105469,0.703063964844,0.678161621094,40.3125,239.25,-81.1875,-1.48,-0.36,11.94
1542402606997906923,335,0,/imu_data_acquisition2,38469.0,-0.159790039062,0.174926757812,0.692810058594,0.681091308594,68.375,274.125,-100.0625,-1.41,-1.2,11.64
1542402607008517026,336,0,/imu_data_acquisition2,38480.0,-0.173461914062,0.197143554688,0.680358886719,0.684204101562,103.9375,308.5,-112.0625,-6.18,-1.35,8.88
1542402607018908977,337,0,/imu_data_acquisition2,38490.0,-0.185241699219,0.221801757812,0.665954589844,0.687744140625,144.25,316.1875,-122.25,-5.95,-0.08,8.62
1542402607028382062,338,0,/imu_data_acquisition2,38500.0,-0.195495605469,0.247680664062,0.649658203125,0.691589355469,171.8125,317.625,-133.3125,-5.45,0.4,8.9
1542402607038583040,339,0,/imu_data_acquisition2,38510.0,-0.204772949219,0.274475097656,0.631774902344,0.695434570312,191.375,320.625,-141.375,-3.96,1.6,-0.01
1542402607054678916,340,0,/imu_data_acquisition2,38526.0,-0.213073730469,0.298950195312,0.612426757812,0.700073242188,188.6875,295.8125,-0.0625,-5.99,0.85,29.35
1542402607058501958,341,0,/imu_data_acquisition2,38530.0,-0.220092773438,0.3154296875,0.593627929688,0.706848144531,144.875,210.75,-188.1875,-5.99,0.85,29.35
1542402607071696996,342,0,/imu_data_acquisition2,38544.0,-0.224975585938,0.322387695312,0.579040527344,0.714233398438,82.1875,103.5625,-174.375,1.17,2.8,19.97
1542402607078999996,343,0,/imu_data_acquisition2,38550.0,-0.229675292969,0.323486328125,0.567504882812,0.721496582031,30.5625,44.1875,-161.8125,1.8,3.17,15.67
1542402607089576005,344,0,/imu_data_acquisition2,38561.0,-0.235229492188,0.320190429688,0.558715820312,0.727966308594,-17.625,8.5,-149.25,2.52,2.9,12.21
1542402607102823972,345,0,/imu_data_acquisition2,38575.0,-0.241882324219,0.314086914062,0.552124023438,0.733459472656,-57.9375,-11.4375,-135.0,2.5,0.98,9.1
1542402607107939958,346,0,/imu_data_acquisition2,38580.0,-0.248779296875,0.306457519531,0.547119140625,0.738159179688,-77.9375,-24.125,-121.6875,2.32,0.44,8.97
1542402607119856119,347,0,/imu_data_acquisition2,38591.0,-0.254638671875,0.298461914062,0.54296875,0.742492675781,-74.4375,-35.75,-109.1875,1.92,0.67,9.18
1542402607134646892,348,0,/imu_data_acquisition2,38606.0,-0.258361816406,0.290588378906,0.539428710938,0.746887207031,-58.125,-49.75,-96.375,1.7,3.3,9.86
1542402607138405084,349,0,/imu_data_acquisition2,38610.0,-0.260009765625,0.282775878906,0.53662109375,0.751281738281,-41.0,-65.3125,-82.1875,1.7,3.3,9.86
1542402607152793884,350,0,/imu_data_acquisition2,38625.0,-0.259765625,0.274780273438,0.535034179688,0.755493164062,-29.9375,-81.6875,-65.0,1.37,4.07,10.51
1542402607163983106,351,0,/imu_data_acquisition2,38636.0,-0.2578125,0.266296386719,0.534851074219,0.759338378906,-24.25,-100.375,-45.4375,0.94,4.75,11.27
1542402607168143033,352,0,/imu_data_acquisition2,38640.0,-0.254272460938,0.256958007812,0.536437988281,0.762573242188,-22.4375,-121.5625,-23.5625,0.06,4.99,12.22
1542402607180082082,353,0,/imu_data_acquisition2,38652.0,-0.249145507812,0.246643066406,0.539978027344,0.765197753906,-22.1875,-144.125,-0.3125,-0.47,4.53,12.33
1542402607191356897,354,0,/imu_data_acquisition2,38662.0,-0.242370605469,0.2353515625,0.545227050781,0.767211914062,-20.0625,-167.0625,21.0625,-1.27,3.86,12.12
1542402607198613882,355,0,/imu_data_acquisition2,38671.0,-0.23388671875,0.22314453125,0.5517578125,0.768798828125,-15.5625,-188.4375,37.9375,-1.84,2.69,10.94
1542402607212799072,356,0,/imu_data_acquisition2,38684.0,-0.223876953125,0.210327148438,0.559204101562,0.77001953125,-8.5,-206.3125,50.1875,-2.06,2.52,10.49
1542402607218961000,357,0,/imu_data_acquisition2,38690.0,-0.212463378906,0.197082519531,0.567138671875,0.77099609375,-0.75,-219.125,59.4375,-2.27,2.24,10.07
1542402607228626012,358,0,/imu_data_acquisition2,38701.0,-0.2001953125,0.183532714844,0.575317382812,0.771545410156,3.25,-228.5,65.1875,-2.43,1.73,9.7
1542402607238404035,359,0,/imu_data_acquisition2,38710.0,-0.187255859375,0.169738769531,0.583374023438,0.771911621094,7.125,-233.8125,66.875,-2.83,0.55,10.18
1542402607250060081,360,0,/imu_data_acquisition2,38720.0,-0.173645019531,0.156005859375,0.591064453125,0.772155761719,14.9375,-236.75,65.3125,-3.23,0.44,11.0
1542402607257858991,361,0,/imu_data_acquisition2,38730.0,-0.159240722656,0.142578125,0.598083496094,0.772399902344,25.1875,-239.0,61.75,-3.79,0.97,11.49
1542402607269331932,362,0,/imu_data_acquisition2,38741.0,-0.144165039062,0.129028320312,0.604675292969,0.772644042969,30.9375,-243.0,58.3125,-3.85,1.61,11.68
1542402607279205083,363,0,/imu_data_acquisition2,38750.0,-0.128967285156,0.115356445312,0.61083984375,0.772644042969,32.1875,-244.375,56.125,-4.04,1.78,11.59
1542402607287839889,364,0,/imu_data_acquisition2,38760.0,-0.113891601562,0.101745605469,0.616577148438,0.772338867188,31.125,-242.25,54.625,-4.15,2.02,11.26
1542402607300606966,365,0,/imu_data_acquisition2,38772.0,-0.09912109375,0.0883178710938,0.621948242188,0.771728515625,29.375,-236.6875,53.4375,-4.21,2.24,11.0
1542402607308783054,366,0,/imu_data_acquisition2,38780.0,-0.0848388671875,0.0755615234375,0.626953125,0.770751953125,30.4375,-227.125,52.4375,-4.56,2.44,12.26
1542402607319103002,367,0,/imu_data_acquisition2,38791.0,-0.0704956054688,0.0637817382812,0.631469726562,0.76953125,37.9375,-216.9375,51.5625,-5.32,3.03,14.47
1542402607330228090,368,0,/imu_data_acquisition2,38800.0,-0.0556030273438,0.0530395507812,0.635864257812,0.767944335938,51.375,-211.9375,54.0,-5.98,4.17,16.07
1542402607340997934,369,0,/imu_data_acquisition2,38811.0,-0.0399169921875,0.0427856445312,0.640502929688,0.765686035156,60.75,-212.875,62.0625,-5.94,5.08,14.3
1542402607352317094,370,0,/imu_data_acquisition2,38824.0,-0.0242309570312,0.0325927734375,0.645568847656,0.762634277344,60.5,-212.0,72.125,-5.87,4.03,12.76
1542402607357737064,371,0,/imu_data_acquisition2,38830.0,-0.0091552734375,0.02294921875,0.650817871094,0.7587890625,59.1875,-202.6875,79.9375,-5.86,2.78,11.61
1542402607370713949,372,0,/imu_data_acquisition2,38841.0,0.00543212890625,0.0145263671875,0.656127929688,0.754516601562,64.5,-187.1875,83.6875,-5.79,1.59,10.5
1542402607381480932,373,0,/imu_data_acquisition2,38851.0,0.0194091796875,0.00799560546875,0.661193847656,0.749938964844,73.5625,-6.4375,-0.0625,-6.3,1.31,11.5
1542402607387679100,374,0,/imu_data_acquisition2,38860.0,0.0328979492188,0.0032958984375,0.665954589844,0.745300292969,83.4375,-144.875,81.125,-6.88,1.31,12.71
1542402607403388023,375,0,/imu_data_acquisition2,38875.0,0.0459594726562,0.0001220703125,0.670471191406,0.740478515625,91.875,-129.5,79.5625,-8.19,1.11,15.27
1542402607411938905,376,0,/imu_data_acquisition2,38881.0,0.0588989257812,-0.00225830078125,0.6748046875,0.735595703125,97.4375,-120.9375,78.25,-9.08,0.74,16.55
1542402607418168067,377,0,/imu_data_acquisition2,38890.0,0.072265625,-0.0042724609375,0.679016113281,0.730529785156,103.5,-121.5625,78.0,-9.3,0.55,16.3
1542402607431885957,378,0,/imu_data_acquisition2,38903.0,-6.103515625e-05,-6.103515625e-05,-6.103515625e-05,0.725219726562,107.25,-127.875,79.5,-9.28,0.32,14.13
1542402607440989971,379,0,/imu_data_acquisition2,38911.0,0.100036621094,-0.00921630859375,0.687072753906,0.719604492188,103.0625,-131.875,81.3125,-9.26,0.15,12.93
1542402607449938058,380,0,/imu_data_acquisition2,38921.0,0.113098144531,-0.0127563476562,0.690979003906,0.7138671875,90.0,-132.6875,82.25,-9.04,-0.29,11.57
1542402607462065935,381,0,/imu_data_acquisition2,38931.0,0.124877929688,-0.0172729492188,0.694702148438,0.708190917969,70.5,-130.1875,82.0,-9.0,-1.39,10.67
1542402607470829010,382,0,/imu_data_acquisition2,38941.0,0.135375976562,-0.0224609375,0.698120117188,0.702697753906,54.0625,-125.8125,79.9375,-9.55,-1.71,8.85
1542402607481220960,383,0,/imu_data_acquisition2,38953.0,0.14453125,-0.0282592773438,0.701171875,0.697631835938,37.5,-120.5625,74.0625,-9.42,-2.35,7.1
1542402607489113092,384,0,/imu_data_acquisition2,38959.0,0.151916503906,-0.03466796875,0.703491210938,0.693420410156,15.875,-111.375,62.125,-9.18,-3.54,5.43
1542402607501890897,385,0,/imu_data_acquisition2,38973.0,0.157958984375,-0.04052734375,0.705017089844,0.690185546875,6.625,-96.8125,47.625,-8.65,-4.31,2.91
1542402607511368036,386,0,/imu_data_acquisition2,38981.0,0.163208007812,-0.044677734375,0.705932617188,0.687744140625,13.125,-77.5,32.9375,-8.52,-3.76,2.67
1542402607517921924,387,0,/imu_data_acquisition2,38990.0,0.167907714844,-0.0467529296875,0.706420898438,0.685974121094,25.0,-56.3125,20.0,-8.24,-2.79,2.78
1542402607529634952,388,0,/imu_data_acquisition2,39001.0,0.171752929688,-0.0469970703125,0.706726074219,0.684692382812,32.0,-34.0625,11.625,-7.64,-0.67,4.01
1542402607542510986,389,0,/imu_data_acquisition2,39011.0,0.174255371094,-0.046142578125,0.707153320312,0.683715820312,29.4375,-13.0625,8.875,-7.3,-0.07,4.8
1542402607548369884,390,0,/imu_data_acquisition2,39020.0,0.174926757812,-0.044921875,0.707946777344,0.682800292969,18.3125,4.9375,11.3125,-6.74,1.14,4.38
1542402607562300920,391,0,/imu_data_acquisition2,39034.0,0.17333984375,-0.0438232421875,0.709350585938,0.681762695312,-0.875,24.625,18.125,-6.54,1.69,3.67
1542402607569629907,392,0,/imu_data_acquisition2,39040.0,0.168395996094,-0.0433959960938,0.711608886719,0.680725097656,-33.125,49.0625,28.4375,-7.37,-1.05,5.03
1542402607578738927,393,0,/imu_data_acquisition2,39050.0,0.160888671875,-0.0433959960938,0.714416503906,0.679565429688,-57.125,68.0,36.8125,-6.39,-2.17,0.17
1542402607591303110,394,0,/imu_data_acquisition2,39063.0,0.150512695312,-0.0419921875,0.7177734375,0.678527832031,-67.25,105.0,37.875,0.84,-1.63,2.41
1542402607601474046,395,0,/imu_data_acquisition2,39070.0,0.136474609375,-0.0388793945312,0.720886230469,0.678405761719,-84.75,149.4375,27.6875,5.7,-3.19,11.4
1542402607610635042,396,0,/imu_data_acquisition2,39081.0,0.122619628906,-0.0364379882812,0.722839355469,0.679077148438,-91.1875,141.625,12.5,0.82,-4.14,9.64
1542402607621330976,397,0,/imu_data_acquisition2,39093.0,0.109680175781,-0.0325927734375,0.724548339844,0.679626464844,-70.75,144.4375,8.8125,-0.67,-4.15,7.7
1542402607631025075,398,0,/imu_data_acquisition2,39101.0,0.0977783203125,-0.026611328125,0.725952148438,0.680236816406,-44.75,151.8125,2.9375,-0.68,-3.73,12.24
1542402607640757083,399,0,/imu_data_acquisition2,39112.0,-6.103515625e-05,-6.103515625e-05,-6.103515625e-05,0.680603027344,-25.125,157.5,2.625,-1.33,-3.88,13.46
1542402607650098085,400,0,/imu_data_acquisition2,39120.0,0.0762939453125,-0.0109252929688,0.728332519531,0.680908203125,-12.6875,156.875,-0.625,-2.14,-3.62,13.76
1542402607663707017,401,0,/imu_data_acquisition2,39135.0,0.0662231445312,-0.0029296875,0.728576660156,0.681762695312,-13.6875,151.5,-11.4375,-2.33,-3.2,13.56
1542402607670949935,402,0,/imu_data_acquisition2,39143.0,0.0564575195312,0.0045166015625,0.72802734375,0.683227539062,-15.1875,143.5625,-22.25,-1.65,2.7,12.21
1542402607678015947,403,0,/imu_data_acquisition2,39150.0,0.0473022460938,0.0119018554688,0.727233886719,0.684631347656,-11.3125,138.0625,-24.0625,-1.93,5.8,13.14
1542402607689068078,404,0,/imu_data_acquisition2,39160.0,0.03857421875,0.0192260742188,-6.103515625e-05,0.685363769531,-8.25,134.8125,-13.875,-2.6,8.0,-0.01
1542402607701757907,405,0,/imu_data_acquisition2,39173.0,0.029541015625,0.0252685546875,0.727600097656,0.684936523438,-21.375,127.125,4.125,-9.72,-4.56,36.5
1542402607708112955,406,0,/imu_data_acquisition2,39180.0,0.0220336914062,0.0280151367188,0.728454589844,0.684143066406,-36.9375,86.875,10.625,-4.23,-3.39,11.17
1542402607720977067,407,0,/imu_data_acquisition2,39191.0,0.0184936523438,0.0287475585938,0.728820800781,0.683898925781,-22.375,37.1875,3.75,0.43,2.31,8.98
1542402607732171058,408,0,/imu_data_acquisition2,39201.0,0.015869140625,0.0297241210938,0.729125976562,0.683532714844,-13.0,30.3125,4.75,-1.02,-0.27,10.79
1542402607738709926,409,0,/imu_data_acquisition2,39210.0,0.0137939453125,0.0302734375,0.729370117188,0.683288574219,-11.875,22.4375,3.125,-0.78,-0.8,11.28
1542402607751015901,410,0,/imu_data_acquisition2,39223.0,0.0122680664062,0.0307006835938,0.729553222656,0.68310546875,-9.0,16.9375,2.4375,-1.11,-0.96,10.85
1542402607761940002,411,0,/imu_data_acquisition2,39231.0,0.01123046875,0.03125,0.729736328125,0.682922363281,-2.9375,13.4375,2.6875,-0.6,0.9,9.92
1542402607768789052,412,0,/imu_data_acquisition2,39241.0,0.010498046875,0.0317993164062,0.729919433594,0.682739257812,-1.4375,11.25,2.3125,-0.61,0.28,10.2
1542402607781178951,413,0,/imu_data_acquisition2,39253.0,0.00982666015625,0.0321655273438,0.730041503906,0.6826171875,-2.25,8.75,1.875,-0.88,0.17,10.43
1542402607790909051,414,0,/imu_data_acquisition2,39261.0,0.00921630859375,0.032470703125,0.730163574219,0.682434082031,-2.4375,7.75,1.75,-0.62,0.65,10.65
1542402607801012039,415,0,/imu_data_acquisition2,39273.0,0.0086669921875,0.03271484375,0.730224609375,0.682373046875,-2.5,6.1875,1.5,-0.51,0.19,9.91
1542402607811537981,416,0,/imu_data_acquisition2,39280.0,0.0081787109375,0.0328979492188,0.730346679688,0.682250976562,-2.0,5.6875,1.5,-0.56,0.28,9.6
1542402607821368932,417,0,/imu_data_acquisition2,39293.0,0.00775146484375,0.033203125,0.73046875,0.68212890625,-0.9375,6.3125,2.0625,-0.78,0.14,9.99
1542402607831870079,418,0,/imu_data_acquisition2,39304.0,0.0074462890625,0.0336303710938,0.730590820312,0.681945800781,1.0625,6.5625,2.3125,-0.66,0.74,10.45
1542402607837820053,419,0,/imu_data_acquisition2,39310.0,0.0074462890625,0.0336303710938,0.730590820312,0.681945800781,1.875,5.5,2.25,-0.58,0.56,9.93
1542402607849529981,420,0,/imu_data_acquisition2,39320.0,0.00701904296875,0.034423828125,0.730834960938,0.681640625,1.3125,4.3125,1.75,-0.92,0.39,10.16
1542402607861788034,421,0,/imu_data_acquisition2,39333.0,0.00640869140625,0.0348510742188,0.730895996094,0.681579589844,1.5,4.375,1.5,-0.81,0.22,9.95
1542402607868130922,422,0,/imu_data_acquisition2,39340.0,0.0059814453125,0.0353393554688,0.73095703125,0.681457519531,2.1875,3.75,1.6875,-0.91,0.53,10.22
1542402607881103992,423,0,/imu_data_acquisition2,39353.0,0.00567626953125,0.0358276367188,0.731079101562,0.681335449219,3.1875,3.625,1.75,-0.68,0.46,10.39
1542402607892751932,424,0,/imu_data_acquisition2,39361.0,0.0054931640625,0.0363159179688,-6.103515625e-05,0.681213378906,3.9375,2.75,1.5625,-0.78,-0.01,-0.01
1542402607898684978,425,0,/imu_data_acquisition2,39370.0,0.00567626953125,0.0366821289062,0.731201171875,0.68115234375,4.625,2.0,1.3125,-0.72,0.99,10.22
1542402607911072969,426,0,/imu_data_acquisition2,39381.0,0.005859375,0.0369873046875,0.731262207031,0.681091308594,3.75,0.875,0.8125,-0.75,0.62,9.88
1542402607922180891,427,0,/imu_data_acquisition2,39391.0,0.0059814453125,0.0371704101562,0.731262207031,0.681091308594,2.5625,0.0,0.125,-1.05,0.75,10.45
1542402607928919076,428,0,/imu_data_acquisition2,39401.0,0.0062255859375,0.0372314453125,0.731201171875,0.681091308594,2.5,-1.4375,-0.3125,-0.97,0.57,10.83
1542402607941385030,429,0,/imu_data_acquisition2,39411.0,0.0062255859375,0.0372314453125,0.731201171875,0.681091308594,2.5,-1.4375,-0.3125,-0.65,0.44,9.71
1542402607951260089,430,0,/imu_data_acquisition2,39421.0,0.0068359375,0.037353515625,0.731201171875,0.681091308594,3.375,-2.875,-0.125,-0.94,0.77,10.24
1542402607961052894,431,0,/imu_data_acquisition2,39433.0,0.00701904296875,0.03759765625,0.731140136719,0.681091308594,5.5,-4.3125,-0.5625,-0.95,0.35,10.07
1542402607971407890,432,0,/imu_data_acquisition2,39441.0,0.00701904296875,0.03759765625,0.731140136719,0.681091308594,7.0625,-4.6875,-0.375,-0.88,0.39,10.24
1542402607980982065,433,0,/imu_data_acquisition2,39451.0,0.008544921875,0.0380249023438,0.731140136719,0.68115234375,8.5,-4.875,-0.1875,-0.68,0.28,10.01
1542402607990988969,434,0,/imu_data_acquisition2,39463.0,0.0093994140625,0.038330078125,0.731079101562,0.68115234375,9.4375,-5.3125,0.3125,-0.64,0.41,10.36
1542402607999420881,435,0,/imu_data_acquisition2,39471.0,0.0093994140625,0.038330078125,0.731079101562,0.68115234375,9.625,-5.25,0.375,-0.89,0.68,9.92
1542402608012274980,436,0,/imu_data_acquisition2,39484.0,0.0111694335938,0.0388793945312,0.731018066406,0.68115234375,9.375,-5.375,0.375,-0.83,-0.01,-0.01
1542402608021785974,437,0,/imu_data_acquisition2,39494.0,0.0120239257812,0.0390625,0.73095703125,0.68115234375,8.9375,-5.5625,0.4375,-0.66,0.73,9.76
1542402608028529882,438,0,/imu_data_acquisition2,39500.0,0.0120239257812,0.0390625,0.73095703125,0.68115234375,7.9375,-4.4375,0.5625,-0.59,0.91,9.53
1542402608041443109,439,0,/imu_data_acquisition2,39511.0,0.0133056640625,0.0394897460938,0.730895996094,0.681213378906,5.9375,-3.125,0.5,-0.82,1.02,9.55
1542402608052516937,440,0,/imu_data_acquisition2,39524.0,0.013671875,0.0396118164062,0.730895996094,0.681213378906,3.875,-2.5625,0.375,-0.85,0.93,9.74
1542402608058846950,441,0,/imu_data_acquisition2,39531.0,0.013671875,0.0396118164062,0.730895996094,0.681213378906,2.625,-2.4375,0.3125,-0.66,0.82,9.87
1542402608071975946,442,0,/imu_data_acquisition2,39543.0,-6.103515625e-05,-6.103515625e-05,-6.103515625e-05,0.681213378906,1.5625,-2.375,0.4375,-0.65,0.97,-0.01
1542402608081782102,443,0,/imu_data_acquisition2,39551.0,-6.103515625e-05,-6.103515625e-05,-6.103515625e-05,0.681213378906,0.5625,-0.0625,-0.0625,-0.87,0.89,9.74
1542402608088696002,444,0,/imu_data_acquisition2,39560.0,0.01416015625,0.039794921875,0.730834960938,0.681213378906,-0.25,-1.625,0.3125,-0.84,0.63,9.98
1542402608102998018,445,0,/imu_data_acquisition2,39574.0,0.0139770507812,0.0399780273438,0.730834960938,0.681213378906,-0.5,-1.375,0.3125,-0.64,0.7,9.83
1542402608111237049,446,0,/imu_data_acquisition2,39581.0,0.0139770507812,0.0399780273438,0.730834960938,0.681213378906,-0.75,-0.625,0.375,-0.86,0.71,9.77
1542402608121243000,447,0,/imu_data_acquisition2,39593.0,0.0133666992188,0.0403442382812,0.730834960938,0.681274414062,-0.6875,-0.1875,0.4375,-0.96,0.7,9.9
1542402608132033109,448,0,/imu_data_acquisition2,39601.0,0.0133666992188,0.0403442382812,0.730834960938,0.681274414062,-0.375,-0.0625,0.6875,-0.6,0.46,9.96
1542402608141238927,449,0,/imu_data_acquisition2,39613.0,0.0130615234375,0.0404663085938,0.730834960938,0.681213378906,0.0,0.75,1.0,-0.74,0.62,9.87
1542402608151664972,450,0,/imu_data_acquisition2,39623.0,0.0123901367188,0.0408325195312,0.73095703125,0.681091308594,0.4375,1.4375,1.1875,-0.86,0.68,9.75
1542402608161834001,451,0,/imu_data_acquisition2,39631.0,0.0123901367188,0.0408325195312,0.73095703125,0.681091308594,0.0625,1.625,1.3125,-0.66,0.92,9.57
1542402608171606063,452,0,/imu_data_acquisition2,39643.0,0.0121459960938,0.0410766601562,0.731018066406,0.681030273438,-1.125,2.5,0.875,-0.71,-0.01,-0.01
1542402608181688070,453,0,/imu_data_acquisition2,39653.0,0.0118408203125,0.041259765625,0.731079101562,0.680969238281,-2.375,3.8125,0.3125,-0.55,0.99,9.6
1542402608187943935,454,0,/imu_data_acquisition2,39660.0,0.011474609375,0.0413818359375,0.731079101562,0.680908203125,-2.375,3.8125,0.3125,-0.55,0.99,9.6
1542402608201826095,455,0,/imu_data_acquisition2,39673.0,0.0100708007812,0.0413818359375,0.731140136719,0.680908203125,-6.25,6.5625,-0.3125,-0.64,0.95,9.64
1542402608213100910,456,0,/imu_data_acquisition2,39684.0,0.0100708007812,0.0413818359375,0.731140136719,0.680908203125,-7.6875,7.8125,-0.5625,-0.77,0.8,9.9
1542402608220454931,457,0,/imu_data_acquisition2,39691.0,0.0091552734375,0.0413818359375,0.731201171875,0.680847167969,-8.375,8.5625,-0.9375,-0.76,0.81,9.76
1542402608233089923,458,0,/imu_data_acquisition2,39704.0,0.008056640625,0.04150390625,0.731140136719,0.680908203125,-8.875,9.3125,-1.125,-0.71,0.52,9.71
1542402608242332935,459,0,/imu_data_acquisition2,39711.0,0.0069580078125,0.04150390625,0.731140136719,0.680969238281,-8.875,9.3125,-1.125,-0.71,0.67,9.93
1542402608249627113,460,0,/imu_data_acquisition2,39721.0,0.00579833984375,0.0415649414062,0.731079101562,0.680969238281,-9.625,12.0625,-1.125,-0.69,0.56,9.47
1542402608262132883,461,0,/imu_data_acquisition2,39732.0,0.00445556640625,0.0416259765625,0.731079101562,0.681030273438,-10.0625,13.5625,-1.375,-0.84,0.57,9.62
1542402608270421028,462,0,/imu_data_acquisition2,39742.0,0.0030517578125,0.0418090820312,0.731018066406,0.681091308594,-9.75,14.125,-1.1875,-0.63,0.51,9.97
1542402608278842926,463,0,/imu_data_acquisition2,39750.0,0.0015869140625,0.0420532226562,0.73095703125,0.681091308594,-9.75,14.125,-0.0625,-0.93,0.4,9.63
1542402608289660930,464,0,/imu_data_acquisition2,39760.0,0.0,0.0424194335938,0.73095703125,0.681091308594,-9.0625,15.1875,-1.25,-0.93,0.4,9.63
1542402608300582885,465,0,/imu_data_acquisition2,39771.0,-0.00164794921875,0.0428466796875,0.730895996094,0.68115234375,-7.6875,15.5,-0.9375,-0.9,0.69,10.06
1542402608310139894,466,0,/imu_data_acquisition2,39781.0,-0.0030517578125,0.0433959960938,0.730895996094,0.68115234375,-6.3125,16.375,-1.1875,-0.98,0.67,9.92
1542402608322000980,467,0,/imu_data_acquisition2,39792.0,-0.0045166015625,0.0440063476562,0.730834960938,0.68115234375,-6.1875,16.1875,-1.625,-1.19,0.61,10.35
1542402608328867912,468,0,/imu_data_acquisition2,39800.0,-0.005859375,0.0445556640625,0.730712890625,0.68115234375,-6.1875,16.1875,-1.625,-1.19,0.61,10.35
1542402608339441061,469,0,/imu_data_acquisition2,39811.0,-0.00726318359375,0.045166015625,0.730651855469,0.681213378906,-5.8125,16.5625,-2.0625,-0.9,0.31,10.08
1542402608351763963,470,0,/imu_data_acquisition2,39822.0,-0.0086669921875,0.0458374023438,0.730529785156,0.681335449219,-5.3125,17.8125,-2.4375,-1.1,0.25,10.1
1542402608360475063,471,0,/imu_data_acquisition2,39832.0,-0.0101318359375,0.0466918945312,0.730346679688,0.681396484375,-3.125,19.1875,-2.4375,-1.15,-0.01,-0.01
1542402608370230913,472,0,/imu_data_acquisition2,39842.0,-0.011474609375,0.047607421875,0.730224609375,0.681457519531,-1.25,18.6875,-2.4375,-0.7,0.11,10.17
1542402608377424001,473,0,/imu_data_acquisition2,39849.0,-0.0126953125,0.048583984375,0.730041503906,0.681518554688,-1.25,18.6875,-2.4375,-0.7,0.11,10.17
1542402608388492107,474,0,/imu_data_acquisition2,39860.0,-0.013916015625,0.0496826171875,0.729919433594,0.681579589844,-0.0625,19.5625,-2.25,-1.41,0.44,10.01
1542402608400285959,475,0,/imu_data_acquisition2,39872.0,-0.01513671875,0.0509643554688,0.729736328125,0.681640625,1.75,22.0625,-3.5,-0.85,0.06,9.69
1542402608413938045,476,0,/imu_data_acquisition2,39882.0,-0.0164184570312,0.0523071289062,0.7294921875,0.681762695312,1.75,22.0625,-3.5,-0.82,0.55,10.19
1542402608421143054,477,0,/imu_data_acquisition2,39893.0,-0.0177612304688,0.0538330078125,0.729187011719,0.681945800781,2.0,26.375,-5.125,-1.08,1.0,9.98
1542402608427943944,478,0,/imu_data_acquisition2,39899.0,-0.019287109375,0.0554809570312,0.728820800781,0.682189941406,2.0,26.375,-5.125,-1.08,1.0,9.98
1542402608444559097,479,0,/imu_data_acquisition2,39911.0,-0.0211181640625,0.0572509765625,0.728454589844,0.682373046875,1.0,30.0625,-5.6875,-0.75,0.39,9.78
1542402608450700998,480,0,/imu_data_acquisition2,39922.0,-0.0232543945312,0.0593872070312,0.727966308594,0.6826171875,1.75,35.75,-7.0,-0.4,0.58,9.88
1542402608459693908,481,0,/imu_data_acquisition2,39931.0,-0.0258178710938,0.06201171875,0.727355957031,0.682983398438,2.125,-0.0625,-0.0625,-0.97,0.6,10.11
1542402608475951910,482,0,/imu_data_acquisition2,39942.0,-0.0287475585938,0.06494140625,0.726684570312,0.683288574219,2.4375,49.3125,-9.6875,-0.76,0.45,10.22
1542402608480631113,483,0,/imu_data_acquisition2,39952.0,-0.0321044921875,0.0682373046875,0.725891113281,0.683654785156,2.0,55.3125,-10.4375,-0.81,-0.12,10.35
1542402608487108945,484,0,/imu_data_acquisition2,39959.0,-0.0359497070312,0.07177734375,0.724975585938,0.684020996094,0.125,61.625,-12.6875,-0.81,-0.12,10.35
1542402608500569105,485,0,/imu_data_acquisition2,39972.0,-0.0403442382812,0.0753784179688,0.723937988281,0.684509277344,-3.6875,66.8125,-14.875,-0.89,0.66,9.97
1542402608511457920,486,0,/imu_data_acquisition2,39982.0,-0.0453491210938,0.0791015625,0.722900390625,0.684936523438,-10.875,79.75,-19.3125,-0.66,0.41,9.94
1542402608521560907,487,0,/imu_data_acquisition2,39992.0,-0.0504760742188,0.08251953125,0.721557617188,0.685546875,-10.875,79.75,-19.3125,-1.39,1.23,9.1
1542402608529247999,488,0,/imu_data_acquisition2,39999.0,-0.056884765625,0.0867309570312,0.719909667969,0.686279296875,-14.0,89.1875,-23.875,-1.39,1.23,9.1
1542402608538805961,489,0,/imu_data_acquisition2,40010.0,-0.0646362304688,0.091064453125,0.718139648438,0.686889648438,-23.9375,102.0625,-24.0625,-1.99,0.77,10.73
1542402608551354885,490,0,/imu_data_acquisition2,40022.0,-0.0735473632812,0.0958862304688,0.716125488281,0.687438964844,-28.5625,115.75,-27.0,-2.14,0.06,10.95
1542402608567873954,491,0,/imu_data_acquisition2,40032.0,-0.0820922851562,0.101440429688,0.713623046875,0.688293457031,-18.8125,119.0625,-32.8125,-1.89,1.1,10.12
1542402608570221900,492,0,/imu_data_acquisition2,40042.0,-0.0899658203125,0.108276367188,0.710876464844,0.689086914062,-2.375,124.0,-31.75,-2.93,0.64,10.18
1542402608579040050,493,0,/imu_data_acquisition2,40050.0,-0.0982055664062,0.116027832031,0.707763671875,0.689880371094,2.375,134.625,-34.1875,-2.93,0.64,10.18
1542402608589272975,494,0,/imu_data_acquisition2,40060.0,-0.107055664062,0.124206542969,0.704040527344,0.690979003906,2.8125,143.625,-42.3125,-2.06,0.4,10.7
1542402608601043939,495,0,/imu_data_acquisition2,40071.0,-0.117492675781,0.1328125,0.699890136719,0.69189453125,-6.0625,-0.0625,-0.0625,-1.58,1.05,10.91
1542402608611695051,496,0,/imu_data_acquisition2,40082.0,-0.130432128906,0.143310546875,0.695373535156,0.692016601562,-11.75,199.25,-43.9375,-1.96,0.09,11.12
1542402608621448040,497,0,/imu_data_acquisition2,40093.0,-0.145324707031,0.156616210938,0.689697265625,0.69189453125,-3.1875,240.25,-50.125,-2.13,0.06,11.01
1542402608632608890,498,0,/imu_data_acquisition2,40099.0,-0.161499023438,0.172119140625,0.6826171875,0.691589355469,6.6875,271.5,-59.0625,-2.13,0.06,11.01
