%time,field.header.seq,field.header.stamp,field.header.frame_id,field.time_stamp,field.quat_x,field.quat_y,field.quat_z,field.quat_w,field.gyro_x,field.gyro_y,field.gyro_z,field.accel_x,field.accel_y,field.accel_z
1542217724677437067,99,0,/imu_data_acquisition2,17432.0,-0.0977172851562,-0.0980834960938,0.779846191406,0.610473632812,-1.125,-0.125,0.6875,-1.25,-3.04,9.15
1542217724686988115,100,0,/imu_data_acquisition2,17442.0,-0.0972290039062,-0.0985717773438,0.779907226562,0.6103515625,-1.375,-7.9375,-0.0625,-1.12,-2.66,9.55
1542217724697369098,101,0,/imu_data_acquisition2,17452.0,-0.0965576171875,-0.0991821289062,0.780090332031,0.610168457031,-0.875,-11.0,1.25,-0.69,-2.69,9.12
1542217724707426071,102,0,/imu_data_acquisition2,17462.0,-0.0958251953125,-0.099853515625,0.780212402344,0.609985351562,-0.75,-12.5625,1.0625,-0.8,-0.01,-0.01
1542217724719569921,103,0,/imu_data_acquisition2,17474.0,-0.0950317382812,-0.100463867188,0.780395507812,0.609802246094,-1.375,-9.0,1.25,-0.92,-2.42,9.68
1542217724725028991,104,0,/imu_data_acquisition2,17480.0,-6.103515625e-05,-6.103515625e-05,-6.103515625e-05,0.609619140625,-1.375,-9.0,1.25,-0.92,-2.42,9.68
1542217724737943887,105,0,/imu_data_acquisition2,17492.0,-0.093994140625,-0.1015625,0.780578613281,0.609558105469,-1.0625,-9.3125,0.1875,-0.68,-2.55,9.46
1542217724748519897,106,0,/imu_data_acquisition2,17503.0,-0.0934448242188,-0.10205078125,0.780578613281,0.609558105469,-1.125,-8.3125,-1.0625,-0.13,-1.38,9.23
1542217724757852077,107,0,/imu_data_acquisition2,17513.0,-0.0932006835938,-0.102478027344,0.780517578125,0.609619140625,-1.5,-5.375,-1.6875,-0.09,-2.17,8.89
1542217724767235994,108,0,/imu_data_acquisition2,17521.0,-0.0932006835938,-0.102661132812,0.780334472656,0.609802246094,-1.9375,-0.75,-3.25,-0.09,-2.17,8.89
1542217724775198936,109,0,/imu_data_acquisition2,17530.0,-0.0936279296875,-0.102478027344,0.780090332031,0.610046386719,-1.1875,5.75,-0.0625,-0.45,-2.45,8.96
1542217724787969112,110,0,/imu_data_acquisition2,17542.0,-0.0944213867188,-0.101806640625,0.779846191406,0.6103515625,0.375,12.875,-2.5625,-0.61,-2.47,8.96
1542217724800492048,111,0,/imu_data_acquisition2,17554.0,-0.0953369140625,-0.101135253906,0.779602050781,0.610656738281,-0.375,14.25,-2.8125,-1.73,-2.67,9.9
1542217724811359882,112,0,/imu_data_acquisition2,17565.0,-0.0972290039062,-0.10009765625,0.779296875,0.610900878906,-3.375,10.1875,0.25,-0.89,-1.56,8.49
1542217724818236112,113,0,/imu_data_acquisition2,17572.0,-0.0972290039062,-0.10009765625,0.779296875,0.610900878906,-3.375,10.1875,0.25,-0.89,-0.01,-0.01
1542217724825695037,114,0,/imu_data_acquisition2,17580.0,-0.09814453125,-0.099853515625,0.779174804688,0.610961914062,-3.6875,10.3125,-0.3125,-0.23,-4.63,11.32
1542217724837363958,115,0,/imu_data_acquisition2,17592.0,-0.00506591796875,-6.103515625e-05,-6.103515625e-05,0.611083984375,-1.5625,9.5,-0.875,0.59,-2.61,10.21
1542217724848674058,116,0,/imu_data_acquisition2,17603.0,-0.100341796875,-0.0985717773438,0.778991699219,0.611083984375,-2.875,20.375,2.625,-0.48,-2.47,8.29
1542217724858202934,117,0,/imu_data_acquisition2,17613.0,-0.102294921875,-0.0972900390625,0.778930664062,0.611022949219,-2.625,27.25,3.9375,-1.26,-2.52,8.15
1542217724867631912,118,0,/imu_data_acquisition2,17621.0,-0.10498046875,-0.095703125,0.778869628906,0.610900878906,-4.875,35.75,5.3125,-1.26,-2.52,8.15
1542217724876806020,119,0,/imu_data_acquisition2,17630.0,-0.107238769531,-0.09521484375,0.781066894531,0.607727050781,-11.0,30.25,7.75,0.46,-2.6,7.56
1542217724886542081,120,0,/imu_data_acquisition2,17641.0,-0.110107421875,-0.0938720703125,0.781311035156,0.607116699219,-8.875,34.8125,12.1875,-0.14,-2.81,10.74
1542217724899163961,121,0,/imu_data_acquisition2,17653.0,-6.103515625e-05,-6.103515625e-05,-6.103515625e-05,0.606872558594,-4.0625,31.625,6.8125,-1.72,-2.73,10.24
1542217724908535957,122,0,/imu_data_acquisition2,17663.0,-0.114196777344,-0.0914916992188,0.781127929688,0.606994628906,-3.375,23.5625,0.875,-2.04,-2.78,8.31
1542217724917943000,123,0,/imu_data_acquisition2,17671.0,-0.115539550781,-0.0917358398438,0.781188964844,0.606628417969,-12.5625,9.9375,4.75,-2.04,-2.78,8.31
1542217724925415992,124,0,/imu_data_acquisition2,17680.0,-0.116943359375,-0.0140380859375,-6.103515625e-05,0.60498046875,-14.25,12.125,6.875,-4.18,-5.31,10.52
1542217724936624050,125,0,/imu_data_acquisition2,17690.0,-0.118469238281,-0.0924072265625,0.782165527344,0.604675292969,-12.9375,12.0,4.125,-1.42,-3.74,9.24
1542217724949775934,126,0,/imu_data_acquisition2,17704.0,-0.1201171875,-0.0911865234375,0.781982421875,0.604797363281,-0.625,24.375,0.6875,-2.2,-2.04,9.81
1542217724958538055,127,0,/imu_data_acquisition2,17713.0,-0.122863769531,-0.08544921875,0.78173828125,0.605407714844,34.125,67.375,3.5625,0.2,-2.75,9.67
1542217724968043088,128,0,/imu_data_acquisition2,17721.0,-0.125854492188,-0.08056640625,0.782531738281,0.604431152344,23.0,60.3125,-0.0625,0.2,-2.75,9.67
1542217724977229118,129,0,/imu_data_acquisition2,17731.0,-0.12744140625,-0.078857421875,0.78466796875,0.601501464844,2.0625,21.5,46.625,1.22,-0.01,-0.01
1542217724986747980,130,0,/imu_data_acquisition2,17741.0,-6.103515625e-05,-6.103515625e-05,-6.103515625e-05,0.594970703125,-19.6875,-12.6875,94.375,2.91,-7.47,7.39
1542217725000024080,131,0,/imu_data_acquisition2,17753.0,-0.130249023438,-0.0706787109375,0.79541015625,0.587707519531,65.25,66.4375,125.4375,2.42,-5.83,11.18
1542217725011265039,132,0,/imu_data_acquisition2,17764.0,-0.133483886719,-0.0473022460938,0.80029296875,0.582641601562,194.4375,181.875,120.75,5.27,-9.94,17.17
1542217725016213893,133,0,/imu_data_acquisition2,17771.0,-0.140747070312,-0.0130004882812,0.803039550781,0.578918457031,270.25,299.4375,111.8125,5.27,-9.94,17.17
1542217725027988910,134,0,/imu_data_acquisition2,17782.0,-0.154235839844,0.0376586914062,0.802551269531,0.575073242188,383.125,475.5,120.5625,4.13,-13.15,16.01
1542217725038516998,135,0,/imu_data_acquisition2,17792.0,-0.1708984375,0.099853515625,0.796752929688,0.570983886719,473.8125,595.5625,105.4375,6.66,-13.49,16.77
1542217725052134990,136,0,/imu_data_acquisition2,17804.0,-0.184509277344,0.163940429688,0.785217285156,0.567932128906,349.125,449.125,-48.5625,-9.55,-4.7,39.67
1542217725060770988,137,0,/imu_data_acquisition2,17815.0,-0.197998046875,0.207641601562,0.770141601562,0.569702148438,-28.6875,115.6875,-104.5,14.7,-20.11,17.73
1542217725068532943,138,0,/imu_data_acquisition2,17821.0,-0.208740234375,0.209594726562,0.763610839844,0.573974609375,-28.6875,115.6875,-104.5,14.7,-20.11,17.73
1542217725075807094,139,0,/imu_data_acquisition2,17830.0,-0.218322753906,0.209106445312,0.755920410156,0.580749511719,-33.8125,85.375,-138.5625,11.69,-1.96,-0.01
1542217725089139938,140,0,/imu_data_acquisition2,17844.0,-0.228881835938,0.211242675781,0.7470703125,0.587280273438,-14.25,115.875,-139.9375,2.37,-2.45,2.37
1542217725098835945,141,0,/imu_data_acquisition2,17853.0,-0.240356445312,0.212585449219,0.738098144531,0.593444824219,-29.0,120.0625,-142.1875,-1.13,0.08,6.5
1542217725111056089,142,0,/imu_data_acquisition2,17863.0,-0.252258300781,0.209655761719,0.729553222656,0.60009765625,-68.625,90.75,-156.0625,2.53,1.47,5.82
1542217725119214057,143,0,/imu_data_acquisition2,17873.0,-0.263427734375,0.204711914062,0.721618652344,0.606628417969,-83.25,68.5,-155.375,4.42,1.6,7.35
1542217725127187967,144,0,/imu_data_acquisition2,17881.0,-6.103515625e-05,-6.103515625e-05,-6.103515625e-05,0.612976074219,-78.6875,50.5,-149.125,4.61,2.85,9.41
1542217725136992931,145,0,/imu_data_acquisition2,17890.0,-0.281188964844,0.191711425781,0.707824707031,0.619018554688,-87.375,20.8125,-140.125,5.58,3.16,9.55
1542217725150029897,146,0,/imu_data_acquisition2,17904.0,-0.287719726562,0.182678222656,0.702697753906,0.624572753906,-93.4375,-7.25,-128.4375,6.03,3.5,9.43
1542217725159198045,147,0,/imu_data_acquisition2,17914.0,-0.292236328125,0.172546386719,0.698791503906,0.629699707031,-91.875,-35.0,-115.8125,5.78,3.26,9.46
1542217725167068958,148,0,/imu_data_acquisition2,17920.0,-0.29443359375,0.161499023438,0.696044921875,0.634582519531,-85.25,-64.375,-103.6875,5.78,3.26,9.46
1542217725176156044,149,0,/imu_data_acquisition2,17931.0,-0.294006347656,0.14990234375,0.694396972656,0.639465332031,-72.125,-94.375,-92.5,5.51,3.03,9.65
1542217725187685012,150,0,/imu_data_acquisition2,17942.0,-0.290649414062,0.1376953125,0.693725585938,0.644470214844,-56.5625,-126.5,-82.75,4.7,2.07,10.97
1542217725200184106,151,0,/imu_data_acquisition2,17953.0,-0.284606933594,0.124572753906,0.694030761719,0.649475097656,-44.3125,-158.9375,-73.5625,4.21,1.36,12.16
1542217725210690975,152,0,/imu_data_acquisition2,17964.0,-0.276306152344,0.110229492188,0.6953125,0.654296875,-40.0,-190.3125,-66.0,3.73,0.82,12.58
1542217725218265056,153,0,/imu_data_acquisition2,17972.0,-0.266296386719,0.0943603515625,0.697265625,0.658752441406,-40.875,-216.875,-60.1875,2.52,-0.04,11.78
1542217725227489948,154,0,/imu_data_acquisition2,17980.0,-0.255004882812,0.0773315429688,0.699768066406,0.662841796875,-42.375,-238.75,-55.4375,1.78,-0.6,11.52
1542217725236371040,155,0,/imu_data_acquisition2,17991.0,-0.242492675781,0.0592651367188,0.702453613281,0.66650390625,-43.0625,-256.75,-52.4375,1.05,-1.28,11.75
1542217725249022006,156,0,/imu_data_acquisition2,18004.0,-0.229064941406,0.0401611328125,0.705139160156,0.669799804688,-45.5,-272.9375,-51.8125,-0.13,-2.86,12.44
1542217725258644104,157,0,/imu_data_acquisition2,18012.0,-0.21484375,0.02001953125,0.707580566406,0.672912597656,-47.5625,-286.25,-54.125,-0.55,-3.45,12.85
1542217725268345117,158,0,/imu_data_acquisition2,18022.0,-0.199951171875,-0.00079345703125,0.709533691406,0.675720214844,-49.4375,-296.25,-57.6875,-1.0,-4.19,13.3
1542217725277259111,159,0,/imu_data_acquisition2,18032.0,-0.184448242188,-0.0222778320312,0.710876464844,0.678344726562,-50.0625,-305.625,-62.125,-1.44,-2.42,-0.01
1542217725291203022,160,0,/imu_data_acquisition2,18045.0,-0.168029785156,-0.044189453125,0.711547851562,0.680786132812,-47.1875,-315.3125,-67.5625,-2.18,-5.81,15.78
1542217725301414966,161,0,/imu_data_acquisition2,18055.0,-0.150695800781,-0.0663452148438,0.711547851562,0.68310546875,-42.0625,-323.3125,-72.5625,-2.12,-5.55,16.84
1542217725309900045,162,0,/imu_data_acquisition2,18065.0,-0.007568359375,-6.103515625e-05,-6.103515625e-05,0.684875488281,-36.6875,-329.3125,-73.125,-1.66,-4.67,20.89
1542217725317658901,163,0,/imu_data_acquisition2,18070.0,-0.114318847656,-0.1103515625,0.710266113281,0.685729980469,-36.1875,-328.875,-66.3125,-1.66,-4.67,20.89
1542217725325571060,164,0,/imu_data_acquisition2,18080.0,-0.0972900390625,-0.132202148438,0.709716796875,0.68505859375,-47.25,-321.0625,-50.75,-1.79,-4.17,23.98
1542217725337404966,165,0,/imu_data_acquisition2,18092.0,-0.0824584960938,-0.154479980469,0.709594726562,0.682495117188,-69.8125,-309.625,-12.3125,-2.49,-4.24,27.49
1542217725348475933,166,0,/imu_data_acquisition2,18101.0,-0.0702514648438,-0.17724609375,0.710021972656,0.677856445312,-95.875,-295.3125,-2.125,-7.0,-6.25,33.31
1542217725359950065,167,0,/imu_data_acquisition2,18113.0,-0.0597534179688,-0.200378417969,0.710693359375,0.671691894531,-114.625,-287.3125,15.5625,-10.77,-8.13,33.42
1542217725367584943,168,0,/imu_data_acquisition2,18121.0,-0.0480346679688,-0.222900390625,0.711608886719,0.66455078125,-99.3125,-295.5,23.75,-17.58,-10.91,32.83
1542217725377100944,169,0,/imu_data_acquisition2,18130.0,-0.0323486328125,-0.244140625,0.712341308594,0.6572265625,-57.5625,-319.4375,13.8125,-18.58,-8.36,27.8
1542217725390295982,170,0,/imu_data_acquisition2,18141.0,-0.0149536132812,-0.262634277344,0.713256835938,0.649658203125,-20.6875,-312.9375,13.625,-20.65,3.39,18.15
1542217725401374101,171,0,/imu_data_acquisition2,18156.0,0.00164794921875,-0.278381347656,0.715515136719,0.640686035156,0.1875,-289.3125,38.8125,-23.58,13.02,7.47
1542217725413141012,172,0,/imu_data_acquisition2,18167.0,0.0139770507812,-0.2919921875,0.718811035156,0.630737304688,-10.375,-240.25,68.9375,-39.76,-12.58,1.2
1542217725419759035,173,0,/imu_data_acquisition2,18172.0,0.0198364257812,-0.307922363281,0.718322753906,0.62353515625,-92.6875,-194.3125,39.8125,-39.76,-12.58,1.2
1542217725428030967,174,0,/imu_data_acquisition2,18180.0,0.0369873046875,-0.316955566406,0.71484375,0.622192382812,37.75,-217.8125,-74.375,-39.7,5.54,-10.73
1542217725435126066,175,0,/imu_data_acquisition2,18190.0,0.0657958984375,-0.314514160156,0.713317871094,0.622863769531,226.875,-223.9375,-125.9375,-38.8,21.91,-23.62
1542217725449830055,176,0,/imu_data_acquisition2,18204.0,0.0870971679688,-0.306762695312,0.715026855469,0.622131347656,229.75,-124.4375,-66.9375,-21.88,25.17,-22.82
1542217725456584930,177,0,/imu_data_acquisition2,18210.0,0.0908203125,-0.298095703125,0.721130371094,0.618713378906,125.75,26.1875,51.625,-17.18,24.11,-12.81
1542217725465245962,178,0,/imu_data_acquisition2,18220.0,0.075439453125,-0.292846679688,0.728271484375,0.614929199219,-38.5,164.0,133.375,-0.07,-8.42,6.61
1542217725477266073,179,0,/imu_data_acquisition2,18231.0,0.0527954101562,-0.290466308594,0.731811523438,0.6142578125,-131.0,213.3125,107.5625,13.88,-29.59,28.91
1542217725485810995,180,0,/imu_data_acquisition2,18240.0,0.032470703125,-0.285766601562,0.735168457031,0.613891601562,-95.5625,211.4375,94.9375,16.69,-2.27,-0.01
1542217725495989084,181,0,/imu_data_acquisition2,18250.0,0.0174560546875,-0.2802734375,0.740478515625,0.610595703125,-42.3125,161.25,115.6875,6.95,-12.13,14.83
1542217725508850097,182,0,/imu_data_acquisition2,18262.0,0.00732421875,-0.272094726562,0.747619628906,0.605834960938,23.1875,133.625,125.4375,-1.1,-8.62,0.38
1542217725515969038,183,0,/imu_data_acquisition2,18270.0,-0.000732421875,-0.259765625,0.753295898438,0.604248046875,70.0625,155.5625,79.5625,-8.07,15.86,-1.82
1542217725525340080,184,0,/imu_data_acquisition2,18280.0,-0.01513671875,-0.248413085938,0.756958007812,0.604248046875,9.3125,209.5,70.3125,-2.95,-5.3,20.02
1542217725538867950,185,0,/imu_data_acquisition2,18291.0,-0.0277099609375,-0.237670898438,0.760681152344,0.603393554688,17.25,186.25,73.75,-0.07,-16.81,30.87
1542217725545552968,186,0,/imu_data_acquisition2,18300.0,-0.0345458984375,-0.225341796875,0.765258789062,0.60205078125,74.875,144.25,67.625,-6.39,-9.86,9.29
1542217725556065082,187,0,/imu_data_acquisition2,18311.0,-0.0404052734375,-0.213500976562,0.768737792969,0.6015625,74.25,134.5,49.8125,-5.86,-12.47,10.59
1542217725566659927,188,0,/imu_data_acquisition2,18321.0,-0.043701171875,-0.2021484375,0.771118164062,0.602111816406,85.875,111.25,25.625,-1.44,-11.74,14.83
1542217725575479984,189,0,/imu_data_acquisition2,18330.0,-0.0454711914062,-0.190734863281,0.773376464844,0.602844238281,97.625,98.5,19.5,6.25,5.37,19.48
1542217725585834026,190,0,/imu_data_acquisition2,18340.0,-6.103515625e-05,-6.103515625e-05,-6.103515625e-05,0.601684570312,89.375,91.5,-0.0625,0.36,1.8,24.39
1542217725598680973,191,0,/imu_data_acquisition2,18351.0,-0.0523071289062,-0.171691894531,0.780151367188,0.599304199219,49.0625,95.25,60.5,-2.59,1.02,13.99
1542217725605439901,192,0,/imu_data_acquisition2,18360.0,-0.057373046875,-0.166259765625,0.78173828125,0.598327636719,17.5,82.25,33.8125,-0.27,-5.06,11.03
1542217725616444110,193,0,/imu_data_acquisition2,18371.0,-0.0618896484375,-0.160278320312,0.782653808594,0.598266601562,24.625,83.375,20.1875,3.4,-7.08,8.57
1542217725628748893,194,0,/imu_data_acquisition2,18381.0,-0.0663452148438,-0.1513671875,0.783447265625,0.599060058594,52.9375,105.6875,13.125,-2.12,-3.98,12.13
1542217725635488033,195,0,/imu_data_acquisition2,18390.0,-0.0704956054688,-0.141906738281,0.784057617188,0.60009765625,60.25,106.5625,9.6875,-1.66,-4.34,11.27
1542217725647561073,196,0,/imu_data_acquisition2,18401.0,-0.0740356445312,-0.134094238281,0.784423828125,0.601013183594,48.8125,89.625,6.25,-1.46,-2.8,11.15
1542217725658461093,197,0,/imu_data_acquisition2,18411.0,-0.076904296875,-0.1279296875,0.784362792969,0.60205078125,37.5625,71.9375,-0.3125,-1.19,-3.55,10.68
1542217725665273904,198,0,/imu_data_acquisition2,18420.0,-0.0792236328125,-0.123107910156,0.7841796875,0.60302734375,28.75,57.6875,-2.1875,-0.75,-3.47,10.42
1542217725676316976,199,0,/imu_data_acquisition2,18431.0,-0.081298828125,-0.118835449219,0.783996582031,0.603881835938,25.3125,51.5625,-2.375,-0.7,-0.01,-0.01
1542217725686479091,200,0,/imu_data_acquisition2,18441.0,-0.0830688476562,-0.115417480469,0.783752441406,0.604553222656,19.6875,42.1875,-2.375,-0.74,-3.12,10.3
1542217725695508956,201,0,/imu_data_acquisition2,18450.0,-0.084716796875,-0.112731933594,0.783630371094,0.60498046875,13.25,34.4375,0.0,-1.34,-3.3,10.4
1542217725707941055,202,0,/imu_data_acquisition2,18462.0,-0.0858154296875,-0.111206054688,0.783508300781,0.605285644531,6.5,22.25,0.5,-0.38,-2.15,9.69
1542217725718836069,203,0,/imu_data_acquisition2,18471.0,-0.0866088867188,-0.110412597656,0.783447265625,0.605407714844,1.75,13.0625,0.5,-0.74,-3.03,9.92
1542217725725423097,204,0,/imu_data_acquisition2,18480.0,-0.08740234375,-0.109619140625,0.783386230469,0.605529785156,1.3125,12.875,0.1875,-0.32,-2.71,9.86
1542217725736394882,205,0,/imu_data_acquisition2,18491.0,-0.0880737304688,-0.109008789062,0.783264160156,0.605712890625,0.8125,11.1875,-0.625,0.14,-2.28,9.84
1542217725748724937,206,0,/imu_data_acquisition2,18500.0,-0.0887451171875,-0.108520507812,0.783142089844,0.605834960938,0.4375,9.8125,-0.875,-0.86,-1.93,9.91
1542217725755366086,207,0,/imu_data_acquisition2,18510.0,-0.0892333984375,-0.108032226562,0.783020019531,0.60595703125,0.625,8.5625,-1.0625,-1.03,-3.46,9.78
1542217725766448974,208,0,/imu_data_acquisition2,18521.0,-0.0892944335938,-0.10791015625,0.782958984375,0.606140136719,1.1875,1.625,-1.625,-0.55,-3.15,8.84
1542217725779059886,209,0,/imu_data_acquisition2,18530.0,-0.0891723632812,-0.107666015625,0.782958984375,0.606201171875,3.0,0.75,-0.75,-0.38,-2.56,8.7
1542217725785490036,210,0,/imu_data_acquisition2,18540.0,-0.089111328125,-0.107177734375,0.782897949219,0.606323242188,5.1875,3.125,-0.625,-0.6,-2.3,8.8
1542217725798283100,211,0,/imu_data_acquisition2,18551.0,-0.0894165039062,-0.106201171875,0.782775878906,0.606567382812,6.8125,10.25,-2.125,-0.27,-2.42,9.2
1542217725805469036,212,0,/imu_data_acquisition2,18560.0,-0.0902709960938,-0.104797363281,0.782470703125,0.607116699219,7.3125,19.125,-4.5,0.55,-2.78,8.76
1542217725815927982,213,0,/imu_data_acquisition2,18570.0,-0.0917358398438,-0.102722167969,0.782043457031,0.607788085938,8.9375,-0.0625,-0.0625,-0.7,-2.4,8.55
1542217725826721906,214,0,/imu_data_acquisition2,18581.0,-0.0936889648438,-0.0999755859375,0.781677246094,0.608459472656,11.5,38.9375,-3.8125,-0.99,-2.54,9.91
1542217725836143970,215,0,/imu_data_acquisition2,18590.0,-0.0956420898438,-0.097412109375,0.78125,0.609130859375,9.75,37.6875,-4.125,-1.6,-2.74,9.69
1542217725845544099,216,0,/imu_data_acquisition2,18600.0,-0.0971069335938,-0.095458984375,0.780822753906,0.609680175781,7.5,28.8125,-4.0,-1.95,-2.85,10.3
1542217725856616020,217,0,/imu_data_acquisition2,18611.0,-0.0980224609375,-0.09423828125,0.780578613281,0.610107421875,5.125,18.1875,-2.9375,-1.5,-3.05,9.99
1542217725866086006,218,0,/imu_data_acquisition2,18620.0,-0.0982666015625,-0.0936889648438,0.780395507812,0.6103515625,2.9375,6.75,-2.4375,-1.2,-2.98,9.26
1542217725876086950,219,0,/imu_data_acquisition2,18631.0,-0.0982666015625,-0.093505859375,0.780456542969,0.6103515625,1.8125,0.8125,-0.1875,-1.64,-2.67,10.34
1542217725887774944,220,0,/imu_data_acquisition2,18641.0,-0.0978393554688,-0.0938720703125,0.780517578125,0.610229492188,-0.5625,-6.5,0.9375,-1.21,-2.75,9.83
1542217725895015954,221,0,/imu_data_acquisition2,18650.0,-0.0970458984375,-0.0946044921875,0.780639648438,0.610107421875,-1.4375,-12.4375,0.25,-1.2,-2.84,9.95
1542217725909288883,222,0,/imu_data_acquisition2,18660.0,-0.0968627929688,-0.0948486328125,0.780822753906,0.60986328125,-0.3125,-15.75,-0.1875,-1.03,-2.72,9.77
1542217725918021917,223,0,/imu_data_acquisition2,18671.0,-0.0955200195312,-0.0958862304688,0.780944824219,0.609802246094,0.5625,-20.1875,-1.0,-0.87,-2.46,8.84
1542217725925898075,224,0,/imu_data_acquisition2,18680.0,-0.093994140625,-0.0970458984375,0.781005859375,0.609741210938,0.3125,-0.0625,-0.0625,-0.77,-2.69,8.92
1542217725936332941,225,0,/imu_data_acquisition2,18691.0,-0.0927124023438,-0.0982055664062,0.781066894531,0.609680175781,-1.0625,-20.3125,-1.375,-0.71,-2.78,9.42
1542217725948210000,226,0,/imu_data_acquisition2,18700.0,-0.0914916992188,-0.0993041992188,0.781188964844,0.609497070312,-1.8125,-19.5,-0.125,-0.61,-2.45,9.25
1542217725955050945,227,0,/imu_data_acquisition2,18710.0,-0.090576171875,-0.100341796875,0.781372070312,0.609252929688,-3.125,-16.5,1.5625,-1.09,-2.4,9.31
1542217725966356992,228,0,/imu_data_acquisition2,18720.0,-0.0897827148438,-0.101501464844,0.781616210938,0.60888671875,-4.4375,-16.1875,2.25,-0.64,-2.47,8.99
1542217725978372097,229,0,/imu_data_acquisition2,18731.0,-0.0891723632812,-0.102416992188,0.781799316406,0.608581542969,-4.6875,-13.0,2.4375,-0.34,-2.41,8.85
1542217725985193014,230,0,/imu_data_acquisition2,18740.0,-0.0888061523438,-0.103210449219,0.781982421875,0.608276367188,-4.5625,-9.9375,2.875,-0.24,-2.45,8.96
1542217725996552944,231,0,/imu_data_acquisition2,18750.0,-0.0887451171875,-0.103759765625,0.782104492188,0.608032226562,-4.625,-4.5625,2.75,-0.53,-2.61,8.72
1542217726006043910,232,0,/imu_data_acquisition2,18760.0,-0.0889892578125,-0.104064941406,0.782165527344,0.607849121094,-4.4375,0.125,2.4375,-0.81,-2.63,9.05
1542217726015170097,233,0,/imu_data_acquisition2,18770.0,-0.0896606445312,-0.104187011719,0.782165527344,0.607666015625,-6.25,5.0625,1.9375,-0.26,-2.53,9.34
1542217726026611089,234,0,/imu_data_acquisition2,18780.0,-0.0905151367188,-0.103942871094,0.782104492188,0.607727050781,-4.125,9.5625,-0.125,0.69,-2.31,8.98
1542217726036343097,235,0,/imu_data_acquisition2,18790.0,-0.0919799804688,-0.102844238281,0.781921386719,0.60791015625,0.5,21.8125,0.6875,-1.05,-2.43,9.88
1542217726045202016,236,0,/imu_data_acquisition2,18800.0,-0.0155639648438,-6.103515625e-05,-6.103515625e-05,0.608215332031,0.25,25.9375,-1.875,-1.22,-0.01,-0.01
1542217726056257009,237,0,/imu_data_acquisition2,18810.0,-0.09521484375,-0.100341796875,0.781311035156,0.608642578125,-0.5,23.375,-3.375,-1.06,-2.82,10.25
1542217726066200017,238,0,/imu_data_acquisition2,18820.0,-0.0963745117188,-0.0994262695312,0.780944824219,0.609069824219,-0.25,18.125,-4.1875,-1.0,-2.85,9.13
1542217726075197935,239,0,/imu_data_acquisition2,18830.0,-0.0973510742188,-0.0986328125,0.780639648438,0.609436035156,0.125,16.0625,-3.3125,-1.72,-2.88,9.59
1542217726086245059,240,0,/imu_data_acquisition2,18840.0,-0.0980834960938,-0.0979614257812,0.780334472656,0.609741210938,1.0,12.125,-3.0625,-1.18,-1.81,8.91
1542217726096223115,241,0,/imu_data_acquisition2,18850.0,-0.0986328125,-0.0975341796875,0.7802734375,0.60986328125,-0.1875,8.5,-0.75,-0.93,-2.35,8.07
1542217726105190038,242,0,/imu_data_acquisition2,18860.0,-0.0994262695312,-0.0970458984375,0.780151367188,0.609985351562,-0.9375,10.625,-0.5625,0.2,-3.81,10.36
1542217726116637945,243,0,/imu_data_acquisition2,18870.0,-0.0999755859375,-0.0966796875,0.779968261719,0.610168457031,-0.875,8.4375,-1.875,1.84,-2.06,8.84
1542217726126193046,244,0,/imu_data_acquisition2,18880.0,-0.101196289062,-0.0957641601562,0.779846191406,0.610290527344,0.0625,18.1875,0.125,-0.39,-3.01,10.55
1542217726135313987,245,0,/imu_data_acquisition2,18890.0,-0.102844238281,-0.09423828125,0.779724121094,0.6103515625,2.0625,26.25,2.6875,-1.26,-3.05,8.25
1542217726147923946,246,0,/imu_data_acquisition2,18900.0,-0.1044921875,-0.0929565429688,0.779663085938,0.610412597656,-0.0625,24.3125,2.25,-0.6,-2.47,7.76
1542217726155822038,247,0,/imu_data_acquisition2,18910.0,-0.106262207031,-0.092041015625,0.779663085938,0.610229492188,-4.625,23.125,4.8125,1.05,-1.93,8.06
1542217726165838956,248,0,/imu_data_acquisition2,18920.0,-0.108337402344,-0.0912475585938,0.779846191406,0.609680175781,-8.125,23.8125,9.3125,-0.65,-3.16,9.6
1542217726176644086,249,0,/imu_data_acquisition2,18931.0,-0.110473632812,-0.012451171875,-6.103515625e-05,0.608825683594,-9.6875,23.875,12.75,-0.38,-2.03,10.8
1542217726185038089,250,0,/imu_data_acquisition2,18940.0,-0.110473632812,-0.090576171875,0.780334472656,0.608825683594,-4.9375,25.625,10.5625,-2.07,-3.8,8.97
1542217726195914983,251,0,/imu_data_acquisition2,18950.0,-0.114074707031,-0.0888061523438,0.780456542969,0.608215332031,-5.375,19.3125,2.125,-1.44,-3.1,9.94
1542217726206696033,252,0,/imu_data_acquisition2,18959.0,-0.115295410156,-0.0895385742188,0.780639648438,0.607666015625,-16.1875,5.25,6.75,-2.12,-3.57,8.78
1542217726216572046,253,0,/imu_data_acquisition2,18970.0,-0.116394042969,-0.0906982421875,0.781066894531,0.606811523438,-19.0625,0.4375,10.3125,-2.89,-4.67,9.81
1542217726227569103,254,0,/imu_data_acquisition2,18981.0,-0.117797851562,-0.09130859375,0.782287597656,0.604858398438,-15.875,10.5,8.3125,-0.27,-3.68,9.34
1542217726235347986,255,0,/imu_data_acquisition2,18990.0,-0.117797851562,-0.01318359375,-6.103515625e-05,0.604858398438,0.3125,24.3125,2.875,-0.96,-4.79,10.72
1542217726246148109,256,0,/imu_data_acquisition2,19001.0,-0.121948242188,-0.0850830078125,0.782043457031,0.605285644531,28.8125,59.8125,4.5625,-0.76,-2.03,9.81
1542217726257586002,257,0,/imu_data_acquisition2,19010.0,-0.125244140625,-0.0781860351562,0.782104492188,0.605346679688,39.9375,79.5625,13.0,0.7,-4.81,7.62
1542217726265221118,258,0,/imu_data_acquisition2,19020.0,-0.128295898438,-0.072509765625,0.783447265625,0.603759765625,29.875,65.4375,35.5625,8.39,-8.01,6.91
1542217726276591062,259,0,/imu_data_acquisition2,19031.0,-0.130126953125,-0.0686645507812,0.785766601562,0.600830078125,20.125,38.4375,51.3125,2.63,-8.33,8.51
1542217726290359020,260,0,/imu_data_acquisition2,19040.0,-0.133666992188,-0.056640625,0.790771484375,0.594665527344,80.9375,105.875,114.0,3.18,-7.17,10.54
1542217726295176982,261,0,/imu_data_acquisition2,19050.0,-0.139770507812,-0.034912109375,0.795532226562,0.588562011719,154.0,198.125,129.5,2.82,-11.85,15.01
1542217726306082010,262,0,/imu_data_acquisition2,19060.0,-0.148132324219,-0.00079345703125,0.797607421875,0.584716796875,258.0,311.875,110.3125,2.37,-12.36,16.67
1542217726320262908,263,0,/imu_data_acquisition2,19075.0,-0.159423828125,0.0460205078125,0.796203613281,0.581848144531,359.0625,433.4375,100.125,5.95,-12.28,18.71
1542217726325119018,264,0,/imu_data_acquisition2,19080.0,-0.159423828125,0.0460205078125,0.796203613281,0.581848144531,419.3125,462.9375,76.375,6.25,-11.28,26.7
1542217726336262941,265,0,/imu_data_acquisition2,19091.0,-0.169372558594,0.0978393554688,0.791015625,0.579711914062,372.5,408.0,3.1875,-2.67,-13.71,36.31
1542217726345976114,266,0,/imu_data_acquisition2,19100.0,-0.178161621094,0.142578125,0.781372070312,0.580810546875,76.3125,231.9375,-64.0,13.64,-17.32,4.36
1542217726355384111,267,0,/imu_data_acquisition2,19110.0,-0.190490722656,0.158020019531,0.773681640625,0.583251953125,-58.3125,107.125,-108.0,5.96,-8.05,1.96
1542217726366746902,268,0,/imu_data_acquisition2,19121.0,-0.214538574219,0.160705566406,0.758605957031,0.593872070312,-31.25,146.5,-131.6875,2.84,-1.63,4.61
1542217726375786066,269,0,/imu_data_acquisition2,19130.0,-0.214538574219,0.160705566406,0.758605957031,0.593872070312,-54.75,132.6875,-139.9375,4.05,-1.56,6.19
1542217726385865926,270,0,/imu_data_acquisition2,19141.0,-0.227661132812,0.161315917969,0.749816894531,0.599975585938,-86.1875,113.1875,-145.9375,4.99,-1.5,7.92
1542217726397559881,271,0,/imu_data_acquisition2,19151.0,-0.254028320312,0.154541015625,0.733032226562,0.611755371094,-97.125,95.6875,-146.4375,5.39,-0.48,9.25
1542217726406212091,272,0,/imu_data_acquisition2,19160.0,-0.254028320312,0.154541015625,0.733032226562,0.611755371094,-101.125,74.3125,-144.25,5.97,1.11,9.91
1542217726415965080,273,0,/imu_data_acquisition2,19171.0,-0.265747070312,0.149047851562,0.725219726562,0.617431640625,-105.9375,45.9375,-138.8125,6.2,1.96,9.36
1542217726426719903,274,0,/imu_data_acquisition2,19181.0,-0.275817871094,0.141784667969,0.718200683594,0.622924804688,-103.1875,18.875,-130.625,6.24,2.89,8.89
1542217726436007022,275,0,/imu_data_acquisition2,19190.0,-0.283935546875,0.133483886719,0.712036132812,0.628173828125,-96.9375,-7.1875,-119.5625,6.12,3.76,8.84
1542217726445799112,276,0,/imu_data_acquisition2,19200.0,-0.289916992188,0.124389648438,0.706909179688,0.633056640625,-89.1875,-36.75,-107.3125,6.08,3.48,9.14
1542217726456789016,277,0,/imu_data_acquisition2,19211.0,-0.293640136719,0.114440917969,0.702941894531,0.637634277344,-78.0625,-66.5625,-94.375,5.91,3.13,9.79
1542217726466521978,278,0,/imu_data_acquisition2,19221.0,-0.294738769531,0.103881835938,0.7001953125,0.641906738281,-64.9375,-95.375,-82.5625,5.28,1.87,11.43
1542217726475776910,279,0,/imu_data_acquisition2,19230.0,-0.0120849609375,-6.103515625e-05,-6.103515625e-05,0.645935058594,-53.5625,-125.0625,-72.4375,4.76,1.13,11.92
1542217726488642930,280,0,/imu_data_acquisition2,19241.0,-0.289428710938,0.0809936523438,0.698120117188,0.649780273438,-13.4375,-0.0625,-0.0625,4.36,0.43,12.02
1542217726498076915,281,0,/imu_data_acquisition2,19251.0,-0.283264160156,0.068359375,0.698608398438,0.653503417969,-39.125,-179.75,-58.75,3.12,-0.83,12.39
1542217726506625890,282,0,/imu_data_acquisition2,19261.0,-0.275146484375,0.0546875,0.699768066406,0.656982421875,-34.75,-203.5625,-54.75,2.38,-1.4,12.52
1542217726520529985,283,0,/imu_data_acquisition2,19272.0,-0.265258789062,0.0400390625,0.701538085938,0.660217285156,-32.25,-225.3125,-52.8125,1.86,-1.85,12.3
1542217726525702953,284,0,/imu_data_acquisition2,19280.0,-0.253845214844,0.0244140625,0.70361328125,0.663269042969,-32.25,-225.3125,-52.8125,1.15,-2.4,12.41
1542217726536287069,285,0,/imu_data_acquisition2,19291.0,-0.241088867188,0.00775146484375,0.705749511719,0.666076660156,-29.875,-4.125,-0.0625,0.29,-3.55,12.78
1542217726549690008,286,0,/imu_data_acquisition2,19302.0,-0.227233886719,-0.009765625,0.707885742188,0.668701171875,-29.0625,-273.6875,-55.25,-0.1,-3.98,13.05
1542217726558887004,287,0,/imu_data_acquisition2,19310.0,-0.21240234375,-0.0280151367188,0.709777832031,0.671020507812,-26.625,-284.625,-57.875,-0.3,-4.2,13.66
1542217726567784070,288,0,/imu_data_acquisition2,19321.0,-0.196655273438,-0.0467529296875,0.711364746094,0.673156738281,-25.0625,-294.125,-59.4375,-0.73,-4.43,14.5
1542217726578854084,289,0,/imu_data_acquisition2,19331.0,-0.180114746094,-0.0659790039062,0.712524414062,0.674926757812,-26.25,-300.625,-59.1875,-0.98,-4.52,15.2
1542217726585413932,290,0,/imu_data_acquisition2,19340.0,-0.163146972656,-0.0855712890625,0.713317871094,0.676147460938,-26.25,-300.625,-59.1875,-1.15,-0.01,-0.01
1542217726596820116,291,0,/imu_data_acquisition2,19351.0,-0.146179199219,-0.105346679688,0.7138671875,0.6767578125,-37.4375,-301.125,-50.75,-1.35,-5.37,19.2
1542217726607573986,292,0,/imu_data_acquisition2,19362.0,-0.129638671875,-0.125427246094,0.714111328125,0.676452636719,-46.75,-295.375,-44.5625,-1.59,-5.14,21.26
1542217726617161035,293,0,/imu_data_acquisition2,19371.0,-0.114013671875,-0.145568847656,0.714050292969,0.675231933594,-57.125,-287.75,-36.625,-1.98,-4.72,23.22
1542217726626748085,294,0,/imu_data_acquisition2,19381.0,-0.0994262695312,-0.165710449219,0.713806152344,0.673156738281,-65.4375,-281.5,-26.125,-2.7,-4.3,25.24
1542217726637201070,295,0,/imu_data_acquisition2,19391.0,-0.0857543945312,-0.185852050781,0.713562011719,0.670043945312,-68.625,-277.25,-13.125,-5.41,-4.18,26.9
1542217726646596908,296,0,/imu_data_acquisition2,19401.0,-0.0726928710938,-0.205688476562,0.713500976562,0.665771484375,-62.1875,-276.6875,-2.0,-7.31,-3.24,25.8
1542217726659116029,297,0,/imu_data_acquisition2,19411.0,-0.0595092773438,-0.224975585938,0.713806152344,0.660522460938,-41.25,-275.375,4.5625,-11.29,-2.38,23.04
1542217726671116113,298,0,/imu_data_acquisition2,19422.0,-0.0452880859375,-0.242736816406,0.714477539062,0.654663085938,-0.4375,-282.0,12.625,-14.92,-2.98,19.25
1542217726675947904,299,0,/imu_data_acquisition2,19430.0,-0.0285034179688,-0.258178710938,0.716064453125,0.647888183594,-0.4375,-282.0,12.625,-14.92,-2.98,19.25
1542217726686399936,300,0,/imu_data_acquisition2,19441.0,-0.0087890625,-0.2705078125,0.718505859375,0.640686035156,52.0625,-284.5625,15.875,-15.33,5.45,12.63
1542217726700064897,301,0,/imu_data_acquisition2,19452.0,0.0123291015625,-0.280090332031,0.721740722656,0.6328125,90.25,-250.5625,49.0,-23.14,3.83,10.36
1542217726711898088,302,0,/imu_data_acquisition2,19462.0,0.0440063476562,-0.295227050781,0.730651855469,0.614074707031,50.5625,-194.0625,75.4375,-31.06,-5.82,10.8
1542217726722712039,303,0,/imu_data_acquisition2,19476.0,0.0440063476562,-0.295227050781,0.730651855469,0.614074707031,3.0,-162.0,53.1875,-34.9,-9.69,6.55
1542217726725825071,304,0,/imu_data_acquisition2,19480.0,0.0527954101562,-0.303588867188,0.732788085938,0.606689453125,3.0,-162.0,53.1875,-34.55,-2.22,-1.23
1542217726738173007,305,0,/imu_data_acquisition2,19492.0,0.0670166015625,-0.308776855469,0.732299804688,0.603210449219,142.9375,-160.5,-87.6875,-28.67,11.28,-14.46
1542217726750379085,306,0,/imu_data_acquisition2,19503.0,0.0865478515625,-0.307556152344,0.730529785156,0.603515625,161.125,-97.25,-102.6875,-21.42,13.76,-15.84
1542217726760622024,307,0,/imu_data_acquisition2,19511.0,0.103393554688,-0.301818847656,0.728637695312,0.606079101562,124.5625,-6.75,-68.5625,-15.4,22.76,-15.65
1542217726769334077,308,0,/imu_data_acquisition2,19523.0,0.111938476562,-0.293884277344,0.728210449219,0.609008789062,27.375,119.75,22.25,5.45,-1.4,9.44
1542217726779191017,309,0,/imu_data_acquisition2,19532.0,0.105407714844,-6.103515625e-05,-6.103515625e-05,0.610290527344,-211.0625,257.3125,121.5,4.14,-16.63,22.53
1542217726786334037,310,0,/imu_data_acquisition2,19541.0,0.07568359375,-0.286926269531,0.734252929688,0.610595703125,-211.0625,257.3125,121.5,7.27,-17.99,35.95
1542217726800151109,311,0,/imu_data_acquisition2,19552.0,0.0458374023438,-0.287414550781,0.736694335938,0.610412597656,-32.6875,125.25,136.875,5.72,-14.61,-0.76
1542217726811187982,312,0,/imu_data_acquisition2,19563.0,0.0250244140625,-0.005615234375,-6.103515625e-05,0.600402832031,80.5625,145.8125,123.4375,-0.64,-7.08,-16.3
1542217726817289113,313,0,/imu_data_acquisition2,19572.0,0.0250244140625,-0.271240234375,0.751892089844,0.600402832031,65.75,241.1875,124.75,-14.11,6.38,-2.88
1542217726828135967,314,0,/imu_data_acquisition2,19582.0,0.0101928710938,-0.255065917969,0.760009765625,0.597717285156,65.75,241.1875,124.75,-4.75,-20.55,27.72
1542217726838936090,315,0,/imu_data_acquisition2,19592.0,-0.00396728515625,-0.243041992188,0.764770507812,0.596740722656,68.4375,149.0,53.0,-1.92,-12.85,13.84
1542217726847126960,316,0,/imu_data_acquisition2,19602.0,-0.01123046875,-0.231079101562,0.768676757812,0.596313476562,97.4375,138.375,37.4375,-4.04,-6.59,9.54
1542217726859364986,317,0,/imu_data_acquisition2,19613.0,-0.0159912109375,-0.217712402344,0.772277832031,0.596618652344,117.1875,112.0,-0.0625,-3.14,-4.3,12.94
1542217726871231079,318,0,/imu_data_acquisition2,19623.0,-0.0193481445312,-0.192016601562,0.778869628906,0.596740722656,110.8125,99.1875,33.4375,3.22,-0.92,-0.01
1542217726876565933,319,0,/imu_data_acquisition2,19631.0,-0.0193481445312,-0.192016601562,0.778869628906,0.596740722656,110.8125,99.1875,33.4375,11.25,7.07,24.03
1542217726887867927,320,0,/imu_data_acquisition2,19642.0,-0.0236206054688,-0.181091308594,0.783386230469,0.594116210938,44.4375,129.0,71.1875,-5.13,-2.31,21.72
1542217726899187088,321,0,/imu_data_acquisition2,19652.0,-0.0310668945312,-0.171508789062,0.787292480469,0.591369628906,29.375,116.125,43.1875,0.46,-6.67,12.03
1542217726908649921,322,0,/imu_data_acquisition2,19662.0,-0.0379028320312,-0.163635253906,0.78955078125,0.590270996094,51.9375,123.9375,25.125,2.83,-5.5,10.31
1542217726920986890,323,0,/imu_data_acquisition2,19675.0,-0.0501098632812,-0.14208984375,0.792175292969,0.591430664062,69.875,141.9375,15.5,-0.36,-2.7,9.7
1542217726927022933,324,0,/imu_data_acquisition2,19681.0,-0.0501098632812,-0.14208984375,0.792175292969,0.591430664062,69.875,141.9375,15.5,-2.18,-2.43,-0.01
1542217726938550949,325,0,/imu_data_acquisition2,19692.0,-0.056396484375,-0.130249023438,0.792724609375,0.592834472656,54.6875,134.5625,-0.0625,-2.21,-3.1,13.47
1542217726951241970,326,0,/imu_data_acquisition2,19705.0,-0.0676879882812,-0.111877441406,0.792053222656,0.596252441406,39.125,106.1875,-7.0625,-2.47,-3.29,10.32
1542217726960695981,327,0,/imu_data_acquisition2,19712.0,-0.0676879882812,-0.111877441406,0.792053222656,0.596252441406,28.9375,86.0,-8.125,-1.79,-3.71,9.53
1542217726969268083,328,0,/imu_data_acquisition2,19724.0,-0.0753784179688,-0.10107421875,0.790832519531,0.598876953125,18.875,66.9375,-5.75,-2.46,-0.01,-0.01
1542217726980597972,329,0,/imu_data_acquisition2,19733.0,-0.0753784179688,-0.10107421875,0.790832519531,0.598876953125,12.625,45.25,-5.8125,-0.77,-2.98,9.38
1542217726988142967,330,0,/imu_data_acquisition2,19741.0,-0.0777587890625,-0.0979614257812,0.790344238281,0.599731445312,12.625,45.25,-0.0625,-0.77,-2.98,9.38
1542217726999717950,331,0,/imu_data_acquisition2,19754.0,-0.08154296875,-0.0932006835938,0.789733886719,0.600830078125,8.375,31.875,-2.25,-1.69,-2.29,10.09
1542217727010538101,332,0,/imu_data_acquisition2,19763.0,-0.08154296875,-0.0932006835938,0.789733886719,0.600830078125,6.5625,24.0,-2.9375,-1.59,-2.89,9.92
1542217727020555019,333,0,/imu_data_acquisition2,19773.0,-0.082763671875,-0.091552734375,0.789428710938,0.601257324219,4.0,17.25,-2.1875,-1.17,-3.07,9.99
1542217727030134916,334,0,/imu_data_acquisition2,19785.0,-0.0845947265625,-0.0892944335938,0.789123535156,0.601806640625,4.25,16.6875,-0.75,-1.51,-2.72,9.75
1542217727039494991,335,0,/imu_data_acquisition2,19792.0,-0.0845947265625,-0.0892944335938,0.789123535156,0.601806640625,4.25,16.6875,-0.75,-1.33,-2.25,10.23
1542217727050667047,336,0,/imu_data_acquisition2,19803.0,-0.08544921875,-0.0882568359375,0.7890625,0.601928710938,2.625,12.5625,-1.0625,-1.07,-2.44,9.49
1542217727059499025,337,0,/imu_data_acquisition2,19814.0,-0.086181640625,-0.08740234375,0.788940429688,0.602111816406,2.125,11.125,-1.5625,-1.12,-2.53,9.44
1542217727070450067,338,0,/imu_data_acquisition2,19825.0,-0.0867919921875,-0.0867309570312,0.788757324219,0.602294921875,1.3125,10.5,-1.4375,-1.63,-2.29,9.81
1542217727077140092,339,0,/imu_data_acquisition2,19832.0,-0.08740234375,-0.0861206054688,0.788635253906,0.6025390625,1.3125,-0.0625,-0.0625,-1.52,-2.42,9.71
1542217727088540077,340,0,/imu_data_acquisition2,19843.0,-0.0879516601562,-0.085693359375,0.788452148438,0.602661132812,0.1875,5.8125,-1.5,-1.21,-2.77,9.36
1542217727101155996,341,0,/imu_data_acquisition2,19853.0,-0.0883178710938,-0.08544921875,0.788330078125,0.602844238281,0.1875,5.8125,-1.5,-1.14,-2.6,9.32
1542217727110771894,342,0,/imu_data_acquisition2,19865.0,-0.0889892578125,-0.0848999023438,0.788269042969,0.602966308594,0.375,4.5625,-0.5,-1.26,-2.65,9.19
1542217727120311975,343,0,/imu_data_acquisition2,19875.0,-0.0889892578125,-0.0848999023438,0.788269042969,0.602966308594,0.75,4.75,0.0,-1.6,-2.62,9.31
1542217727127459049,344,0,/imu_data_acquisition2,19881.0,-0.0892333984375,-0.00653076171875,-6.103515625e-05,0.602966308594,0.75,4.75,0.0,-1.6,-2.62,9.31
1542217727137276887,345,0,/imu_data_acquisition2,19892.0,-0.0894165039062,-0.0845336914062,0.788208007812,0.602966308594,-0.0625,2.3125,0.25,-1.15,-2.56,9.01
1542217727150405883,346,0,/imu_data_acquisition2,19905.0,-0.0894775390625,-0.08447265625,0.788208007812,0.602966308594,-0.6875,0.0,1.25,-1.11,-2.43,9.27
1542217727160568952,347,0,/imu_data_acquisition2,19913.0,-0.0894775390625,-0.08447265625,0.788269042969,0.602844238281,-0.6875,0.0,1.25,-1.54,-2.48,9.48
1542217727169934988,348,0,/imu_data_acquisition2,19924.0,-0.0908813476562,-0.0836791992188,0.788452148438,0.6025390625,1.0625,-0.0625,1.6875,-1.01,-2.39,9.32
1542217727180017948,349,0,/imu_data_acquisition2,19933.0,-0.0918579101562,-0.0830078125,0.78857421875,0.602294921875,1.0625,-0.0625,1.6875,-1.43,-2.57,9.31
1542217727186289072,350,0,/imu_data_acquisition2,19940.0,-0.093017578125,-0.082275390625,0.788757324219,0.60205078125,1.4375,0.3125,1.6875,-1.43,-2.57,9.31
1542217727199947118,351,0,/imu_data_acquisition2,19955.0,-0.0939331054688,-0.0817260742188,0.788818359375,0.601867675781,0.8125,0.8125,0.9375,-1.04,-2.36,9.35
1542217727211237907,352,0,/imu_data_acquisition2,19966.0,-0.0939331054688,-0.0816040039062,0.788879394531,0.601806640625,0.8125,1.5,0.6875,-1.49,-2.09,9.19
1542217727221568107,353,0,/imu_data_acquisition2,19976.0,-0.093994140625,-0.0814819335938,0.788940429688,0.601806640625,0.8125,1.5,0.6875,-1.29,-2.5,9.59
1542217727228797912,354,0,/imu_data_acquisition2,19982.0,-0.0940551757812,-0.0814208984375,0.788879394531,0.601806640625,-0.25,0.9375,-0.25,-1.29,-2.5,9.59
1542217727239203929,355,0,/imu_data_acquisition2,19993.0,-0.0953979492188,-0.08056640625,0.788940429688,0.601623535156,-0.1875,2.1875,-0.4375,-1.53,-2.55,9.53
1542217727244985103,356,0,/imu_data_acquisition2,20000.0,-0.0968017578125,-0.0798950195312,0.788940429688,0.601501464844,-0.5625,2.375,-0.4375,-1.38,-2.64,9.12
1542217727258810043,357,0,/imu_data_acquisition2,20013.0,-0.0983276367188,-0.0790405273438,0.789001464844,0.601318359375,-0.3125,2.75,0.125,-1.63,-2.6,9.32
1542217727271248102,358,0,/imu_data_acquisition2,20024.0,-0.098388671875,-0.0790405273438,0.789001464844,0.601318359375,-0.625,0.9375,0.5625,-1.66,-2.36,9.52
1542217727275587081,359,0,/imu_data_acquisition2,20030.0,-0.0984497070312,-0.0791015625,0.7890625,0.601196289062,-1.0,0.1875,1.375,-1.66,-2.36,9.52
1542217727286506891,360,0,/imu_data_acquisition2,20041.0,-0.0984497070312,-0.0792846679688,0.789184570312,0.601013183594,-1.5,-1.9375,2.1875,-1.63,-2.76,9.53
1542217727294923067,361,0,/imu_data_acquisition2,20050.0,-0.0997314453125,-0.0789184570312,0.789367675781,0.6005859375,-2.3125,-3.25,2.875,-1.58,-2.64,9.62
1542217727308300971,362,0,/imu_data_acquisition2,20063.0,-0.100830078125,-0.0786743164062,0.78955078125,0.600219726562,-3.0625,-5.0,2.625,-1.54,-2.56,9.65
1542217727320295095,363,0,/imu_data_acquisition2,20073.0,-0.101806640625,-0.0785522460938,0.789733886719,0.599792480469,-3.75,-5.75,-0.0625,-1.54,-2.56,9.65
1542217727327645063,364,0,/imu_data_acquisition2,20081.0,-0.102478027344,-0.07861328125,0.789916992188,0.599487304688,-4.0,-6.4375,1.6875,-1.24,-2.36,9.14
1542217727336369991,365,0,/imu_data_acquisition2,20091.0,-0.102233886719,-0.0792236328125,0.789978027344,0.599365234375,-4.0,-6.5,0.75,-1.44,-2.19,9.19
1542217727348850965,366,0,/imu_data_acquisition2,20103.0,-0.10205078125,-0.079833984375,0.789978027344,0.599304199219,-4.1875,-6.25,-0.25,-1.51,-2.47,9.57
1542217727361593008,367,0,/imu_data_acquisition2,20113.0,-0.101745605469,-0.0804443359375,0.789916992188,0.599304199219,-3.6875,-6.5,-1.5,-1.08,-2.2,9.55
1542217727368856906,368,0,/imu_data_acquisition2,20123.0,-0.1015625,-0.0808715820312,0.789855957031,0.599365234375,-2.8125,-5.0625,-1.875,-0.75,-2.7,9.08
1542217727377512931,369,0,/imu_data_acquisition2,20131.0,-0.101379394531,-0.081298828125,0.789733886719,0.599548339844,-2.3125,-4.3125,-3.0,-0.75,-2.7,9.08
1542217727385425090,370,0,/imu_data_acquisition2,20140.0,-0.101257324219,-0.08154296875,0.789672851562,0.599609375,-1.375,-2.6875,-1.75,-1.68,-2.45,9.66
1542217727400177001,371,0,/imu_data_acquisition2,20155.0,-0.101013183594,-0.0818481445312,0.78955078125,0.599731445312,-1.375,-3.0,-2.8125,-1.31,-2.86,9.11
1542217727411674976,372,0,/imu_data_acquisition2,20166.0,-0.100891113281,-0.0820922851562,0.789428710938,0.599914550781,-2.3125,-1.75,-0.8125,-0.97,-1.46,8.03
1542217727421945095,373,0,/imu_data_acquisition2,20175.0,-0.100891113281,-0.0823364257812,0.789367675781,0.599914550781,-2.3125,-1.75,-0.8125,-1.21,-2.52,8.13
1542217727429416894,374,0,/imu_data_acquisition2,20184.0,-0.101135253906,-0.00439453125,-6.103515625e-05,0.599853515625,-3.3125,1.6875,0.8125,-0.06,-3.21,10.2
1542217727440628051,375,0,/imu_data_acquisition2,20193.0,-0.101623535156,-0.0824584960938,0.789367675781,0.599792480469,-3.375,4.375,1.3125,-0.06,-3.21,10.2
1542217727451638936,376,0,/imu_data_acquisition2,20205.0,-0.102294921875,-0.0823364257812,0.789367675781,0.599731445312,-3.25,7.0,0.6875,-0.19,-2.59,10.77
1542217727460127115,377,0,/imu_data_acquisition2,20215.0,-0.103271484375,-0.0819702148438,0.789184570312,0.599792480469,-6.25,16.9375,3.0625,-1.37,-2.75,8.48
1542217727472045898,378,0,/imu_data_acquisition2,20226.0,-0.104797363281,-0.0814819335938,0.789184570312,0.599670410156,-6.25,-0.0625,-0.0625,-0.87,-2.14,8.29
1542217727476557016,379,0,/imu_data_acquisition2,20231.0,-0.106384277344,-0.0811767578125,0.789306640625,0.599304199219,-8.8125,16.6875,6.0625,-0.87,-2.14,-0.01
1542217727486681938,380,0,/imu_data_acquisition2,20241.0,-0.107604980469,-0.0809936523438,0.789306640625,0.599060058594,-7.4375,12.5625,3.875,0.61,-1.91,8.22
1542217727496937990,381,0,/imu_data_acquisition2,20251.0,-0.108703613281,-0.0806274414062,0.789306640625,0.598937988281,-4.4375,12.6875,2.5625,-0.88,-0.01,-0.01
1542217727508014917,382,0,/imu_data_acquisition2,20262.0,-0.109741210938,-0.0809326171875,0.78955078125,0.598388671875,-10.4375,6.3125,7.0625,-2.57,-2.01,10.02
1542217727520179033,383,0,/imu_data_acquisition2,20275.0,-0.110473632812,-0.0819091796875,0.789794921875,0.597778320312,-13.75,0.375,9.625,-1.42,-3.45,9.6
1542217727527564048,384,0,/imu_data_acquisition2,20281.0,-0.111206054688,-0.082763671875,0.790161132812,0.596984863281,-13.75,0.375,9.625,-1.42,-3.45,9.6
1542217727535134077,385,0,/imu_data_acquisition2,20290.0,-0.111999511719,-0.083740234375,0.790893554688,0.595764160156,-14.5625,1.125,5.25,0.25,-4.1,8.68
1542217727547234058,386,0,/imu_data_acquisition2,20301.0,-0.113159179688,-0.0834350585938,0.79150390625,0.594787597656,-6.4375,10.8125,15.625,-1.16,-2.44,-0.01
1542217727559329986,387,0,/imu_data_acquisition2,20312.0,-0.116271972656,-0.076171875,0.791381835938,0.595275878906,46.625,81.375,6.875,0.11,-3.42,8.84
1542217727569924116,388,0,/imu_data_acquisition2,20324.0,-0.119445800781,-0.0706176757812,0.792358398438,0.594055175781,28.8125,66.0625,29.25,0.44,-3.92,8.35
1542217727577739953,389,0,/imu_data_acquisition2,20331.0,-0.119995117188,-0.0707397460938,0.794616699219,0.590942382812,-7.5,-1.3125,44.9375,2.26,-5.94,7.09
1542217727586247920,390,0,/imu_data_acquisition2,20340.0,-0.121276855469,-0.0719604492188,0.798950195312,0.584655761719,-25.3125,-7.875,88.875,4.82,-7.69,5.96
1542217727597193002,391,0,/imu_data_acquisition2,20352.0,-0.123168945312,-0.0621337890625,0.80322265625,0.579467773438,75.8125,75.8125,94.375,5.62,-6.87,7.34
1542217727609801054,392,0,/imu_data_acquisition2,20362.0,-0.126647949219,-0.038330078125,0.806701660156,0.575927734375,200.125,188.3125,95.0,4.33,-14.58,15.22
1542217727621061086,393,0,/imu_data_acquisition2,20371.0,-0.133728027344,0.000732421875,0.807800292969,0.574096679688,322.0625,331.75,86.5,3.87,-14.88,17.55
1542217727626581907,394,0,/imu_data_acquisition2,20381.0,-0.145263671875,0.056640625,0.804809570312,0.572692871094,455.4375,495.8125,81.8125,4.88,-10.85,16.16
1542217727637172937,395,0,/imu_data_acquisition2,20391.0,-0.156860351562,0.120422363281,0.79638671875,0.571472167969,533.8125,-0.0625,-0.0625,2.75,-5.64,20.23
1542217727648758888,396,0,/imu_data_acquisition2,20400.0,-0.168640136719,0.178161621094,0.78271484375,0.572021484375,486.0625,-0.0625,-0.0625,-1.73,-13.77,38.89
1542217727658659934,397,0,/imu_data_acquisition2,20413.0,-0.183410644531,0.200134277344,0.770324707031,0.577026367188,139.375,299.75,-117.8125,-12.12,-11.03,39.5
1542217727669054031,398,0,/imu_data_acquisition2,20423.0,-0.195495605469,0.199523925781,0.761047363281,0.58544921875,-47.5,106.1875,-170.4375,7.62,-9.75,0.27
1542217727675026893,399,0,/imu_data_acquisition2,20430.0,-0.209655761719,0.202697753906,0.748657226562,0.595397949219,-16.9375,154.9375,-201.0625,2.85,-1.99,-0.01
1542217727686600923,400,0,/imu_data_acquisition2,20441.0,-0.225158691406,0.204040527344,0.736389160156,0.6044921875,-45.625,155.5,-201.0,2.58,0.31,5.55
1542217727701319932,401,0,/imu_data_acquisition2,20456.0,-0.241821289062,0.201721191406,0.725036621094,0.612487792969,-90.5,139.5,-197.8125,4.7,1.84,8.04
1542217727710505008,402,0,/imu_data_acquisition2,20463.0,-0.258117675781,0.197143554688,0.714599609375,0.619506835938,-112.6875,120.125,-187.625,5.15,2.27,9.58
1542217727721870899,403,0,/imu_data_acquisition2,20476.0,-0.272399902344,0.19140625,0.705261230469,0.625915527344,-112.0625,54.25,-157.625,6.7,4.65,10.93
1542217727735896110,405,0,/imu_data_acquisition2,20490.0,-0.292663574219,0.175109863281,0.691284179688,0.637023925781,-106.5625,14.375,-137.75,7.09,5.11,10.69
1542217727749339103,406,0,/imu_data_acquisition2,20503.0,-0.297973632812,0.165405273438,0.686889648438,0.641845703125,-93.75,-24.875,-117.0,7.02,5.43,10.43
1542217727761677026,407,0,/imu_data_acquisition2,20516.0,-0.299865722656,0.15478515625,0.684509277344,0.646240234375,-80.5,-64.75,-94.875,6.37,5.04,9.84
1542217727770638942,408,0,/imu_data_acquisition2,20523.0,-0.298583984375,0.143432617188,0.683898925781,0.650085449219,-67.0,-102.375,-73.5625,5.72,4.15,10.36
1542217727776782035,409,0,/imu_data_acquisition2,20531.0,-0.294189453125,0.13134765625,0.684936523438,0.653503417969,-54.0625,-138.1875,-54.6875,5.28,2.9,11.0
1542217727784946918,410,0,/imu_data_acquisition2,20540.0,-6.103515625e-05,-6.103515625e-05,-6.103515625e-05,0.656555175781,-45.125,-171.3125,-40.625,4.59,1.56,11.56
1542217727796078920,411,0,/imu_data_acquisition2,20551.0,-0.278076171875,0.103881835938,0.690795898438,0.659301757812,-41.4375,-201.1875,-32.5,2.99,-0.97,11.42
1542217727808495998,412,0,/imu_data_acquisition2,20562.0,-0.267395019531,0.0881958007812,0.694641113281,0.661926269531,-40.75,-225.9375,-29.625,2.08,-2.23,11.27
1542217727818700075,413,0,/imu_data_acquisition2,20573.0,-0.25537109375,0.0712280273438,0.698608398438,0.664611816406,-41.0,-247.0,-32.1875,1.19,-3.33,11.09
1542217727826000928,414,0,/imu_data_acquisition2,20580.0,-0.242248535156,0.0531005859375,0.702087402344,0.66748046875,-41.25,-264.3125,-40.0625,-0.14,-4.73,10.63
1542217727836740016,415,0,/imu_data_acquisition2,20591.0,-0.228332519531,0.0338745117188,0.704956054688,0.670654296875,-41.875,-277.9375,-50.25,-0.53,-5.43,10.66
1542217727850502014,416,0,/imu_data_acquisition2,20603.0,-0.213623046875,0.0139770507812,0.706848144531,0.674194335938,-40.5625,-287.625,-62.5,-0.98,-5.98,11.3
1542217727856986045,417,0,/imu_data_acquisition2,20612.0,-0.198181152344,-0.0064697265625,0.707702636719,0.678100585938,-38.0,-295.25,-74.75,-1.35,-5.86,12.1
1542217727870668888,418,0,/imu_data_acquisition2,20625.0,-0.182067871094,-0.02734375,0.707641601562,0.68212890625,-36.25,-302.5,-84.5625,-1.41,-5.3,12.4
1542217727877449035,419,0,/imu_data_acquisition2,20631.0,-0.165466308594,-0.0485229492188,0.706909179688,0.685974121094,-35.75,-306.875,-88.8125,-1.48,-4.63,12.57
1542217727886523962,420,0,/imu_data_acquisition2,20641.0,-0.148620605469,-0.0697631835938,0.705749511719,0.689208984375,-35.0625,-309.375,-87.875,-1.72,-3.72,11.98
1542217727899918079,421,0,/imu_data_acquisition2,20654.0,-0.131408691406,-0.0906372070312,0.704467773438,0.691528320312,-31.0625,-310.125,-80.5625,-1.8,-2.02,13.9
1542217727906971931,422,0,/imu_data_acquisition2,20660.0,-0.114196777344,-0.111145019531,0.703674316406,0.692443847656,-29.5,-309.375,-64.5625,-1.7,-2.42,18.93
1542217727919313907,423,0,/imu_data_acquisition2,20674.0,-0.0982055664062,-0.131652832031,0.703552246094,0.69140625,-41.1875,-302.9375,-41.625,-1.66,-3.09,23.66
1542217727930105924,424,0,/imu_data_acquisition2,20684.0,-0.00579833984375,-6.103515625e-05,-6.103515625e-05,0.688537597656,-58.375,-293.25,-18.625,-3.72,-2.63,29.69
1542217727937133073,425,0,/imu_data_acquisition2,20690.0,-0.071044921875,-0.173828125,0.705139160156,0.683715820312,-76.5625,-292.4375,4.875,-5.58,-2.83,30.38
1542217727946784019,426,0,/imu_data_acquisition2,20701.0,-0.05859375,-0.195617675781,0.706909179688,0.677185058594,-82.875,-295.4375,25.25,-7.47,-2.21,29.61
1542217727961085081,427,0,/imu_data_acquisition2,20716.0,-0.0455322265625,-0.216491699219,0.709289550781,0.669311523438,-69.75,-296.25,39.5625,-15.29,1.28,23.02
1542217727966304063,428,0,/imu_data_acquisition2,20720.0,-0.0302734375,-0.235473632812,0.712158203125,0.66064453125,-36.1875,-302.5625,46.75,-15.29,1.28,23.02
1542217727978110074,429,0,/imu_data_acquisition2,20732.0,-0.0131225585938,-0.251892089844,0.716003417969,0.650939941406,3.375,-301.5625,57.6875,-16.3,5.24,18.49
1542217727990020990,430,0,/imu_data_acquisition2,20744.0,0.0040283203125,-0.265563964844,0.721313476562,0.639709472656,30.5625,-285.1875,83.25,-19.3,9.92,12.1
1542217727996351003,431,0,/imu_data_acquisition2,20750.0,0.0186157226562,-0.276428222656,0.728271484375,0.626770019531,39.75,-247.5,117.4375,-20.49,8.0,10.06
1542217728008115053,432,0,/imu_data_acquisition2,20762.0,0.029541015625,-0.287475585938,0.734985351562,0.613403320312,11.0,-217.9375,132.25,-25.55,0.26,12.11
1542217728021667003,433,0,/imu_data_acquisition2,20776.0,0.0394897460938,-0.298706054688,0.739562988281,0.601867675781,-6.0,-205.9375,103.8125,-31.36,-6.21,10.73
1542217728025583028,434,0,/imu_data_acquisition2,20780.0,0.0537109375,-0.306823730469,0.741577148438,0.594116210938,41.125,-208.9375,35.25,-33.94,-1.46,-3.56
1542217728038810014,435,0,/imu_data_acquisition2,20793.0,0.0712890625,-0.309448242188,0.741882324219,0.590576171875,103.875,-185.3125,-28.8125,-31.92,5.51,-10.63
1542217728049815893,436,0,/imu_data_acquisition2,20804.0,0.0858154296875,-0.307373046875,0.741821289062,0.58984375,120.0625,-116.0,-48.8125,-27.63,9.94,-14.38
1542217728058540105,437,0,/imu_data_acquisition2,20810.0,0.091064453125,-0.302368164062,0.743591308594,0.58935546875,87.375,-10.6875,-7.5,-19.27,16.1,-7.34
1542217728071234941,438,0,/imu_data_acquisition2,20826.0,0.0814819335938,-0.297973632812,0.747131347656,0.588500976562,-14.3125,115.125,61.625,3.09,-6.39,6.65
1542217728078959941,439,0,/imu_data_acquisition2,20832.0,0.0632934570312,-0.299377441406,0.747314453125,0.58984375,-139.75,156.1875,54.5625,4.39,-16.88,12.43
1542217728086484909,440,0,/imu_data_acquisition2,20841.0,0.0453491210938,-0.297790527344,0.747985839844,0.591430664062,-109.875,176.1875,53.625,22.52,-16.15,9.46
1542217728099524021,441,0,/imu_data_acquisition2,20852.0,0.0330810546875,-0.292541503906,0.752075195312,0.589660644531,-24.375,141.5,84.0625,3.23,-12.91,0.63
1542217728107857942,442,0,/imu_data_acquisition2,20860.0,0.0281982421875,-0.280151367188,0.759887695312,0.5859375,104.6875,120.0625,100.4375,1.27,3.61,-11.79
1542217728118577957,443,0,/imu_data_acquisition2,20872.0,0.0216064453125,-0.260314941406,0.768127441406,0.584533691406,160.4375,194.9375,84.6875,-14.33,17.02,-0.76
1542217728141809940,445,0,/imu_data_acquisition2,20895.0,0.0032958984375,-0.230834960938,0.777404785156,0.585083007812,92.25,159.25,43.5625,-0.64,-11.48,14.92
1542217728147488117,446,0,/imu_data_acquisition2,20902.0,-6.103515625e-05,-6.103515625e-05,-6.103515625e-05,0.58544921875,118.625,149.625,37.4375,-5.37,-2.25,10.98
1542217728158391952,447,0,/imu_data_acquisition2,20910.0,-0.004638671875,-0.20166015625,0.784729003906,0.586059570312,114.875,128.375,25.4375,3.87,-1.65,21.57
1542217728165378093,448,0,/imu_data_acquisition2,20920.0,-0.00799560546875,-0.189575195312,0.788208007812,0.58544921875,97.4375,113.3125,38.25,7.95,7.84,19.19
1542217728176597118,449,0,/imu_data_acquisition2,20931.0,-0.01416015625,-0.178955078125,0.792785644531,0.582458496094,66.0,124.0,74.5625,-0.73,4.94,23.34
1542217728191207885,450,0,/imu_data_acquisition2,20945.0,-0.0238037109375,-0.172668457031,0.79638671875,0.5791015625,-0.1875,125.9375,77.8125,-2.97,-15.46,16.79
1542217728195930004,451,0,/imu_data_acquisition2,20950.0,-0.0336303710938,-0.168640136719,0.798583984375,0.576782226562,-25.875,114.9375,58.375,-2.81,-10.02,11.7
1542217728207227945,452,0,/imu_data_acquisition2,20961.0,-0.039794921875,-0.162963867188,0.800048828125,0.575988769531,14.625,94.8125,31.625,2.99,-2.67,7.01
1542217728216881990,453,0,/imu_data_acquisition2,20970.0,-0.0455322265625,-0.155883789062,0.801513671875,0.575500488281,30.5,101.0,29.375,1.97,-3.81,10.52
1542217728226444959,454,0,/imu_data_acquisition2,20981.0,-0.0512084960938,-0.146118164062,0.802734375,0.575866699219,56.1875,120.625,20.0625,-0.65,-3.07,10.73
1542217728240502119,455,0,/imu_data_acquisition2,20992.0,-0.056640625,-0.1357421875,0.803527832031,0.576782226562,63.6875,123.6875,12.75,-0.27,-2.43,10.64
1542217728252486944,456,0,/imu_data_acquisition2,21002.0,-0.0621948242188,-0.1259765625,0.803771972656,0.578125,56.0625,120.9375,4.4375,-0.45,-2.78,9.53
1542217728256778955,457,0,/imu_data_acquisition2,21011.0,-0.0678100585938,-0.117126464844,0.803771972656,0.579345703125,46.875,116.4375,2.8125,-2.13,-2.55,10.32
1542217728270905971,458,0,/imu_data_acquisition2,21024.0,-0.0733032226562,-0.109375,0.803466796875,0.580627441406,36.625,107.375,-0.5,-1.34,-3.48,10.74
1542217728277401924,459,0,/imu_data_acquisition2,21030.0,-0.07861328125,-0.103088378906,0.802795410156,0.581970214844,23.625,96.0625,-5.3125,-0.79,-3.06,10.55
1542217728285938024,460,0,/imu_data_acquisition2,21040.0,-0.0836791992188,-0.00396728515625,-6.103515625e-05,0.583251953125,16.0,87.0,-6.4375,-1.7,-2.55,11.11
1542217728297894954,461,0,/imu_data_acquisition2,21051.0,-0.0880126953125,-0.0933837890625,0.801391601562,0.584228515625,11.6875,72.5625,-4.25,-1.48,-1.72,10.82
1542217728306804895,462,0,/imu_data_acquisition2,21060.0,-0.0909423828125,-0.09033203125,0.80078125,0.585144042969,9.3125,50.8125,-6.1875,-2.31,-2.89,10.3
1542217728316566944,463,0,/imu_data_acquisition2,21071.0,-0.0926513671875,-0.0883178710938,0.800170898438,0.5859375,6.75,31.6875,-0.0625,-1.68,-3.48,10.45
1542217728327584981,464,0,/imu_data_acquisition2,21081.0,-0.0939331054688,-0.0869140625,0.7998046875,0.586486816406,5.0625,23.0,-5.3125,-1.07,-2.92,9.73
1542217728338258981,465,0,/imu_data_acquisition2,21092.0,-0.0948486328125,-0.0857543945312,0.799560546875,0.586853027344,4.375,16.9375,-2.6875,-1.59,-2.32,10.46
1542217728347307920,466,0,/imu_data_acquisition2,21102.0,-0.095703125,-0.0846557617188,0.799377441406,0.587097167969,4.6875,16.4375,-1.5,-1.54,-2.68,9.95
1542217728354701042,467,0,/imu_data_acquisition2,21110.0,-0.0962524414062,-0.0838623046875,0.799194335938,0.587341308594,3.375,11.1875,-1.8125,-1.07,-2.65,9.56
1542217728366911888,468,0,/imu_data_acquisition2,21121.0,-0.0966796875,-0.08349609375,0.799072265625,0.587463378906,1.1875,7.0625,-1.6875,-1.46,-2.55,9.26
1542217728377721071,469,0,/imu_data_acquisition2,21131.0,-0.0970458984375,-0.0831909179688,0.799011230469,0.587585449219,0.5,5.6875,-0.875,-1.17,-2.7,9.49
1542217728385056018,470,0,/imu_data_acquisition2,21140.0,-0.0973510742188,-0.0830078125,0.798950195312,0.587646484375,0.375,3.875,-0.1875,-1.4,-2.4,9.67
1542217728397414922,471,0,/imu_data_acquisition2,21151.0,-0.0975952148438,-0.082763671875,0.798950195312,0.587646484375,0.625,4.3125,0.375,-1.15,-2.79,9.58
1542217728405997991,472,0,/imu_data_acquisition2,21160.0,-0.0978393554688,-0.08251953125,0.798889160156,0.587707519531,0.5,3.8125,-0.1875,-1.19,-2.58,9.21
1542217728415606975,473,0,/imu_data_acquisition2,21170.0,-0.0980834960938,-0.0823364257812,0.798889160156,0.587707519531,0.0,3.5625,0.5,-1.18,-2.56,9.05
1542217728428450107,474,0,/imu_data_acquisition2,21182.0,-0.0982666015625,-0.0823364257812,0.798828125,0.587707519531,-0.875,1.5625,0.5,-1.32,-2.48,9.12
1542217728436526060,475,0,/imu_data_acquisition2,21191.0,-0.098388671875,-0.0823974609375,0.798889160156,0.587585449219,-1.5625,0.75,1.3125,-1.04,-2.69,9.27
1542217728446686029,476,0,/imu_data_acquisition2,21201.0,-0.0985107421875,-0.0824584960938,0.798950195312,0.587524414062,-1.4375,0.9375,1.4375,-1.33,-2.5,9.06
1542217728454997062,477,0,/imu_data_acquisition2,21210.0,-0.0987548828125,-0.0823364257812,0.799011230469,0.58740234375,-0.8125,2.5,1.5625,-1.19,-2.34,9.13
1542217728466906070,478,0,/imu_data_acquisition2,21221.0,-0.0989379882812,-0.0822143554688,0.799011230469,0.587341308594,-0.5,2.6875,0.9375,-1.16,-2.35,9.34
