%time,field.header.seq,field.header.stamp,field.header.frame_id,field.time_stamp,field.quat_x,field.quat_y,field.quat_z,field.quat_w,field.gyro_x,field.gyro_y,field.gyro_z,field.accel_x,field.accel_y,field.accel_z
1542217072991070032,175,0,/imu_data_acquisition2,22243.0,0.056640625,-0.213256835938,0.68505859375,0.694274902344,-167.75,157.0,32.75,7.74,-9.8,9.83
1542217072999702930,176,0,/imu_data_acquisition2,22253.0,0.0355834960938,-0.211181640625,0.68603515625,0.695373535156,-154.5625,191.1875,50.4375,18.97,-2.26,-0.01
1542217073010922908,177,0,/imu_data_acquisition2,22265.0,0.0189819335938,-0.206787109375,0.688720703125,0.694641113281,-94.3125,170.5625,67.8125,-2.41,-10.67,5.49
1542217073021441936,178,0,/imu_data_acquisition2,22275.0,0.0108032226562,-0.19677734375,0.692687988281,0.693786621094,24.4375,147.4375,57.75,-9.09,3.51,2.0
1542217073027972936,179,0,/imu_data_acquisition2,22282.0,0.00518798828125,-0.182922363281,0.696472167969,0.693908691406,76.375,161.1875,41.0625,-9.09,3.51,2.0
1542217073037846088,180,0,/imu_data_acquisition2,22292.0,-0.0079345703125,-0.171508789062,0.699523925781,0.693664550781,-7.1875,201.4375,54.5,-4.5,-8.88,19.67
1542217073048640012,181,0,/imu_data_acquisition2,22303.0,-0.0184936523438,-0.160095214844,0.702575683594,0.693115234375,13.6875,179.8125,52.3125,-0.71,-11.51,27.64
1542217073061183929,182,0,/imu_data_acquisition2,22315.0,-0.0253295898438,-0.148315429688,0.70556640625,0.692443847656,47.6875,151.0625,45.75,-1.09,-3.11,12.99
1542217073071105957,183,0,/imu_data_acquisition2,22325.0,-0.0151977539062,-6.103515625e-05,-6.103515625e-05,0.692321777344,52.125,137.125,31.9375,-1.09,-3.11,12.99
1542217073077939033,184,0,/imu_data_acquisition2,22332.0,-0.0354614257812,-0.127075195312,0.7099609375,0.691772460938,49.5625,119.875,33.25,-0.17,-4.95,19.38
1542217073087974071,185,0,/imu_data_acquisition2,22342.0,-0.0411376953125,-0.117614746094,0.713195800781,0.689819335938,37.4375,120.625,55.4375,5.44,4.99,25.26
1542217073098031997,186,0,/imu_data_acquisition2,22352.0,-0.0485229492188,-0.108947753906,0.715515136719,0.688354492188,14.875,129.875,46.25,-0.04,-1.76,8.86
1542217073111401081,187,0,/imu_data_acquisition2,22365.0,-0.0553588867188,-0.1015625,0.716857910156,0.687561035156,8.3125,116.125,30.25,-1.15,-3.81,11.25
1542217073123820066,188,0,/imu_data_acquisition2,22376.0,-0.0615844726562,-0.0921020507812,0.717651367188,0.6875,30.625,129.875,21.125,-1.15,-3.81,11.25
1542217073132705926,189,0,/imu_data_acquisition2,22387.0,-0.06787109375,-0.0816650390625,0.717895507812,0.68798828125,38.125,138.5625,12.5625,-1.3,-3.53,11.6
1542217073145155906,190,0,/imu_data_acquisition2,22397.0,-0.074462890625,-0.0708618164062,0.7177734375,0.688598632812,38.625,144.1875,8.5,-2.03,-1.63,12.31
1542217073151349067,191,0,/imu_data_acquisition2,22404.0,-0.0808715820312,-0.0616455078125,0.717468261719,0.689147949219,26.375,130.3125,6.375,-2.03,-1.63,12.31
1542217073161844968,192,0,/imu_data_acquisition2,22416.0,-0.08642578125,-0.0543823242188,0.716613769531,0.690002441406,16.25,108.0625,-3.25,-0.86,-2.59,9.86
1542217073172686100,193,0,/imu_data_acquisition2,22426.0,-0.0908203125,-0.049072265625,0.7158203125,0.690612792969,9.25,81.8125,-3.375,-1.25,-1.93,10.24
1542217073181132078,194,0,/imu_data_acquisition2,22432.0,-0.094482421875,-0.0449829101562,0.715087890625,0.691162109375,5.125,65.3125,-4.0625,-1.25,-1.93,10.24
1542217073189768075,195,0,/imu_data_acquisition2,22443.0,-0.09765625,-0.0415649414062,0.714294433594,0.691772460938,2.9375,56.1875,-6.4375,-1.12,-2.23,10.98
1542217073201303005,196,0,/imu_data_acquisition2,22454.0,-0.100280761719,-0.0389404296875,0.713439941406,0.6923828125,0.875,45.125,-7.4375,-1.16,-2.39,10.68
1542217073212749958,197,0,/imu_data_acquisition2,22466.0,-0.102233886719,-0.0369873046875,0.712768554688,0.692932128906,0.75,33.125,-6.6875,-1.57,-2.64,10.24
1542217073222704887,198,0,/imu_data_acquisition2,22476.0,-0.103576660156,-0.03564453125,0.712341308594,0.693237304688,0.875,23.3125,-4.5625,-0.96,-0.01,-0.01
1542217073228399991,199,0,/imu_data_acquisition2,22482.0,-0.104431152344,-0.03466796875,0.712036132812,0.693420410156,0.9375,15.3125,-2.1875,-0.96,-2.48,10.18
1542217073239319086,200,0,/imu_data_acquisition2,22493.0,-0.105163574219,-0.0339965820312,0.711853027344,0.693603515625,0.5,12.1875,-1.5625,-1.03,-2.04,9.76
1542217073251126050,201,0,/imu_data_acquisition2,22504.0,-0.105773925781,-0.0333251953125,0.711669921875,0.693664550781,0.625,-0.0625,-0.0625,-1.15,-2.15,10.25
1542217073263709068,202,0,/imu_data_acquisition2,22516.0,-0.106262207031,-0.0326538085938,0.711486816406,0.69384765625,1.625,9.5625,-1.6875,-1.37,-1.82,9.66
1542217073273041009,203,0,/imu_data_acquisition2,22526.0,-0.0130615234375,-6.103515625e-05,-6.103515625e-05,0.693969726562,0.4375,9.5,-1.75,-1.04,-2.19,9.53
1542217073281362056,204,0,/imu_data_acquisition2,22534.0,-0.107299804688,-0.0317993164062,0.711181640625,0.694030761719,-0.875,7.1875,-1.1875,-0.94,-2.1,9.4
1542217073288642883,205,0,/imu_data_acquisition2,22542.0,-0.107849121094,-0.031494140625,0.711059570312,0.694091796875,-2.0,7.0625,-0.75,-1.29,-2.15,9.7
1542217073300213098,206,0,/imu_data_acquisition2,22554.0,-0.1083984375,-0.03125,0.7109375,0.694152832031,-2.75,6.75,-1.25,-1.4,-2.06,9.05
1542217073313169002,207,0,/imu_data_acquisition2,22566.0,-0.108947753906,-0.0154418945312,-6.103515625e-05,0.694274902344,-2.6875,6.4375,-1.6875,-1.49,-2.33,9.59
1542217073321357965,208,0,/imu_data_acquisition2,22575.0,-0.109375,-0.0309448242188,0.710571289062,0.694396972656,-2.5,5.0,-2.0,-1.17,-2.32,9.23
1542217073330348014,209,0,/imu_data_acquisition2,22584.0,-0.109924316406,-0.03076171875,0.71044921875,0.694458007812,-2.5625,5.875,-1.4375,-1.37,-2.14,9.6
1542217073339169025,210,0,/imu_data_acquisition2,22592.0,-0.110534667969,-0.0306396484375,0.710266113281,0.694519042969,-2.0,5.1875,-1.5,-1.19,-2.17,9.28
1542217073348850965,211,0,/imu_data_acquisition2,22602.0,-0.111145019531,-0.0304565429688,0.710144042969,0.694519042969,-1.5625,4.6875,-0.75,-1.64,-2.1,9.48
1542217073363140106,212,0,/imu_data_acquisition2,22616.0,-0.111633300781,-0.0302734375,0.710021972656,0.694580078125,-1.0625,3.875,-1.3125,-1.2,-2.12,9.33
1542217073372123956,213,0,/imu_data_acquisition2,22625.0,-0.111938476562,-0.030029296875,0.709899902344,0.694702148438,-0.5625,3.5,-1.9375,-1.38,-1.84,9.32
1542217073380295038,214,0,/imu_data_acquisition2,22634.0,-0.112365722656,-0.0298461914062,0.709716796875,0.69482421875,-0.6875,4.6875,-2.1875,-1.32,-2.1,9.57
1542217073389364004,215,0,/imu_data_acquisition2,22642.0,-0.112731933594,-0.029541015625,0.709533691406,0.694946289062,-0.3125,4.6875,-2.3125,-1.52,-2.11,9.63
1542217073400090932,216,0,/imu_data_acquisition2,22653.0,-0.113220214844,-0.029296875,0.709350585938,0.695129394531,-0.3125,4.75,-2.5625,-1.29,-2.31,9.55
1542217073411468029,217,0,/imu_data_acquisition2,22665.0,-0.113586425781,-0.029052734375,0.709106445312,0.6953125,-0.25,4.0625,-2.8125,-1.34,-1.96,9.11
1542217073418179035,218,0,/imu_data_acquisition2,22672.0,-6.103515625e-05,-6.103515625e-05,-6.103515625e-05,0.695495605469,-0.5625,4.0,-2.9375,-1.3,-2.17,9.58
1542217073430354118,219,0,/imu_data_acquisition2,22684.0,-0.00494384765625,-6.103515625e-05,-6.103515625e-05,0.695617675781,-0.0625,4.0625,-2.375,-1.46,-2.37,9.64
1542217073439409017,220,0,/imu_data_acquisition2,22693.0,-0.114807128906,-0.0284423828125,0.708557128906,0.695678710938,-0.125,4.6875,-1.75,-1.58,-2.18,9.59
1542217073448431015,221,0,/imu_data_acquisition2,22702.0,-0.115234375,-0.0282592773438,0.708374023438,0.69580078125,-0.25,3.8125,-1.4375,-1.35,-2.32,9.62
1542217073463499069,222,0,/imu_data_acquisition2,22717.0,-0.115417480469,-0.028076171875,0.708312988281,0.695861816406,-0.25,2.6875,-0.9375,-1.61,-2.12,9.77
1542217073473474025,223,0,/imu_data_acquisition2,22726.0,-0.115600585938,-0.0278930664062,0.708251953125,0.695861816406,-0.5625,2.875,-0.125,-1.61,-2.12,9.77
1542217073479444980,224,0,/imu_data_acquisition2,22733.0,-0.115600585938,-0.0278930664062,0.708251953125,0.695861816406,-0.0625,0.5,-0.3125,-1.16,-1.94,9.09
1542217073492969989,225,0,/imu_data_acquisition2,22746.0,-0.115600585938,-0.0278930664062,0.708251953125,0.695861816406,-0.125,0.625,0.0625,-1.61,-1.99,9.15
1542217073502870082,226,0,/imu_data_acquisition2,22756.0,-0.11572265625,-0.0277709960938,0.708251953125,0.695861816406,-0.5625,1.4375,0.125,-1.68,-2.22,9.72
1542217073512079954,227,0,/imu_data_acquisition2,22766.0,-0.115783691406,-0.02783203125,0.708251953125,0.695861816406,-0.625,0.0625,0.0625,-1.36,-2.13,9.13
1542217073519210100,228,0,/imu_data_acquisition2,22772.0,-0.00677490234375,-6.103515625e-05,-6.103515625e-05,0.69580078125,-1.0625,0.625,0.25,-1.63,-2.19,9.47
1542217073529208898,229,0,/imu_data_acquisition2,22783.0,-0.116333007812,-0.02783203125,0.708190917969,0.69580078125,-1.3125,0.6875,-0.125,-1.08,-2.07,9.07
1542217073540103912,230,0,/imu_data_acquisition2,22793.0,-0.116760253906,-0.0277709960938,0.708190917969,0.695739746094,-1.6875,2.1875,-0.5,-1.69,-2.14,9.48
1542217073549139976,231,0,/imu_data_acquisition2,22802.0,-0.1171875,-0.027587890625,0.708129882812,0.695739746094,-1.375,3.5625,-0.625,-1.73,-1.82,9.68
1542217073562349081,232,0,/imu_data_acquisition2,22815.0,-0.117431640625,-0.0274047851562,0.7080078125,0.695861816406,-0.5625,2.5625,-1.625,-1.22,-2.05,9.37
1542217073572093009,233,0,/imu_data_acquisition2,22826.0,-0.11767578125,-0.0272216796875,0.707824707031,0.695983886719,-0.625,3.5625,-1.9375,-1.82,-2.04,9.53
1542217073578823089,234,0,/imu_data_acquisition2,22832.0,-0.117980957031,-0.0270385742188,0.707702636719,0.696105957031,-0.9375,4.25,-2.0,-1.61,-1.99,9.67
1542217073590383052,235,0,/imu_data_acquisition2,22843.0,-0.1181640625,-0.0269165039062,0.70751953125,0.696228027344,-0.1875,3.0,-1.625,-1.52,-2.28,9.53
1542217073600518941,236,0,/imu_data_acquisition2,22853.0,-0.118408203125,-0.0267333984375,0.70751953125,0.696166992188,-0.625,2.8125,-0.25,-1.26,-2.03,9.45
1542217073609061956,237,0,/imu_data_acquisition2,22863.0,-0.118835449219,-0.0266723632812,0.70751953125,0.696166992188,-1.5625,3.4375,0.625,-1.36,-2.29,9.19
1542217073621469020,238,0,/imu_data_acquisition2,22875.0,-0.119323730469,-0.0265502929688,0.707580566406,0.695983886719,-3.625,5.125,2.1875,-1.52,-2.12,8.76
1542217073629652023,239,0,/imu_data_acquisition2,22883.0,-0.120361328125,-0.0264892578125,0.707702636719,0.695678710938,-7.6875,8.625,4.3125,-0.62,-1.22,7.73
1542217073638422012,240,0,/imu_data_acquisition2,22892.0,-0.121643066406,-0.0263061523438,0.707885742188,0.695251464844,-10.125,12.0,5.625,-0.35,-2.89,11.54
1542217073650098085,241,0,/imu_data_acquisition2,22903.0,-0.123168945312,-0.0260620117188,0.708129882812,0.694763183594,-10.9375,14.375,7.125,-0.17,-1.87,9.5
1542217073661562919,242,0,/imu_data_acquisition2,22914.0,-0.125244140625,-0.0256958007812,0.708312988281,0.694213867188,-14.5625,19.8125,6.75,0.45,-1.29,8.37
1542217073670221090,243,0,/imu_data_acquisition2,22924.0,-0.127807617188,-0.0250854492188,0.708557128906,0.693481445312,-16.75,25.75,9.8125,-1.84,-2.35,9.8
1542217073680290937,244,0,/imu_data_acquisition2,22934.0,-0.130493164062,-0.0239868164062,0.708984375,0.692626953125,-14.75,30.8125,12.875,-2.22,-2.64,8.76
1542217073691545009,245,0,/imu_data_acquisition2,22943.0,-0.133117675781,-0.0234375,0.709533691406,0.691589355469,-17.8125,25.5625,15.4375,0.63,-1.98,9.12
1542217073698492050,246,0,/imu_data_acquisition2,22952.0,-0.13623046875,-0.0243530273438,0.710693359375,0.689758300781,-35.5,16.0625,23.8125,-0.74,-3.12,10.95
1542217073711968898,247,0,/imu_data_acquisition2,22965.0,-0.139099121094,-0.0272827148438,0.71240234375,0.687316894531,-51.5,-3.25,30.9375,-2.71,-3.52,11.47
1542217073720469951,248,0,/imu_data_acquisition2,22973.0,-0.140441894531,-0.0310668945312,0.713317871094,0.685913085938,-45.1875,-21.625,13.25,-1.33,-3.53,4.01
1542217073728477001,249,0,/imu_data_acquisition2,22982.0,-0.139953613281,-0.0332641601562,0.714111328125,0.685119628906,-15.6875,-0.0625,-0.0625,-7.45,-6.96,11.76
1542217073740201950,250,0,/imu_data_acquisition2,22993.0,-0.137634277344,-0.0427856445312,0.716918945312,0.682067871094,-66.3125,-103.4375,34.625,-5.59,-4.11,8.15
1542217073749346971,251,0,/imu_data_acquisition2,23003.0,-0.1279296875,-0.0542602539062,0.72119140625,0.678649902344,-21.75,-183.5625,39.4375,-2.34,-2.91,7.31
1542217073758433103,252,0,/imu_data_acquisition2,23012.0,-0.0047607421875,-6.103515625e-05,-6.103515625e-05,0.677551269531,-36.8125,-260.0,-10.625,-2.42,-0.01,-0.01
1542217073770838022,253,0,/imu_data_acquisition2,23024.0,-0.09521484375,-0.08984375,0.72265625,0.6787109375,-4.3125,-307.6875,-53.4375,2.47,8.75,16.67
1542217073780586957,254,0,/imu_data_acquisition2,23033.0,-0.0823364257812,-0.110656738281,0.719604492188,0.680541992188,-76.1875,-272.0625,-77.4375,2.23,-0.01,-0.01
1542217073788657903,255,0,/imu_data_acquisition2,23042.0,-0.0712280273438,-0.129638671875,0.715759277344,0.682495117188,-75.0625,-241.25,-80.9375,15.32,-7.11,7.93
1542217073800110101,256,0,/imu_data_acquisition2,23053.0,-0.0621337890625,-0.137512207031,0.713073730469,0.684631347656,4.625,-135.625,-60.25,15.93,-8.64,7.97
1542217073810151100,257,0,/imu_data_acquisition2,23063.0,-0.0670776367188,-0.1240234375,0.713989257812,0.685852050781,76.0,152.625,15.0,15.6,-13.03,11.09
1542217073818624019,258,0,/imu_data_acquisition2,23072.0,-0.0823364257812,-0.0834350585938,0.717224121094,0.686889648438,224.875,458.3125,72.0625,17.63,-8.86,10.72
1542217073830152988,259,0,/imu_data_acquisition2,23083.0,-0.108764648438,-0.0154418945312,0.72119140625,0.683959960938,365.0,772.4375,150.3125,13.99,-2.02,7.37
1542217073839366912,260,0,/imu_data_acquisition2,23093.0,-0.151245117188,0.0745239257812,0.719421386719,0.673828125,412.8125,1097.375,196.3125,4.54,-1.31,6.69
1542217073848717927,261,0,/imu_data_acquisition2,23102.0,-0.206359863281,0.167541503906,0.706298828125,0.656066894531,333.9375,1258.25,165.625,-11.35,-2.69,32.83
1542217073861104011,262,0,/imu_data_acquisition2,23114.0,-0.244567871094,0.212219238281,0.689819335938,0.647583007812,89.0625,724.5625,-23.875,11.31,-19.27,28.53
1542217073869323968,263,0,/imu_data_acquisition2,23123.0,-0.259399414062,0.213928222656,-6.103515625e-05,0.64990234375,-72.875,152.4375,-113.8125,15.02,-9.42,6.42
1542217073878586053,264,0,/imu_data_acquisition2,23132.0,-0.273803710938,0.216735839844,0.669982910156,0.655090332031,-42.625,160.4375,-159.25,5.77,-4.34,7.08
1542217073890496969,265,0,/imu_data_acquisition2,23144.0,-0.28955078125,0.21826171875,0.657653808594,0.660339355469,-60.8125,162.875,-172.9375,4.68,0.61,6.59
1542217073899250984,266,0,/imu_data_acquisition2,23152.0,-0.304626464844,0.215698242188,0.646240234375,0.665649414062,-90.375,122.75,-177.875,4.98,2.26,7.12
1542217073908585071,267,0,/imu_data_acquisition2,23162.0,-0.319030761719,0.210266113281,0.635864257812,0.670593261719,-110.5625,92.1875,-175.875,4.88,2.66,8.62
1542217073920263051,268,0,/imu_data_acquisition2,23174.0,-0.331420898438,0.203430175781,0.626586914062,0.675415039062,-108.3125,62.5625,-167.1875,4.77,4.64,11.4
1542217073929215908,269,0,/imu_data_acquisition2,23182.0,-0.3408203125,0.19482421875,0.618713378906,0.680541992188,-100.0,19.25,-157.0,5.06,5.02,11.25
1542217073938764095,270,0,/imu_data_acquisition2,23192.0,-0.346984863281,0.184814453125,0.612487792969,0.685791015625,-87.6875,-23.0,-143.5,5.15,5.49,10.91
1542217073950614929,271,0,/imu_data_acquisition2,23204.0,-0.349792480469,0.174072265625,0.607849121094,0.691284179688,-68.0625,-59.375,-127.5625,4.69,5.85,9.98
1542217073959249019,272,0,/imu_data_acquisition2,23212.0,-0.349365234375,0.162841796875,0.604858398438,0.696838378906,-47.5625,-94.0625,-110.0625,4.33,5.34,-0.01
1542217073968970060,273,0,/imu_data_acquisition2,23223.0,-0.345581054688,0.1513671875,-6.103515625e-05,0.702514648438,-25.1875,-127.0625,-92.1875,3.95,4.6,10.5
1542217073980907917,274,0,/imu_data_acquisition2,23234.0,-0.338562011719,0.139587402344,0.603637695312,0.708190917969,-2.6875,-158.6875,-75.125,3.59,3.93,11.11
1542217073989593029,275,0,/imu_data_acquisition2,23243.0,-0.328796386719,0.127380371094,0.605163574219,0.713745117188,14.0625,-187.4375,-59.1875,2.61,1.61,12.41
1542217073999331951,276,0,/imu_data_acquisition2,23253.0,-0.316833496094,0.114379882812,0.608032226562,0.718933105469,23.6875,-214.625,-45.875,1.97,0.15,13.11
1542217074010236978,277,0,/imu_data_acquisition2,23263.0,-0.303039550781,0.100219726562,0.611755371094,0.723815917969,29.1875,-240.5625,-37.9375,1.31,-0.93,13.02
1542217074019290924,278,0,/imu_data_acquisition2,23273.0,-0.287719726562,0.0848388671875,0.615905761719,0.728515625,31.625,-263.1875,-35.25,0.09,-2.64,11.93
1542217074029377937,279,0,/imu_data_acquisition2,23283.0,-6.103515625e-05,-6.103515625e-05,-6.103515625e-05,0.732971191406,33.625,-280.9375,-36.0,-0.39,-3.35,11.79
1542217074039578914,280,0,/imu_data_acquisition2,23293.0,-0.253723144531,0.0511474609375,0.6240234375,0.7373046875,35.9375,-294.0625,-39.0,-0.9,-4.03,11.99
1542217074049345970,281,0,/imu_data_acquisition2,23303.0,-0.235412597656,0.0332641601562,0.627380371094,0.741516113281,38.625,-304.3125,-44.3125,-1.42,-4.61,11.6
1542217074059845924,282,0,/imu_data_acquisition2,23313.0,-0.0132446289062,-6.103515625e-05,-6.103515625e-05,0.745666503906,42.1875,-310.125,-50.125,-1.66,-4.01,10.82
1542217074069396972,283,0,/imu_data_acquisition2,23323.0,-0.196899414062,-0.00299072265625,0.632080078125,0.74951171875,46.75,-311.0,-53.9375,-1.8,-2.86,9.67
1542217074079463958,284,0,/imu_data_acquisition2,23333.0,-0.177185058594,-0.0202026367188,0.633605957031,0.752807617188,53.5625,-303.3125,-52.0,-2.04,-1.92,9.55
1542217074089901924,285,0,/imu_data_acquisition2,23343.0,-0.157775878906,-0.0360107421875,0.635131835938,0.755249023438,60.1875,-289.3125,-42.6875,-2.63,-1.64,17.74
1542217074099474906,286,0,/imu_data_acquisition2,23353.0,-0.139526367188,-0.0507202148438,0.637145996094,0.756286621094,55.0,-272.4375,-24.5,-3.42,-1.83,22.9
1542217074109260082,287,0,/imu_data_acquisition2,23363.0,-0.123107910156,-0.0654296875,0.640258789062,0.755432128906,36.375,-260.9375,0.5,-2.17,-0.01,-0.01
1542217074119867086,288,0,/imu_data_acquisition2,23373.0,-0.108093261719,-0.0811157226562,0.644653320312,0.75244140625,14.4375,-263.375,27.5,-7.33,0.31,25.39
1542217074129242897,289,0,/imu_data_acquisition2,23382.0,-0.094482421875,-0.0979614257812,0.650512695312,0.747192382812,-8.5,-266.5,57.8125,-9.46,-0.86,25.5
1542217074139175891,290,0,/imu_data_acquisition2,23393.0,-0.0820922851562,-0.115051269531,0.657653808594,0.739990234375,-21.75,-263.125,84.8125,-11.82,-2.13,26.38
1542217074149945974,291,0,/imu_data_acquisition2,23403.0,-0.0697631835938,-0.131408691406,0.665405273438,0.731506347656,-16.9375,-258.1875,101.375,-18.11,-7.16,29.49
1542217074159246921,292,0,/imu_data_acquisition2,23412.0,-0.0555419921875,-0.146362304688,0.67333984375,0.722595214844,10.6875,-0.0625,-0.0625,-19.89,-5.48,26.13
1542217074169194936,293,0,/imu_data_acquisition2,23423.0,-0.0379638671875,-0.159912109375,0.680908203125,0.713684082031,49.5625,-276.4375,96.875,-20.97,-2.52,20.29
1542217074180201053,294,0,/imu_data_acquisition2,23434.0,-0.0187377929688,-0.172241210938,0.6884765625,0.704284667969,72.8125,-280.5625,97.5625,-21.38,-0.19,13.73
1542217074189263105,295,0,/imu_data_acquisition2,23442.0,-0.0001220703125,-0.183654785156,0.696166992188,0.693969726562,75.9375,-269.5625,107.875,-19.78,-0.52,3.77
1542217074199395895,296,0,/imu_data_acquisition2,23453.0,0.0155029296875,-0.194458007812,0.703674316406,0.683227539062,55.125,-240.9375,116.1875,-25.65,-8.59,9.1
1542217074209923982,297,0,/imu_data_acquisition2,23463.0,0.0288696289062,-0.205932617188,0.709045410156,0.673828125,27.1875,-224.75,92.5625,-28.19,-15.95,6.96
1542217074218108892,298,0,/imu_data_acquisition2,23472.0,0.04541015625,-0.21435546875,0.711303710938,0.667846679688,68.5,-220.0,31.0625,-30.21,-10.15,-10.57
1542217074229898929,299,0,/imu_data_acquisition2,23483.0,0.064453125,-0.216552734375,0.711120605469,0.665771484375,132.625,-182.9375,-31.375,-28.91,-4.12,-17.99
1542217074240580081,300,0,/imu_data_acquisition2,23493.0,0.0804443359375,-0.213623046875,0.709594726562,0.666625976562,146.4375,-110.5,-62.125,-25.8,0.83,-21.02
1542217074248110055,301,0,/imu_data_acquisition2,23502.0,0.0882568359375,-0.207946777344,0.708129882812,0.669006347656,103.1875,-16.375,-56.5,-20.2,7.1,-13.37
1542217074261467933,302,0,/imu_data_acquisition2,23513.0,0.0822143554688,-0.202514648438,0.7080078125,0.671508789062,-5.125,99.9375,-13.125,-10.81,0.5,-0.84
1542217074270796060,303,0,/imu_data_acquisition2,23523.0,0.064697265625,-0.200622558594,0.70751953125,0.674560546875,-128.1875,168.4375,11.0625,5.06,-7.88,12.52
1542217074282152891,304,0,/imu_data_acquisition2,23534.0,0.0438842773438,-0.2001953125,0.705322265625,0.678649902344,-170.5,185.6875,-2.8125,11.58,-6.85,24.99
1542217074291734933,305,0,/imu_data_acquisition2,23543.0,0.024658203125,-0.198303222656,0.704223632812,0.681274414062,-142.8125,181.6875,13.75,12.85,-2.83,11.48
1542217074298784971,306,0,/imu_data_acquisition2,23553.0,0.01171875,-0.192443847656,0.706115722656,0.681335449219,-51.0625,155.625,43.3125,3.71,-2.15,-0.82
1542217074311712026,307,0,/imu_data_acquisition2,23563.0,0.00347900390625,-0.178283691406,0.7109375,0.680236816406,63.0,181.4375,65.125,-5.16,7.1,-6.26
1542217074325916051,308,0,/imu_data_acquisition2,23578.0,-0.0081787109375,-0.161804199219,0.716003417969,0.679016113281,55.625,228.6875,74.8125,-8.05,-13.04,26.08
1542217074330111980,309,0,/imu_data_acquisition2,23583.0,-0.0256958007812,-0.147338867188,0.719909667969,0.677734375,-11.0,261.6875,77.4375,-4.0,-13.68,30.05
1542217074341993093,310,0,/imu_data_acquisition2,23594.0,-0.0371704101562,-0.133544921875,0.723449707031,0.676330566406,31.6875,205.0625,64.1875,-1.81,-6.73,15.88
1542217074355732917,311,0,/imu_data_acquisition2,23609.0,-0.046630859375,-0.120239257812,0.726806640625,0.674621582031,42.3125,183.6875,62.375,5.25,12.05,24.73
1542217074360506057,312,0,/imu_data_acquisition2,23613.0,-0.0584106445312,-0.108642578125,0.73095703125,0.671142578125,9.75,186.5625,86.375,-10.53,-16.77,32.83
1542217074371917009,313,0,/imu_data_acquisition2,23626.0,-0.0721435546875,-0.0972290039062,0.734252929688,0.66796875,-7.9375,202.875,79.4375,-3.81,-2.53,-0.01
1542217074382976055,314,0,/imu_data_acquisition2,23634.0,-6.103515625e-05,-6.103515625e-05,-6.103515625e-05,0.667602539062,42.75,158.75,29.6875,-2.78,-0.65,16.32
1542217074390126943,315,0,/imu_data_acquisition2,23643.0,-0.0870971679688,-0.0717163085938,0.735412597656,0.668151855469,62.3125,172.125,16.8125,-1.75,0.07,11.68
1542217074402441978,316,0,/imu_data_acquisition2,23656.0,-0.0145874023438,-6.103515625e-05,-6.103515625e-05,0.669738769531,44.9375,132.125,-8.3125,-2.51,-4.91,13.19
1542217074410229921,317,0,/imu_data_acquisition2,23662.0,-0.0970458984375,-0.00677490234375,-6.103515625e-05,0.671997070312,34.6875,104.3125,-23.0625,-2.51,-1.03,-0.01
1542217074418878078,318,0,/imu_data_acquisition2,23672.0,-0.0997924804688,-0.0487060546875,0.730895996094,0.673400878906,21.875,64.875,-15.125,-1.31,-2.62,9.74
1542217074430505037,319,0,/imu_data_acquisition2,23683.0,-0.101623535156,-0.0454711914062,0.729919433594,0.674377441406,13.6875,43.8125,-11.6875,-1.37,-2.94,9.87
1542217074439692020,320,0,/imu_data_acquisition2,23692.0,-0.101623535156,-0.0454711914062,0.729919433594,0.674377441406,8.4375,33.3125,-8.625,-1.38,-2.11,9.97
1542217074449124097,321,0,/imu_data_acquisition2,23702.0,-0.104431152344,-0.04150390625,0.728637695312,0.675659179688,4.8125,24.5625,-6.25,-0.85,-2.31,10.2
1542217074461178064,322,0,/imu_data_acquisition2,23713.0,-0.105285644531,-0.0403442382812,0.728149414062,0.676086425781,3.25,18.0625,-6.0625,-0.94,-2.3,9.34
1542217074470539093,323,0,/imu_data_acquisition2,23724.0,-0.106079101562,-0.0393676757812,0.727722167969,0.676513671875,2.3125,14.75,-5.0,-1.4,-2.06,9.97
1542217074479949951,324,0,/imu_data_acquisition2,23733.0,-0.106872558594,-0.0384521484375,0.727294921875,0.676879882812,1.5,15.0625,-4.9375,-0.97,-2.37,9.56
1542217074489412069,325,0,/imu_data_acquisition2,23742.0,-0.107543945312,-0.0376586914062,0.726867675781,0.67724609375,2.25,12.75,-5.375,-0.75,-2.38,9.79
1542217074500624895,326,0,/imu_data_acquisition2,23753.0,-0.108154296875,-0.036865234375,0.726501464844,0.677612304688,1.6875,12.0625,-4.875,-1.13,-1.85,9.24
1542217074510679006,327,0,/imu_data_acquisition2,23763.0,-0.108825683594,-0.0361328125,0.726196289062,0.677917480469,1.4375,11.9375,-3.6875,-1.42,-2.5,9.48
1542217074518697977,328,0,/imu_data_acquisition2,23772.0,-0.109436035156,-0.0352783203125,0.725769042969,0.67822265625,2.8125,12.9375,-4.75,-1.21,-0.01,-0.01
1542217074532584905,329,0,/imu_data_acquisition2,23786.0,-0.109924316406,-0.0346069335938,0.725524902344,0.678466796875,1.875,9.625,-2.5625,-1.16,-1.85,9.86
1542217074541023969,330,0,/imu_data_acquisition2,23794.0,-0.109924316406,-0.0346069335938,0.725524902344,0.678466796875,1.4375,7.5625,-1.5625,-1.2,-2.26,9.64
1542217074550491094,331,0,/imu_data_acquisition2,23802.0,-0.110290527344,-0.0341186523438,0.725402832031,0.678588867188,0.75,6.375,-1.0,-1.46,-1.98,9.67
1542217074562047958,332,0,/imu_data_acquisition2,23813.0,-0.111022949219,-0.0333862304688,0.725219726562,0.6787109375,0.1875,5.8125,-0.0625,-1.3,-1.98,9.41
1542217074571562051,333,0,/imu_data_acquisition2,23825.0,-0.111328125,-0.0331420898438,0.725158691406,0.6787109375,-0.25,4.375,-0.625,-1.05,-2.09,9.38
1542217074582343101,334,0,/imu_data_acquisition2,23835.0,-0.111633300781,-0.032958984375,0.72509765625,0.678771972656,-0.9375,4.0,-0.625,-1.56,-2.03,9.7
1542217074590763092,335,0,/imu_data_acquisition2,23843.0,-0.111633300781,-0.032958984375,0.72509765625,0.678771972656,-1.125,4.5,-0.4375,-1.21,-2.37,-0.01
1542217074601068973,336,0,/imu_data_acquisition2,23853.0,-0.111938476562,-0.0327758789062,0.725036621094,0.678771972656,-1.1875,3.625,-1.1875,-1.36,-2.18,9.41
1542217074612246036,337,0,/imu_data_acquisition2,23865.0,-0.112426757812,-0.0326538085938,0.724914550781,0.678833007812,-1.5625,4.0,-1.0625,-1.6,-2.03,9.25
1542217074621103048,338,0,/imu_data_acquisition2,23873.0,-0.112731933594,-0.0325317382812,0.724792480469,0.678894042969,-1.4375,3.375,-0.6875,-1.17,-2.23,9.47
1542217074631788015,339,0,/imu_data_acquisition2,23885.0,-0.113037109375,-0.0324096679688,0.724731445312,0.678955078125,-1.6875,2.5625,-1.125,-1.13,-2.09,8.99
1542217074642151117,340,0,/imu_data_acquisition2,23892.0,-0.11328125,-0.0324096679688,0.724609375,0.679016113281,-1.6875,2.5625,-1.125,-1.31,-1.97,9.49
1542217074651237010,341,0,/imu_data_acquisition2,23905.0,-0.113952636719,-0.0321655273438,0.724426269531,0.679077148438,-1.0,4.3125,-0.9375,-1.25,-2.08,9.16
1542217074661578893,342,0,/imu_data_acquisition2,23915.0,-0.113952636719,-0.0321655273438,0.724426269531,0.679077148438,-0.8125,5.0,-1.0,-1.72,-2.07,9.47
1542217074673269033,343,0,/imu_data_acquisition2,23923.0,-0.114501953125,-0.0318603515625,0.724304199219,0.679138183594,-0.375,6.375,-1.0625,-1.37,-2.18,9.45
1542217074681154012,344,0,/imu_data_acquisition2,23935.0,-0.115539550781,-0.0311889648438,0.723999023438,0.679321289062,0.0,5.4375,-1.6875,-1.41,-2.19,9.27
1542217074691487073,345,0,/imu_data_acquisition2,23943.0,-0.115539550781,-0.0311889648438,0.723999023438,0.679321289062,0.1875,6.0,-2.0,-1.72,-2.09,9.44
1542217074698690891,346,0,/imu_data_acquisition2,23952.0,-0.115905761719,-0.0308837890625,0.723876953125,0.679443359375,-0.125,6.5,-2.125,-1.45,-2.29,9.48
1542217074710251092,347,0,/imu_data_acquisition2,23964.0,-0.116271972656,-0.030517578125,0.723693847656,0.679626464844,-0.25,5.625,-2.25,-1.67,-2.04,9.44
1542217074722250938,348,0,/imu_data_acquisition2,23974.0,-0.116638183594,-0.0302124023438,0.723449707031,0.679748535156,-0.1875,5.5625,-1.9375,-1.48,-2.28,9.35
1542217074733124971,349,0,/imu_data_acquisition2,23983.0,-0.117248535156,-0.0299072265625,0.723266601562,0.679870605469,0.125,4.5625,-1.8125,-1.54,-2.31,9.4
1542217074740176916,350,0,/imu_data_acquisition2,23993.0,-0.117797851562,-0.0296630859375,0.72314453125,0.679931640625,-0.875,3.375,-0.3125,-1.55,-2.2,9.48
1542217074752386093,351,0,/imu_data_acquisition2,24003.0,-0.118286132812,-0.0294799804688,0.723083496094,0.679931640625,-0.875,3.375,-0.3125,-1.58,-2.14,9.56
1542217074759382009,352,0,/imu_data_acquisition2,24013.0,-0.118713378906,-0.0293579101562,0.723022460938,0.679931640625,-1.3125,2.9375,-0.0625,-1.49,-2.21,9.47
1542217074770101070,353,0,/imu_data_acquisition2,24024.0,-0.119140625,-0.0292358398438,0.722961425781,0.679870605469,-1.5,2.125,0.0625,-1.52,-2.03,9.2
1542217074781760931,354,0,/imu_data_acquisition2,24034.0,-0.119506835938,-0.0291748046875,0.722961425781,0.679870605469,-1.5,2.125,0.0625,-1.25,-2.16,9.29
1542217074788660049,355,0,/imu_data_acquisition2,24042.0,-0.119812011719,-0.0291748046875,0.722900390625,0.679809570312,-2.1875,1.375,1.125,-1.75,-2.19,9.36
1542217074800049066,356,0,/imu_data_acquisition2,24053.0,-0.120239257812,-0.0291748046875,0.722961425781,0.679748535156,-2.5625,0.4375,1.25,-1.4,-2.18,9.57
1542217074809925079,357,0,/imu_data_acquisition2,24064.0,-0.120483398438,-0.029296875,0.723022460938,0.679626464844,-3.125,1.4375,1.875,-1.5,-2.19,9.29
1542217074819670915,358,0,/imu_data_acquisition2,24073.0,-0.120849609375,-0.0294189453125,0.723083496094,0.679443359375,-3.125,3.25,1.875,-1.56,-1.8,9.25
1542217074835717916,359,0,/imu_data_acquisition2,24087.0,-0.121765136719,-0.0292358398438,0.72314453125,0.679260253906,-2.8125,3.875,0.4375,-1.5,-1.92,9.58
1542217074841458082,360,0,/imu_data_acquisition2,24093.0,-0.121765136719,-0.0292358398438,0.72314453125,0.679260253906,-2.8125,3.875,0.4375,-1.32,-2.12,9.38
1542217074850075960,361,0,/imu_data_acquisition2,24103.0,-0.122131347656,-0.0291748046875,0.723083496094,0.679260253906,-2.6875,4.9375,0.6875,-1.08,-2.22,9.51
1542217074861309051,362,0,/imu_data_acquisition2,24113.0,-0.122619628906,-0.029052734375,0.723022460938,0.67919921875,-3.4375,6.375,1.625,-1.75,-2.13,9.03
1542217074874165058,363,0,/imu_data_acquisition2,24124.0,-0.123291015625,-0.0288696289062,0.723083496094,0.679077148438,-4.8125,7.4375,2.25,-1.4,-2.08,9.6
1542217074880414009,364,0,/imu_data_acquisition2,24134.0,-0.1240234375,-0.0286865234375,0.723083496094,0.678894042969,-6.5625,9.75,3.4375,-1.09,-2.31,9.55
1542217074892291069,365,0,/imu_data_acquisition2,24145.0,-0.125,-0.028564453125,0.723205566406,0.678649902344,-9.6875,12.25,5.875,-1.46,-1.75,8.73
1542217074903673887,366,0,/imu_data_acquisition2,24153.0,-0.126342773438,-0.0283813476562,0.723388671875,0.67822265625,-9.6875,12.25,5.875,-1.46,-1.75,8.73
1542217074910168886,367,0,/imu_data_acquisition2,24164.0,-0.128112792969,-0.0282592773438,0.723571777344,0.677612304688,-14.9375,16.125,9.4375,-1.17,-2.74,11.11
1542217074921124935,368,0,/imu_data_acquisition2,24174.0,-0.130004882812,-0.0281372070312,0.723937988281,0.676940917969,-11.4375,16.6875,9.625,-1.52,-2.77,10.41
1542217074932950973,369,0,/imu_data_acquisition2,24184.0,-0.131713867188,-0.0277709960938,0.724243164062,0.67626953125,-12.5625,15.375,9.9375,-0.9,-0.01,-0.01
1542217074940069913,370,0,/imu_data_acquisition2,24193.0,-0.133361816406,-0.027587890625,0.724609375,0.675537109375,-12.5625,15.375,9.9375,-0.78,-2.24,9.57
1542217074951309919,371,0,/imu_data_acquisition2,24204.0,-0.135314941406,-0.0283813476562,0.725341796875,0.674377441406,-43.0,-4.25,29.375,-0.34,-3.33,7.97
1542217074962902069,372,0,/imu_data_acquisition2,24214.0,-0.137573242188,-0.0309448242188,0.726989746094,0.672058105469,-51.1875,-17.25,29.1875,-2.12,-2.93,8.73
1542217074971237897,373,0,/imu_data_acquisition2,24225.0,-0.139465332031,-0.0347290039062,0.728698730469,0.669616699219,-26.25,-20.1875,-1.5,1.21,-4.17,9.6
1542217074983237981,374,0,/imu_data_acquisition2,24237.0,-0.139709472656,-0.0374755859375,0.728759765625,0.669311523438,-9.8125,-40.8125,14.875,-9.36,5.21,5.39
1542217074994028091,375,0,/imu_data_acquisition2,24246.0,-0.137817382812,-0.0402221679688,0.730041503906,0.668151855469,-59.625,-133.6875,13.8125,0.55,-9.96,15.91
1542217075001864910,376,0,/imu_data_acquisition2,24254.0,-0.132934570312,-0.05126953125,0.732116699219,0.666076660156,-59.625,-133.6875,13.8125,-3.92,-3.97,7.08
1542217075013515949,377,0,/imu_data_acquisition2,24264.0,-0.123291015625,-0.063232421875,0.735717773438,0.662963867188,-3.9375,-284.1875,-13.375,-2.94,-11.09,-0.15
1542217075023438930,378,0,/imu_data_acquisition2,24274.0,-0.105773925781,-0.0795288085938,0.737731933594,0.662048339844,81.1875,-325.8125,-34.875,1.17,14.44,15.89
1542217075032326936,379,0,/imu_data_acquisition2,24286.0,-0.0806274414062,-0.0929565429688,0.738891601562,0.662475585938,-112.875,-314.25,-83.3125,2.27,-0.01,-0.01
1542217075041192054,380,0,/imu_data_acquisition2,24293.0,-0.066650390625,-0.118103027344,0.735168457031,0.664123535156,-112.875,-314.25,-83.3125,2.27,-10.96,8.88
1542217075052859067,381,0,/imu_data_acquisition2,24303.0,-0.0505981445312,-0.141479492188,0.730712890625,0.665893554688,-81.8125,-317.625,-91.3125,6.69,-8.22,10.53
1542217075061836004,382,0,/imu_data_acquisition2,24315.0,-0.0303344726562,-0.156066894531,0.724914550781,0.670288085938,39.5625,-12.1875,-34.6875,14.4,-5.23,7.85
1542217075071413040,383,0,/imu_data_acquisition2,24324.0,-0.0303344726562,-0.156066894531,0.724914550781,0.670288085938,98.375,257.0625,22.125,16.03,-9.76,10.37
1542217075085887908,384,0,/imu_data_acquisition2,24338.0,-0.0634155273438,-0.0906372070312,0.729736328125,0.674682617188,211.6875,553.75,63.25,18.42,-8.52,9.69
1542217075092087030,385,0,/imu_data_acquisition2,24345.0,-0.101379394531,-0.00421142578125,-6.103515625e-05,0.673706054688,310.4375,894.0,118.125,17.19,-8.71,8.03
1542217075102567911,386,0,/imu_data_acquisition2,24353.0,-0.101379394531,-0.0198364257812,0.731689453125,0.673706054688,310.4375,894.0,118.125,17.19,-8.71,8.03
1542217075115864992,387,0,/imu_data_acquisition2,24368.0,-0.155517578125,0.076416015625,0.725708007812,0.665832519531,389.5625,1630.8125,168.0,-29.29,-10.05,37.59
1542217075122744083,388,0,/imu_data_acquisition2,24377.0,-0.277282714844,0.246337890625,0.677429199219,0.63525390625,129.5625,899.375,-94.3125,-24.82,-15.46,39.67
1542217075132550001,389,0,/imu_data_acquisition2,24386.0,-0.277282714844,0.246337890625,0.677429199219,0.63525390625,-73.0,59.75,-186.5,14.63,-21.91,26.83
1542217075143867015,390,0,/imu_data_acquisition2,24397.0,-0.288452148438,0.240966796875,0.667419433594,0.642883300781,-73.0,59.75,-186.5,2.84,-2.88,3.63
1542217075152556896,391,0,/imu_data_acquisition2,24406.0,-0.315795898438,0.238098144531,0.636474609375,0.662170410156,-48.1875,132.125,-246.0,2.51,1.61,4.1
1542217075162904977,392,0,/imu_data_acquisition2,24414.0,-0.315795898438,0.238098144531,0.636474609375,0.662170410156,-48.1875,132.125,-246.0,2.3,3.59,3.84
1542217075182919025,394,0,/imu_data_acquisition2,24435.0,-0.340148925781,0.225219726562,0.609069824219,0.680114746094,-52.9375,15.25,-204.75,3.6,8.67,6.52
1542217075190263986,395,0,/imu_data_acquisition2,24444.0,-0.347839355469,0.217468261719,0.597778320312,0.688720703125,-52.9375,15.25,-204.75,3.6,8.67,6.52
1542217075201541900,396,0,/imu_data_acquisition2,24453.0,-0.352233886719,0.210266113281,0.588317871094,0.696838378906,-29.0625,-9.8125,-175.9375,3.78,10.08,7.89
1542217075213566064,397,0,/imu_data_acquisition2,24467.0,-0.353515625,0.202392578125,0.581726074219,0.704040527344,-18.875,-46.25,-140.0625,4.64,9.71,9.71
1542217075222057104,398,0,/imu_data_acquisition2,24475.0,-0.35205078125,0.194152832031,0.578247070312,0.7099609375,-4.375,-110.5625,-64.75,4.43,8.16,10.33
1542217075241308927,399,0,/imu_data_acquisition2,24488.0,-0.341064453125,0.176025390625,0.57958984375,0.718872070312,7.25,-142.9375,-34.875,3.94,6.28,10.63
1542217075244297981,400,0,/imu_data_acquisition2,24493.0,-0.341064453125,0.176025390625,0.57958984375,0.718872070312,7.25,-142.9375,-34.875,3.94,6.28,10.63
1542217075248661994,401,0,/imu_data_acquisition2,24502.0,-0.331115722656,0.166320800781,0.583435058594,0.722717285156,25.3125,-173.9375,-12.5,2.95,2.41,10.73
1542217075261081933,402,0,/imu_data_acquisition2,24515.0,-0.318420410156,0.15625,0.588439941406,0.7265625,44.3125,-201.5625,1.75,1.82,-1.02,-0.01
1542217075273960113,403,0,/imu_data_acquisition2,24526.0,-0.303405761719,0.145446777344,0.594177246094,0.730590820312,64.625,-247.75,8.875,0.73,-3.62,11.84
1542217075281887054,404,0,/imu_data_acquisition2,24535.0,-0.286865234375,0.133605957031,0.60009765625,0.734680175781,64.625,-247.75,8.875,0.22,-4.64,12.21
1542217075290379047,405,0,/imu_data_acquisition2,24543.0,-0.269226074219,0.120300292969,0.606018066406,0.73876953125,62.875,-267.625,4.625,0.22,-4.64,12.21
1542217075299916982,406,0,/imu_data_acquisition2,24552.0,-0.251220703125,0.105285644531,0.611450195312,0.742919921875,55.625,-283.6875,-4.375,-0.22,-5.48,12.08
1542217075310916900,407,0,/imu_data_acquisition2,24565.0,-0.232971191406,0.0889282226562,0.616027832031,0.747192382812,49.125,-295.125,-16.25,-1.37,-6.36,11.39
1542217075327414989,408,0,/imu_data_acquisition2,24575.0,-0.214416503906,0.0716552734375,0.61962890625,0.751647949219,46.75,-302.875,-29.1875,-1.58,-5.83,11.57
1542217075332215070,409,0,/imu_data_acquisition2,24585.0,-0.195434570312,0.0538940429688,0.6220703125,0.756286621094,47.8125,-307.4375,-40.8125,-1.8,-4.96,12.1
1542217075341296911,410,0,/imu_data_acquisition2,24594.0,-0.176208496094,0.0360107421875,0.623657226562,0.760681152344,49.625,-308.25,-47.5,-1.8,-4.96,12.1
1542217075350694894,411,0,/imu_data_acquisition2,24603.0,-0.156860351562,0.0182495117188,0.624755859375,0.764709472656,51.25,-307.1875,-48.3125,-2.53,-2.82,14.23
1542217075363004922,412,0,/imu_data_acquisition2,24615.0,-0.137268066406,0.00091552734375,0.625793457031,0.767822265625,54.1875,-296.25,-24.6875,-3.58,-0.79,19.04
1542217075371150016,413,0,/imu_data_acquisition2,24625.0,-0.118041992188,-0.0156860351562,0.627380371094,0.76953125,54.1875,-296.25,-24.6875,-7.72,-3.08,26.3
1542217075382467031,414,0,/imu_data_acquisition2,24636.0,-0.100402832031,-0.0323486328125,0.630187988281,0.769226074219,11.75,-277.625,28.3125,-9.25,-0.6,30.56
1542217075391719102,415,0,/imu_data_acquisition2,24645.0,-0.0848999023438,-0.0494995117188,0.63427734375,0.766845703125,11.75,-277.625,28.3125,-9.25,-0.6,30.56
1542217075400494098,416,0,/imu_data_acquisition2,24654.0,-0.068603515625,-0.0677490234375,0.640197753906,0.762145996094,10.0625,-297.25,61.375,-10.99,-0.16,32.93
1542217075412345886,417,0,/imu_data_acquisition2,24664.0,-0.0508422851562,-0.0865478515625,0.647216796875,0.755676269531,17.6875,-315.375,83.1875,-14.16,-0.97,32.66
1542217075422271013,418,0,/imu_data_acquisition2,24675.0,-0.031494140625,-0.105224609375,0.654968261719,0.747619628906,33.375,-328.375,99.5625,-23.19,3.39,19.97
1542217075432343006,419,0,/imu_data_acquisition2,24686.0,-0.0120239257812,-0.123718261719,0.663024902344,0.738220214844,35.4375,-329.3125,113.3125,-24.68,4.71,16.53
1542217075438335895,420,0,/imu_data_acquisition2,24692.0,0.0047607421875,-0.141235351562,0.671813964844,0.727111816406,20.0625,-302.375,136.75,-24.68,4.71,16.53
1542217075450512886,421,0,/imu_data_acquisition2,24704.0,0.0193481445312,-0.1572265625,0.681274414062,0.714660644531,14.8125,-274.375,157.5625,-25.71,2.49,7.27
1542217075463371038,422,0,/imu_data_acquisition2,24717.0,0.0327758789062,-0.170715332031,0.691101074219,0.701538085938,24.3125,-211.5,146.75,-28.7,-6.98,4.23
1542217075472584962,423,0,/imu_data_acquisition2,24725.0,0.04443359375,-0.182189941406,0.699401855469,0.689697265625,24.3125,-211.5,146.75,-32.12,-12.12,-11.42
1542217075483062982,424,0,/imu_data_acquisition2,24736.0,0.058349609375,-0.190551757812,0.704406738281,0.681213378906,59.5,-198.9375,85.8125,-31.47,-5.27,-17.92
1542217075494054079,425,0,/imu_data_acquisition2,24747.0,0.0758056640625,-0.190856933594,0.707580566406,0.676147460938,163.4375,-74.625,3.3125,-29.44,0.84,-19.21
1542217075498594045,426,0,/imu_data_acquisition2,24752.0,0.0895385742188,-0.185363769531,0.709838867188,0.673645019531,163.4375,-74.625,3.3125,-29.44,0.84,-19.21
1542217075512955904,427,0,/imu_data_acquisition2,24766.0,0.0924072265625,-0.179321289062,0.712097167969,0.672485351562,79.3125,24.25,14.6875,0.12,-3.56,1.68
1542217075524697065,428,0,/imu_data_acquisition2,24775.0,0.0804443359375,-0.176696777344,0.714233398438,0.672424316406,-67.625,123.875,40.375,9.05,-7.3,14.25
1542217075532047986,429,0,/imu_data_acquisition2,24786.0,0.0596923828125,-0.177490234375,0.714660644531,0.673889160156,-172.75,172.4375,35.0,15.0,-11.44,17.55
1542217075540571928,430,0,/imu_data_acquisition2,24793.0,0.0379638671875,-0.176940917969,0.715393066406,0.674865722656,-168.0625,191.4375,42.6875,15.0,-11.44,17.55
1542217075550024986,431,0,/imu_data_acquisition2,24802.0,0.0199584960938,-0.168579101562,0.719055175781,0.673889160156,-65.125,218.625,71.75,-0.28,-14.33,10.06
1542217075561377048,432,0,/imu_data_acquisition2,24815.0,0.0084228515625,-0.152709960938,0.723327636719,0.67333984375,52.25,224.8125,58.0625,-7.57,-2.72,-0.12
1542217075573174953,433,0,/imu_data_acquisition2,24826.0,-0.0062255859375,-0.135009765625,0.727478027344,0.672668457031,42.5,265.5,63.6875,-1.64,-2.67,25.38
1542217075583749055,434,0,/imu_data_acquisition2,24836.0,-0.0242919921875,-0.121215820312,0.72998046875,0.672180175781,-21.1875,264.5,53.4375,1.8,4.8,20.15
1542217075591972112,435,0,/imu_data_acquisition2,24845.0,-0.0359497070312,-0.013916015625,-6.103515625e-05,0.670837402344,27.8125,205.875,55.0625,2.25,9.77,22.53
1542217075601068019,436,0,/imu_data_acquisition2,24854.0,-0.04931640625,-0.0945434570312,0.737609863281,0.666748046875,11.8125,213.1875,95.875,2.25,9.77,22.53
1542217075610311031,437,0,/imu_data_acquisition2,24863.0,-0.064453125,-0.0828857421875,0.740966796875,0.663269042969,-15.9375,218.625,80.75,-4.23,-13.19,15.74
1542217075621917009,438,0,/imu_data_acquisition2,24876.0,-0.0728759765625,-0.0714111328125,0.74169921875,0.662902832031,35.0,163.125,25.875,-2.58,1.63,16.34
1542217075633204936,439,0,/imu_data_acquisition2,24886.0,-0.0794677734375,-0.0598754882812,0.741394042969,0.663635253906,49.875,149.0,6.5625,-2.99,-2.46,14.7
1542217075639060974,440,0,/imu_data_acquisition2,24892.0,-0.084716796875,-0.0521850585938,0.740112304688,0.665100097656,26.6875,108.75,-11.5,-2.99,-2.46,14.7
1542217075650480985,441,0,/imu_data_acquisition2,24904.0,-0.0879516601562,-0.0466918945312,0.738586425781,0.666809082031,23.0625,74.0625,-19.5,-1.67,-3.07,10.38
1542217075661098003,442,0,/imu_data_acquisition2,24914.0,-0.0897216796875,-0.0438842773438,0.737915039062,0.667419433594,11.25,38.4375,-6.8125,-0.66,-0.22,9.34
1542217075676923990,443,0,/imu_data_acquisition2,24928.0,-0.0911254882812,-0.041748046875,0.7373046875,0.668029785156,5.5,23.1875,-6.75,-0.56,-1.6,9.51
1542217075683563947,444,0,/imu_data_acquisition2,24937.0,-0.0932006835938,-0.0389404296875,0.736267089844,0.669128417969,3.0,19.0625,-7.25,-0.59,-2.0,8.82
1542217075693154096,445,0,/imu_data_acquisition2,24946.0,-0.0932006835938,-0.0076904296875,-6.103515625e-05,0.669128417969,3.0,19.0625,-7.25,-0.87,-2.48,-0.01
1542217075704122066,446,0,/imu_data_acquisition2,24957.0,-0.0941162109375,-0.0377807617188,0.735656738281,0.669738769531,2.9375,17.125,-7.75,-1.27,-1.32,9.91
1542217075711859941,447,0,/imu_data_acquisition2,24965.0,-0.0950317382812,-0.0366821289062,0.735107421875,0.670288085938,2.9375,17.125,-7.75,-1.27,-1.32,9.91
1542217075722834110,448,0,/imu_data_acquisition2,24976.0,-0.0958251953125,-0.0357666015625,0.734436035156,0.670959472656,2.1875,15.5625,-9.4375,-0.7,-2.03,9.61
1542217075732960939,449,0,/imu_data_acquisition2,24986.0,-0.0966186523438,-0.0347290039062,0.733703613281,0.671630859375,3.375,15.9375,-10.4375,-0.9,-2.41,9.67
1542217075740758895,450,0,/imu_data_acquisition2,24993.0,-0.0973510742188,-0.03369140625,0.733093261719,0.672302246094,3.4375,15.5625,-9.1875,-0.82,-2.22,10.05
1542217075750895977,451,0,/imu_data_acquisition2,25003.0,-0.0980834960938,-0.0326538085938,0.732543945312,0.672790527344,3.25,-0.0625,-0.0625,-1.13,-2.2,9.79
1542217075761332035,452,0,/imu_data_acquisition2,25014.0,-0.0988159179688,-0.0316772460938,0.732116699219,0.673217773438,2.9375,14.6875,-5.5625,-1.15,-1.92,9.76
1542217075772731065,453,0,/imu_data_acquisition2,25026.0,-0.0994262695312,-0.0308227539062,0.731750488281,0.673583984375,2.5625,12.75,-4.5,-1.37,-2.27,9.76
1542217075782377004,454,0,/imu_data_acquisition2,25035.0,-0.0999755859375,-0.0300903320312,0.7314453125,0.673828125,2.0625,11.25,-3.75,-1.41,-2.02,9.59
1542217075789984941,455,0,/imu_data_acquisition2,25043.0,-0.1005859375,-0.0294799804688,0.731201171875,0.674072265625,1.375,10.375,-3.0625,-1.36,-1.84,9.81
1542217075798599004,456,0,/imu_data_acquisition2,25052.0,-0.101013183594,-0.0289916992188,0.731018066406,0.674255371094,0.75,8.1875,-2.5625,-1.11,-2.14,9.56
1542217075808824062,457,0,/imu_data_acquisition2,25062.0,-0.101440429688,-0.028564453125,0.730834960938,0.67431640625,-0.1875,6.875,-1.25,-1.33,-2.07,9.65
1542217075824887990,458,0,/imu_data_acquisition2,25076.0,-0.10205078125,-0.0283813476562,0.730773925781,0.674377441406,-1.125,5.8125,-0.8125,-1.3,-1.96,9.5
1542217075828972101,459,0,/imu_data_acquisition2,25082.0,-0.102600097656,-0.0281982421875,0.730712890625,0.674377441406,-1.75,4.8125,-0.4375,-1.26,-1.87,9.44
1542217075839513063,460,0,/imu_data_acquisition2,25093.0,-0.103271484375,-0.0279541015625,0.730590820312,0.674377441406,-2.0,5.8125,-0.75,-1.46,-1.94,9.47
1542217075851263999,461,0,/imu_data_acquisition2,25104.0,-0.103881835938,-0.0278930664062,0.730407714844,0.674438476562,-2.3125,6.125,-1.375,-0.85,-2.25,9.42
1542217075860086917,462,0,/imu_data_acquisition2,25113.0,-0.1044921875,-0.0276489257812,0.730285644531,0.674560546875,-1.6875,6.375,-1.25,-1.37,-1.85,9.18
1542217075874231100,463,0,/imu_data_acquisition2,25128.0,-0.105895996094,-0.027099609375,0.72998046875,0.674682617188,-2.25,7.5,-1.25,-1.4,-1.86,9.75
1542217075883918046,464,0,/imu_data_acquisition2,25137.0,-0.105895996094,-0.027099609375,0.72998046875,0.674682617188,-2.25,7.5,-1.25,-1.27,-1.64,9.34
1542217075891565084,465,0,/imu_data_acquisition2,25144.0,-0.1064453125,-0.02685546875,0.729797363281,0.6748046875,-2.1875,7.4375,-1.8125,-1.27,-1.64,9.34
1542217075900187015,466,0,/imu_data_acquisition2,25153.0,-0.106994628906,-0.0265502929688,0.729614257812,0.674926757812,-1.5,6.6875,-1.9375,-1.83,-1.88,9.73
1542217075911396980,467,0,/imu_data_acquisition2,25165.0,-0.107299804688,-0.0264282226562,0.7294921875,0.675048828125,-1.5625,4.25,-2.125,-1.35,-2.13,9.19
1542217075920247077,468,0,/imu_data_acquisition2,25174.0,-0.107543945312,-0.0263061523438,0.729370117188,0.675109863281,-0.875,3.25,-1.5625,-1.6,-1.96,9.59
1542217075933204889,469,0,/imu_data_acquisition2,25187.0,-0.107971191406,-0.0263061523438,0.729187011719,0.675231933594,-1.0,2.5625,-1.625,-1.19,-2.08,9.37
1542217075940877914,470,0,/imu_data_acquisition2,25194.0,-0.108459472656,-0.0261840820312,0.729125976562,0.675231933594,-1.375,1.75,-1.125,-1.74,-1.99,9.5
1542217075948672056,471,0,/imu_data_acquisition2,25202.0,-0.10888671875,-0.026123046875,0.729064941406,0.675231933594,-1.4375,1.125,-0.8125,-1.7,-1.97,9.66
1542217075960030078,472,0,/imu_data_acquisition2,25213.0,-0.109191894531,-0.0261840820312,0.728942871094,0.67529296875,-1.5625,0.25,-0.0625,-1.36,-1.96,9.38
1542217075975897073,473,0,/imu_data_acquisition2,25228.0,-0.109436035156,-0.0263061523438,0.728881835938,0.675354003906,-1.3125,0.5,-1.4375,-1.28,-2.11,9.37
1542217075985028982,474,0,/imu_data_acquisition2,25237.0,-0.109558105469,-0.0263671875,0.728820800781,0.675415039062,-1.375,0.8125,-1.0625,-1.06,-2.24,9.37
1542217075992449045,475,0,/imu_data_acquisition2,25243.0,-0.109741210938,-0.0263671875,0.728759765625,0.675354003906,-1.5625,1.125,-0.125,-1.67,-1.86,9.22
1542217076003563880,476,0,/imu_data_acquisition2,25252.0,-0.109985351562,-0.0264282226562,0.728759765625,0.675354003906,-2.3125,1.875,0.3125,-1.56,-2.13,9.88
1542217076009494066,477,0,/imu_data_acquisition2,25263.0,-0.1103515625,-0.0264892578125,0.728759765625,0.675354003906,-2.0,1.25,0.0,-1.43,-2.08,9.6
1542217076023461103,478,0,/imu_data_acquisition2,25277.0,-0.110595703125,-0.0264892578125,0.728698730469,0.67529296875,-1.875,2.0625,0.0625,-1.54,-1.93,9.69
1542217076032260894,479,0,/imu_data_acquisition2,25283.0,-0.110961914062,-0.0264282226562,0.728637695312,0.67529296875,-2.625,3.625,0.0625,-1.54,-1.93,9.69
1542217076039185047,480,0,/imu_data_acquisition2,25293.0,-0.111328125,-0.0263671875,0.728637695312,0.67529296875,-2.5625,3.8125,-0.5625,-1.33,-2.06,9.42
1542217076052669048,481,0,/imu_data_acquisition2,25306.0,-0.111999511719,-0.026123046875,0.728515625,0.67529296875,-2.625,5.9375,-0.75,-1.55,-1.77,9.28
1542217076062405109,482,0,/imu_data_acquisition2,25313.0,-0.112548828125,-0.02587890625,0.728393554688,0.675354003906,-2.1875,6.3125,-0.6875,-1.41,-1.9,9.51
1542217076071544885,483,0,/imu_data_acquisition2,25325.0,-0.113159179688,-0.0255737304688,0.728271484375,0.675354003906,-2.0,6.875,-1.0,-1.49,-1.89,9.21
1542217076083370923,484,0,/imu_data_acquisition2,25337.0,-0.11376953125,-0.0252685546875,0.728088378906,0.675476074219,-1.9375,7.625,-1.6875,-1.16,-1.93,9.46
1542217076089517116,485,0,/imu_data_acquisition2,25342.0,-0.114379882812,-0.0249633789062,0.727905273438,0.675598144531,-1.5,7.9375,-2.0,-1.42,-1.95,9.5
1542217076099852085,486,0,/imu_data_acquisition2,25353.0,-0.115112304688,-0.0245361328125,0.727722167969,0.675720214844,-1.625,9.0,-1.5625,-1.77,-2.0,9.67
1542217076111807107,487,0,/imu_data_acquisition2,25364.0,-0.115783691406,-0.024169921875,0.7275390625,0.67578125,-1.5,7.9375,-1.3125,-1.34,-2.07,9.29
1542217076121897935,488,0,/imu_data_acquisition2,25373.0,-6.103515625e-05,-6.103515625e-05,-6.103515625e-05,0.675842285156,-2.3125,9.125,-0.8125,-1.22,-2.2,8.91
1542217076131015062,489,0,/imu_data_acquisition2,25385.0,-0.117431640625,-0.0234985351562,0.727294921875,0.67578125,-4.1875,10.6875,0.25,-1.0,-1.55,8.54
1542217076140882968,490,0,/imu_data_acquisition2,25393.0,-0.118896484375,-0.0231323242188,0.727233886719,0.675598144531,-8.25,15.4375,2.1875,-0.83,-1.29,8.19
1542217076148806095,491,0,/imu_data_acquisition2,25402.0,-0.120788574219,-0.0226440429688,0.727233886719,0.67529296875,-11.25,20.25,3.6875,-0.66,-2.58,11.31
1542217076160006046,492,0,/imu_data_acquisition2,25413.0,-0.122802734375,-0.02197265625,0.727233886719,0.674926757812,-11.0625,22.6875,4.5,-0.93,-2.27,10.75
1542217076172334909,493,0,/imu_data_acquisition2,25424.0,-0.124877929688,-0.0213012695312,0.727233886719,0.674560546875,-11.375,22.8125,4.875,-0.42,-1.05,9.31
1542217076182619094,494,0,/imu_data_acquisition2,25435.0,-0.126770019531,-0.0208740234375,0.727416992188,0.674072265625,-12.125,19.125,6.6875,-1.95,-1.79,9.26
1542217076189678907,495,0,/imu_data_acquisition2,25443.0,-0.128967285156,-0.0209350585938,0.727722167969,0.673278808594,-18.8125,18.125,9.625,-1.43,-2.09,8.84
1542217076201093912,496,0,/imu_data_acquisition2,25453.0,-0.131774902344,-0.0226440429688,0.728698730469,0.671630859375,-39.3125,8.375,20.0,0.44,-1.61,8.46
1542217076208373069,497,0,/imu_data_acquisition2,25462.0,-0.134521484375,-0.0249633789062,0.730346679688,0.669250488281,-45.5625,2.125,31.0,2.49,-4.29,10.73
1542217076220665931,498,0,/imu_data_acquisition2,25474.0,-0.1357421875,-0.0277709960938,0.730102539062,0.669128417969,-33.875,-11.1875,-5.4375,-2.04,1.35,8.46
1542217076232927083,499,0,/imu_data_acquisition2,25484.0,-0.139404296875,-0.032470703125,0.7294921875,0.668823242188,-70.375,-4.75,-8.125,-6.58,4.73,-1.16
1542217076238681077,500,0,/imu_data_acquisition2,25493.0,-0.140747070312,-0.0427856445312,0.730590820312,0.666809082031,-102.4375,-72.75,9.625,-4.21,-3.49,9.48
1542217076250149965,501,0,/imu_data_acquisition2,25503.0,-0.134765625,-0.0550537109375,0.733032226562,0.664428710938,-61.8125,-153.375,16.25,-3.2,-2.14,8.52
1542217076259525060,502,0,/imu_data_acquisition2,25513.0,-0.123657226562,-0.072998046875,0.734619140625,0.663146972656,-69.5625,-241.375,-12.25,-0.07,-3.12,9.94
1542217076268660068,503,0,/imu_data_acquisition2,25522.0,-0.112182617188,-0.0942993164062,0.733947753906,0.663208007812,-95.375,-265.75,-46.9375,1.42,-6.96,11.19
1542217076289483070,505,0,/imu_data_acquisition2,25543.0,-0.0890502929688,-0.126953125,0.729187011719,0.66650390625,-22.6875,-206.0,-70.5625,8.35,-9.64,9.49
1542217076299928903,506,0,/imu_data_acquisition2,25553.0,-0.0773315429688,-0.131652832031,0.726928710938,0.669494628906,51.6875,-131.3125,-66.5,12.86,-8.89,9.2
1542217076311530113,507,0,/imu_data_acquisition2,25564.0,-0.0733032226562,-0.119689941406,0.72705078125,0.672058105469,137.125,64.125,-16.0625,19.91,-14.28,11.16
1542217076319132089,508,0,/imu_data_acquisition2,25573.0,-0.0819091796875,-0.0797729492188,0.729431152344,0.674438476562,281.3125,393.0,45.4375,19.74,-10.86,12.13
1542217076331990957,509,0,/imu_data_acquisition2,25585.0,-0.104797363281,-0.00848388671875,0.731872558594,0.673278808594,435.0625,765.5,120.6875,17.84,-11.15,9.73
1542217076339390039,510,0,/imu_data_acquisition2,25592.0,-0.142639160156,0.0916137695312,0.727905273438,0.664367675781,557.4375,1136.5,174.1875,-1.2,-0.01,-0.01
1542217076351469039,511,0,/imu_data_acquisition2,25603.0,-0.199829101562,0.203552246094,0.710632324219,0.643127441406,502.0,1438.0625,175.5625,-23.94,-1.69,39.67
1542217076359519958,512,0,/imu_data_acquisition2,25613.0,-0.240295410156,0.265014648438,0.688659667969,0.630676269531,233.375,892.625,-14.3125,-14.04,-11.06,39.67
1542217076371844053,513,0,/imu_data_acquisition2,25625.0,-0.25341796875,0.264282226562,0.680053710938,0.635192871094,-64.625,111.75,-144.375,11.28,-8.34,7.08
1542217076379177093,514,0,/imu_data_acquisition2,25632.0,-0.264892578125,0.263366699219,-6.103515625e-05,0.642517089844,-36.9375,95.4375,-180.625,4.5,-3.3,5.79
1542217076389472961,515,0,/imu_data_acquisition2,25643.0,-0.278747558594,0.262084960938,0.656494140625,0.650146484375,-52.6875,115.9375,-203.125,4.7,-0.14,4.25
1542217076399559974,516,0,/imu_data_acquisition2,25653.0,-0.293151855469,0.257629394531,0.644653320312,0.657409667969,-84.4375,94.125,-207.0,3.49,1.5,4.9
1542217076410238981,517,0,/imu_data_acquisition2,25664.0,-0.307373046875,0.250061035156,0.633728027344,0.664367675781,-110.9375,66.625,-207.8125,4.26,4.29,6.5
1542217076421710968,518,0,/imu_data_acquisition2,25675.0,-0.320434570312,0.241149902344,0.623901367188,0.670776367188,-117.0625,44.4375,-196.25,4.15,5.57,8.76
1542217076428627014,519,0,/imu_data_acquisition2,25682.0,-0.331481933594,0.231811523438,0.615234375,0.676635742188,-110.0625,23.75,-0.0625,4.37,6.6,9.66
1542217076439498901,520,0,/imu_data_acquisition2,25693.0,-0.340087890625,0.221435546875,0.608337402344,0.682067871094,-103.875,-8.875,-159.5625,5.03,7.12,9.82
1542217076453182935,521,0,/imu_data_acquisition2,25707.0,-0.345703125,0.210571289062,0.603271484375,0.687194824219,-89.9375,-40.3125,-136.0,4.83,7.03,10.27
1542217076461119890,522,0,/imu_data_acquisition2,25714.0,-0.347900390625,0.199096679688,0.600341796875,0.692077636719,-72.5625,-77.375,-111.5,4.62,6.65,10.65
1542217076469202041,523,0,/imu_data_acquisition2,25723.0,-0.346435546875,0.18701171875,0.599304199219,0.697021484375,-51.0625,-116.9375,-89.6875,3.97,5.55,11.29
1542217076479824066,524,0,/imu_data_acquisition2,25733.0,-0.341430664062,0.174499511719,0.600158691406,0.702026367188,-29.0625,-153.375,-68.8125,3.42,4.65,11.63
1542217076494548082,525,0,/imu_data_acquisition2,25747.0,-6.103515625e-05,-6.103515625e-05,-6.103515625e-05,0.706848144531,-10.3125,-185.625,-49.5625,2.96,3.69,-0.01
1542217076498522043,526,0,/imu_data_acquisition2,25752.0,-0.322631835938,0.14794921875,0.606506347656,0.711486816406,3.25,-213.6875,-33.6875,1.86,1.37,11.48
1542217076510752916,527,0,/imu_data_acquisition2,25764.0,-0.31005859375,0.133605957031,0.611328125,0.715698242188,11.125,-236.9375,-22.0625,1.33,-0.02,11.65
1542217076521578073,528,0,/imu_data_acquisition2,25774.0,-0.296142578125,0.118469238281,0.616760253906,0.719604492188,14.0,-255.6875,-16.0,0.66,-1.33,11.98
1542217076528403043,529,0,/imu_data_acquisition2,25782.0,-0.281188964844,0.102172851562,0.622253417969,0.723388671875,14.3125,-272.125,-16.6875,0.1,-2.9,12.52
1542217076540643930,530,0,/imu_data_acquisition2,25794.0,-0.265014648438,0.0849609375,0.627258300781,0.727355957031,18.4375,-288.125,-24.375,-1.05,-5.36,14.75
1542217076552468061,531,0,/imu_data_acquisition2,25805.0,-0.247497558594,0.0668334960938,0.63134765625,0.731872558594,26.125,-303.5,-37.5,-1.59,-6.01,15.81
1542217076558403015,532,0,/imu_data_acquisition2,25812.0,-0.228576660156,0.0477905273438,0.634338378906,0.736938476562,34.0,-319.375,-53.25,-2.23,-5.83,16.38
1542217076570919990,533,0,/imu_data_acquisition2,25825.0,-0.208251953125,0.02783203125,0.636108398438,0.742431640625,41.8125,-335.0,-67.6875,-1.02,-0.01,-0.01
1542217076581787109,534,0,/imu_data_acquisition2,25833.0,-0.186645507812,0.00750732421875,0.637023925781,0.747863769531,49.5625,-345.8125,-75.8125,-4.22,-1.12,12.44
1542217076590244054,535,0,/imu_data_acquisition2,25844.0,-0.164245605469,-0.0125732421875,0.637634277344,0.752563476562,57.1875,-347.75,-72.5625,-4.58,0.96,10.92
1542217076600820064,536,0,/imu_data_acquisition2,25853.0,-0.142211914062,-0.0314331054688,0.638549804688,0.755676269531,59.875,-336.3125,-55.0625,-5.65,2.06,17.22
1542217076612066030,537,0,/imu_data_acquisition2,25862.0,-0.120910644531,-0.049560546875,0.640625,0.756652832031,56.375,-6.0,-0.0625,-5.78,1.61,24.56
1542217076619285106,538,0,/imu_data_acquisition2,25873.0,-0.101196289062,-0.067626953125,0.644348144531,0.755004882812,39.4375,-318.3125,8.3125,-7.07,0.19,30.92
1542217076631234884,539,0,/imu_data_acquisition2,25883.0,-0.0833740234375,-0.0867919921875,0.64990234375,0.750427246094,12.0,-317.75,47.4375,-9.25,-1.61,33.99
1542217076638634920,540,0,/imu_data_acquisition2,25892.0,-0.06640625,-0.107482910156,0.656799316406,0.743408203125,-8.1875,-328.1875,77.5,-15.73,-7.79,33.97
1542217076649944067,541,0,/imu_data_acquisition2,25903.0,-0.048828125,-0.128601074219,0.664184570312,0.734802246094,-6.75,-339.6875,93.4375,-19.44,-9.53,33.06
1542217076660000085,542,0,/imu_data_acquisition2,25912.0,-0.0291748046875,-0.149780273438,0.671142578125,0.725463867188,9.6875,-356.9375,91.1875,-21.65,-7.48,27.94
1542217076668852090,543,0,/imu_data_acquisition2,25922.0,-0.008544921875,-0.170288085938,0.677368164062,0.715637207031,21.4375,-359.625,88.1875,-24.15,0.66,12.89
1542217076680474996,544,0,/imu_data_acquisition2,25933.0,0.0100708007812,-6.103515625e-05,-6.103515625e-05,0.704772949219,13.6875,-336.5625,99.5,-24.17,2.38,6.3
1542217076690387964,545,0,/imu_data_acquisition2,25943.0,0.0245971679688,-0.207763671875,0.689758300781,0.693176269531,-10.0625,-293.9375,115.875,-23.63,0.97,1.31
1542217076699955940,546,0,/imu_data_acquisition2,25953.0,0.034423828125,-0.224060058594,0.695373535156,0.681945800781,-34.875,-239.875,118.1875,-28.09,-19.42,2.13
1542217076709615945,547,0,/imu_data_acquisition2,25962.0,0.0430297851562,-0.2373046875,0.698059082031,0.674194335938,-29.375,-197.1875,68.1875,-29.69,-22.67,-1.06
1542217076720006942,548,0,/imu_data_acquisition2,25973.0,0.0569458007812,-0.242309570312,0.696899414062,0.672607421875,66.8125,-159.9375,-33.0,-30.61,-13.08,-0.86
1542217076731187105,549,0,/imu_data_acquisition2,25983.0,0.0755615234375,-0.237915039062,0.693542480469,0.67578125,172.6875,-111.9375,-108.875,-29.9,-1.08,-11.0
1542217076738687038,550,0,/imu_data_acquisition2,25992.0,0.09033203125,-0.230285644531,0.690002441406,0.680236816406,167.5,-50.625,-113.125,-25.79,14.74,-17.14
1542217076749819993,551,0,/imu_data_acquisition2,26003.0,0.0928344726562,-0.22412109375,0.688781738281,0.683166503906,63.9375,35.75,-47.6875,-24.46,9.27,-0.01
1542217076759844064,552,0,/imu_data_acquisition2,26013.0,0.0803833007812,-0.222351074219,0.689208984375,0.684936523438,-86.9375,121.0625,20.1875,-4.03,-2.26,0.73
1542217076768955945,553,0,/imu_data_acquisition2,26022.0,-6.103515625e-05,-6.103515625e-05,-6.103515625e-05,0.687927246094,-158.5,146.5,12.5,13.9,-7.27,19.94
1542217076780725955,554,0,/imu_data_acquisition2,26033.0,0.0432739257812,-0.22119140625,0.687622070312,0.690185546875,-142.5625,177.5,28.6875,21.98,-7.01,16.83
