%time,field.header.seq,field.header.stamp,field.header.frame_id,field.time_stamp,field.quat_x,field.quat_y,field.quat_z,field.quat_w,field.gyro_x,field.gyro_y,field.gyro_z,field.accel_x,field.accel_y,field.accel_z
1542217394510840892,96,0,/imu_data_acquisition2,16757.0,0.0670776367188,-0.236328125,0.716186523438,0.653259277344,73.6875,100.6875,6.4375,7.71,-12.5,17.03
1542217394518807888,97,0,/imu_data_acquisition2,16766.0,0.0469970703125,-0.229797363281,0.716979980469,0.656494140625,-100.5,230.5625,29.4375,7.71,-12.5,17.03
1542217394531842947,98,0,/imu_data_acquisition2,16775.0,0.022216796875,-0.224853515625,0.715026855469,0.661560058594,-15.1875,-0.0625,-0.0625,9.42,-14.5,30.44
1542217394538592100,99,0,/imu_data_acquisition2,16786.0,0.00146484375,-0.218627929688,0.715515136719,0.663513183594,-108.8125,229.9375,40.4375,10.32,-1.02,16.94
1542217394553499937,100,0,/imu_data_acquisition2,16798.0,-0.0126342773438,-0.21240234375,0.720153808594,0.660400390625,-45.4375,160.25,99.1875,-3.46,7.12,-12.2
1542217394560209989,101,0,/imu_data_acquisition2,16807.0,-0.0211791992188,-0.202087402344,0.726379394531,0.656555175781,36.1875,143.0,104.1875,-7.45,-16.48,24.56
1542217394570878028,102,0,/imu_data_acquisition2,16816.0,-0.0338745117188,-0.188171386719,0.731323242188,0.654663085938,32.3125,211.625,88.75,-7.45,-16.48,24.56
1542217394577445030,103,0,/imu_data_acquisition2,16825.0,-0.050537109375,-0.174438476562,0.734680175781,0.653625488281,-3.5,247.25,77.625,-7.28,-19.77,31.31
1542217394590698957,104,0,/imu_data_acquisition2,16838.0,-0.061279296875,-0.160583496094,0.737915039062,0.652648925781,43.6875,196.25,64.3125,-6.21,-4.67,7.63
1542217394600261926,105,0,/imu_data_acquisition2,16847.0,-0.0693969726562,-0.147155761719,0.740173339844,0.652404785156,58.1875,172.9375,44.625,1.13,-2.07,16.01
1542217394611466884,106,0,/imu_data_acquisition2,16858.0,-0.073974609375,-0.134643554688,0.741577148438,0.653015136719,77.5625,136.8125,23.5625,-0.51,-4.59,21.64
1542217394617732048,107,0,/imu_data_acquisition2,16865.0,-0.0761108398438,-0.121826171875,0.743591308594,0.653015136719,99.0,115.625,30.6875,-0.51,-4.59,21.64
1542217394628195047,108,0,/imu_data_acquisition2,16875.0,-6.103515625e-05,-6.103515625e-05,-6.103515625e-05,0.651733398438,81.625,114.0,46.625,3.19,5.8,22.14
1542217394641851902,109,0,/imu_data_acquisition2,16886.0,-0.0847778320312,-0.100952148438,0.749267578125,0.648986816406,39.5625,112.8125,63.375,0.14,-1.02,11.54
1542217394656912088,110,0,/imu_data_acquisition2,16897.0,-0.0899658203125,-0.0953979492188,0.750915527344,0.647277832031,9.875,85.1875,39.25,-0.06,-3.8,9.03
1542217394661210060,111,0,/imu_data_acquisition2,16908.0,-0.09423828125,-0.0885009765625,0.751892089844,0.646484375,28.625,88.9375,26.625,-0.35,-1.89,12.25
1542217394670867919,112,0,/imu_data_acquisition2,16915.0,-0.0975341796875,-0.0809936523438,0.752502441406,0.646301269531,42.1875,85.875,18.0,-0.35,-1.89,12.25
1542217394679766893,113,0,/imu_data_acquisition2,16926.0,-0.102111816406,-0.0731811523438,0.752624511719,0.646362304688,34.5,100.3125,14.4375,-2.3,-4.29,10.58
1542217394691380977,114,0,/imu_data_acquisition2,16938.0,-0.106506347656,-0.0657348632812,0.752075195312,0.647094726562,33.5,97.625,1.75,-2.0,-2.31,10.51
1542217394702209949,115,0,/imu_data_acquisition2,16948.0,-0.110473632812,-0.0580444335938,0.751220703125,0.648132324219,38.4375,96.0625,-2.75,-2.26,-3.23,10.91
1542217394711482048,116,0,/imu_data_acquisition2,16959.0,-0.114074707031,-0.0518188476562,0.750305175781,0.649108886719,19.75,72.125,-6.8125,-1.73,-3.04,11.29
1542217394720432043,117,0,/imu_data_acquisition2,16968.0,-0.117553710938,-0.046630859375,0.749267578125,0.650085449219,19.75,72.125,-6.8125,-0.99,-2.36,11.38
1542217394727469921,118,0,/imu_data_acquisition2,16975.0,-0.120422363281,-0.042724609375,0.748352050781,0.65087890625,13.125,-0.0625,-0.0625,-0.99,-2.36,11.38
1542217394740058898,119,0,/imu_data_acquisition2,16987.0,-0.12255859375,-0.0399169921875,0.74755859375,0.651550292969,9.0,42.375,-6.5625,-1.52,-2.37,10.41
1542217394750895977,120,0,/imu_data_acquisition2,16998.0,-0.124145507812,-0.0379638671875,0.7470703125,0.651977539062,5.6875,29.625,-4.3125,-1.57,-2.64,9.21
1542217394762577056,121,0,/imu_data_acquisition2,17008.0,-0.125122070312,-0.036865234375,0.746643066406,0.652282714844,2.375,18.125,-3.75,-0.71,-2.52,9.65
1542217394769789934,122,0,/imu_data_acquisition2,17017.0,-0.125854492188,-0.0361938476562,0.746398925781,0.652526855469,0.1875,12.0625,-2.9375,-0.71,-2.52,9.65
1542217394779391050,123,0,/imu_data_acquisition2,17027.0,-0.126403808594,-0.03564453125,0.74609375,0.652770996094,1.0625,9.5,-3.375,-1.02,-2.28,9.5
1542217394791920900,124,0,/imu_data_acquisition2,17036.0,-6.103515625e-05,-6.103515625e-05,-6.103515625e-05,0.653015136719,1.5625,11.25,-2.9375,-1.23,-2.4,10.14
1542217394802397012,125,0,/imu_data_acquisition2,17048.0,-0.127502441406,-0.0344848632812,0.745544433594,0.653259277344,0.75,8.3125,-3.25,-1.32,-2.5,9.19
1542217394811424970,126,0,/imu_data_acquisition2,17059.0,-6.103515625e-05,-6.103515625e-05,-6.103515625e-05,0.653442382812,-1.0,4.125,-1.75,-1.17,-2.34,9.57
1542217394820216894,127,0,/imu_data_acquisition2,17066.0,-0.128173828125,-0.0340576171875,0.745178222656,0.653503417969,-1.0,4.125,-1.75,-1.17,-2.34,9.57
1542217394830377101,128,0,/imu_data_acquisition2,17076.0,-0.12841796875,-0.033935546875,0.745056152344,0.653625488281,-1.0,3.0,-1.4375,-1.32,-2.52,9.17
1542217394840042114,129,0,/imu_data_acquisition2,17087.0,-0.128662109375,-0.0337524414062,0.744934082031,0.653747558594,-0.25,3.6875,-1.625,-1.44,-2.55,9.46
1542217394852206945,130,0,/imu_data_acquisition2,17098.0,-0.128784179688,-0.03369140625,0.744812011719,0.653869628906,-0.4375,2.0,-2.0,-1.3,-2.49,-0.01
1542217394860857009,131,0,/imu_data_acquisition2,17108.0,-0.128784179688,-0.03369140625,0.744689941406,0.653991699219,-0.375,0.1875,-1.875,-1.3,-2.49,9.48
1542217394868968009,132,0,/imu_data_acquisition2,17116.0,-6.103515625e-05,-6.103515625e-05,-6.103515625e-05,0.654113769531,0.0625,-1.375,-1.875,-1.31,-2.53,9.56
1542217394877510070,133,0,/imu_data_acquisition2,17125.0,-0.128723144531,-0.034423828125,0.744506835938,0.654235839844,-0.25,-2.625,-1.75,-1.32,-2.58,9.05
1542217394890878915,134,0,/imu_data_acquisition2,17138.0,-0.128601074219,-0.0347900390625,0.744445800781,0.654296875,-0.1875,-3.625,-1.375,-1.37,-2.36,9.53
1542217394900088071,135,0,/imu_data_acquisition2,17148.0,-0.128356933594,-0.0350952148438,0.744384765625,0.654357910156,-0.375,-4.125,-1.1875,-1.21,-2.15,9.26
1542217394910216093,136,0,/imu_data_acquisition2,17158.0,-0.128173828125,-0.0354614257812,0.744323730469,0.654479980469,0.0,-3.75,-1.9375,-1.31,-2.54,9.53
1542217394919604063,137,0,/imu_data_acquisition2,17166.0,-0.1279296875,-0.00469970703125,-6.103515625e-05,0.654602050781,0.0,-3.875,-2.0625,-1.13,-2.58,9.64
1542217394928605079,138,0,/imu_data_acquisition2,17175.0,-0.127624511719,-0.0364990234375,0.744140625,0.654724121094,-0.5625,-5.5,-1.875,-1.29,-2.45,9.38
1542217394937494039,139,0,/imu_data_acquisition2,17185.0,-0.12744140625,-0.0371704101562,0.744079589844,0.65478515625,-1.9375,-6.25,-1.5,-1.34,-2.59,9.16
1542217394951658964,140,0,/imu_data_acquisition2,17199.0,-0.127380371094,-0.0377807617188,0.744018554688,0.65478515625,-0.8125,-5.0625,-1.1875,-1.31,-2.27,9.17
1542217394963557958,141,0,/imu_data_acquisition2,17208.0,-0.127136230469,-0.0381469726562,0.744079589844,0.65478515625,-0.9375,-5.375,-0.375,-1.04,-2.42,9.13
1542217394970046043,142,0,/imu_data_acquisition2,17218.0,-0.126831054688,-0.03857421875,0.744140625,0.654724121094,-1.5625,-5.5625,0.0,-1.04,-2.42,9.13
1542217394980171918,143,0,/imu_data_acquisition2,17227.0,-0.126525878906,-0.0390014648438,0.744201660156,0.654724121094,-1.5,-6.0625,-0.1875,-1.49,-2.28,9.38
1542217394988622903,144,0,/imu_data_acquisition2,17235.0,-0.126342773438,-0.0393676757812,0.744262695312,0.654663085938,-1.75,-5.0,0.1875,-1.04,-2.32,9.5
1542217395001681089,145,0,/imu_data_acquisition2,17249.0,-0.126098632812,-0.039794921875,0.744262695312,0.654663085938,-2.0,-5.25,-0.25,-1.09,-2.44,-0.01
1542217395016709089,146,0,/imu_data_acquisition2,17259.0,-0.1259765625,-0.0401611328125,0.744323730469,0.654602050781,-2.5625,-4.0,0.1875,-1.09,-2.44,9.15
1542217395018347978,147,0,/imu_data_acquisition2,17265.0,-0.1259765625,-0.04052734375,0.744323730469,0.654541015625,-2.1875,-2.3125,-0.0625,-1.24,-2.27,9.19
1542217395029733896,148,0,/imu_data_acquisition2,17277.0,-0.126159667969,-0.040771484375,0.744323730469,0.654541015625,-2.1875,0.5625,-0.25,-1.21,-2.48,9.31
1542217395042687892,149,0,/imu_data_acquisition2,17290.0,-0.126220703125,-0.041015625,0.744201660156,0.654602050781,-1.8125,-0.375,-1.0,-1.0,-0.01,-0.01
1542217395054459095,150,0,/imu_data_acquisition2,17298.0,-0.126281738281,-0.0411987304688,0.744140625,0.654663085938,-1.0625,0.1875,-1.1875,-1.15,-2.35,9.23
1542217395062226057,151,0,/imu_data_acquisition2,17310.0,-0.126342773438,-0.0413818359375,0.744018554688,0.65478515625,-0.8125,0.625,-2.0,-1.06,-2.54,9.61
1542217395070714950,152,0,/imu_data_acquisition2,17318.0,-0.126525878906,-0.0414428710938,0.743835449219,0.654968261719,-0.25,3.0,-1.875,-1.06,-2.54,9.61
1542217395078399896,153,0,/imu_data_acquisition2,17326.0,-0.126647949219,-0.0413208007812,0.743713378906,0.655151367188,-0.25,4.0625,-2.1875,-0.86,-2.0,9.17
1542217395092413902,154,0,/imu_data_acquisition2,17340.0,-0.126953125,-0.0410766601562,0.743530273438,0.6552734375,-0.125,4.9375,-2.0625,-1.47,-2.3,9.77
1542217395103501081,155,0,/imu_data_acquisition2,17349.0,-0.127319335938,-0.040771484375,0.743347167969,0.655456542969,0.375,5.6875,-2.25,-1.12,-2.52,9.39
1542217395115156888,156,0,/imu_data_acquisition2,17361.0,-6.103515625e-05,-6.103515625e-05,-6.103515625e-05,0.655639648438,0.1875,2.625,-2.875,-1.37,-2.33,9.8
1542217395121264934,157,0,/imu_data_acquisition2,17366.0,-0.127563476562,-0.0406494140625,0.743041992188,0.65576171875,0.125,1.125,-2.0,-1.37,-2.33,9.8
1542217395132023096,158,0,/imu_data_acquisition2,17378.0,-0.127502441406,-0.0407104492188,0.742919921875,0.655883789062,0.5625,-0.8125,-2.375,-1.54,-2.56,9.39
1542217395144994974,159,0,/imu_data_acquisition2,17391.0,-0.127380371094,-0.0407104492188,0.742797851562,0.656066894531,0.875,-0.875,-2.3125,-1.31,-1.68,8.79
1542217395152705907,160,0,/imu_data_acquisition2,17400.0,-0.127258300781,-0.0408325195312,0.742736816406,0.656066894531,-0.375,-1.6875,-0.625,-0.71,-2.04,7.93
1542217395164370059,161,0,/imu_data_acquisition2,17409.0,-0.12744140625,-0.0408935546875,0.742736816406,0.656066894531,-2.1875,1.4375,0.0,-0.71,-2.04,7.93
1542217395169275999,162,0,/imu_data_acquisition2,17417.0,-0.128051757812,-0.0408935546875,0.742736816406,0.655944824219,-4.75,5.25,1.5,0.86,-2.4,9.49
1542217395182116031,163,0,/imu_data_acquisition2,17428.0,-0.128967285156,-0.0405883789062,0.742736816406,0.65576171875,-5.0,9.875,2.125,-0.41,-3.12,10.35
1542217395192107915,164,0,/imu_data_acquisition2,17438.0,-0.130310058594,-0.0399169921875,0.74267578125,0.655639648438,-4.5,17.25,2.0625,-0.07,-1.68,8.6
1542217395203560113,165,0,/imu_data_acquisition2,17450.0,-0.132080078125,-0.0391235351562,0.742614746094,0.655395507812,-7.0625,21.8125,3.875,-0.26,-2.1,8.75
1542217395212651014,166,0,/imu_data_acquisition2,17460.0,-0.134216308594,-0.0380249023438,0.742553710938,0.655090332031,-7.4375,-0.0625,-0.0625,-0.26,-2.1,8.75
1542217395217011928,167,0,/imu_data_acquisition2,17465.0,-0.136352539062,-0.0369262695312,0.742614746094,0.654663085938,-7.9375,27.375,6.4375,-0.65,-2.74,9.09
1542217395228271007,168,0,/imu_data_acquisition2,17476.0,-0.138366699219,-0.0358276367188,0.742492675781,0.654418945312,-5.875,26.5,3.8125,0.34,-1.85,10.15
1542217395239013910,169,0,/imu_data_acquisition2,17485.0,-0.140258789062,-0.0354614257812,0.742553710938,0.653991699219,-12.125,19.0,5.9375,-2.59,-3.78,10.62
1542217395251576900,170,0,/imu_data_acquisition2,17498.0,-0.142211914062,-0.0350341796875,0.742858886719,0.653198242188,-12.3125,19.375,10.75,-3.62,-5.39,9.74
1542217395262490987,171,0,/imu_data_acquisition2,17510.0,-0.144226074219,-0.0345458984375,0.743408203125,0.652221679688,-13.0,19.9375,14.125,-3.62,-3.72,9.8
1542217395268028020,172,0,/imu_data_acquisition2,17515.0,-0.146179199219,-0.0344848632812,0.743835449219,0.651245117188,-15.6875,16.5625,12.8125,-0.83,-3.39,8.89
1542217395277440071,173,0,/imu_data_acquisition2,17525.0,-0.148010253906,-0.0347290039062,0.744262695312,0.650329589844,-17.5625,13.0625,11.9375,-0.59,-4.43,9.98
1542217395289753913,174,0,/imu_data_acquisition2,17537.0,-0.151062011719,-0.03173828125,0.744506835938,0.649536132812,1.375,49.5,15.5625,0.84,-1.29,8.2
1542217395299119949,175,0,/imu_data_acquisition2,17546.0,-0.154602050781,-0.0279541015625,0.744689941406,0.648620605469,4.75,59.25,17.1875,7.04,-6.28,6.97
1542217395310898065,176,0,/imu_data_acquisition2,17559.0,-0.1572265625,-0.0263061523438,0.746887207031,0.6455078125,-11.0625,30.5625,48.0,-0.78,-7.59,7.8
1542217395319710016,177,0,/imu_data_acquisition2,17567.0,-0.158935546875,-0.0217895507812,0.751953125,0.639404296875,17.1875,38.375,101.75,2.13,-9.52,7.24
1542217395328629016,178,0,/imu_data_acquisition2,17576.0,-0.159606933594,-0.0123291015625,0.756713867188,0.633850097656,69.875,67.25,103.4375,4.52,-19.95,15.59
1542217395338316917,179,0,/imu_data_acquisition2,17586.0,-0.158447265625,0.0115966796875,0.759155273438,0.631225585938,218.4375,164.6875,86.6875,2.52,-15.2,15.61
1542217395350672960,180,0,/imu_data_acquisition2,17598.0,-0.156188964844,0.0567016601562,0.758422851562,0.630249023438,420.875,317.8125,88.625,1.13,-13.54,16.31
1542217395360022068,181,0,/imu_data_acquisition2,17607.0,-0.152465820312,0.116943359375,0.752075195312,0.630432128906,574.9375,428.75,65.25,-0.41,-4.03,15.76
1542217395368614912,182,0,/imu_data_acquisition2,17616.0,-0.00567626953125,-6.103515625e-05,-6.103515625e-05,0.631103515625,662.625,468.25,27.3125,7.79,-2.58,31.81
1542217395379674911,183,0,/imu_data_acquisition2,17626.0,-0.142761230469,0.240356445312,0.721252441406,0.6337890625,565.3125,417.125,-52.625,-10.63,-2.14,39.67
1542217395388279914,184,0,/imu_data_acquisition2,17636.0,-0.154602050781,0.260009765625,0.708923339844,0.637084960938,119.25,260.0,-121.1875,6.42,-20.61,19.66
1542217395400872945,185,0,/imu_data_acquisition2,17648.0,-0.168395996094,0.260925292969,0.700073242188,0.643005371094,-58.0625,120.6875,-156.875,2.18,-6.02,4.04
1542217395410062074,186,0,/imu_data_acquisition2,17657.0,-0.184814453125,0.265258789062,0.688720703125,0.648986816406,-42.5,173.125,-0.0625,1.35,-2.68,6.82
1542217395418374061,187,0,/imu_data_acquisition2,17665.0,-0.20263671875,0.268249511719,0.6767578125,0.654968261719,-61.5,175.75,-190.125,2.75,-0.58,6.78
1542217395428297042,188,0,/imu_data_acquisition2,17676.0,-0.221435546875,0.267822265625,0.6650390625,0.661010742188,-97.5625,155.9375,-199.875,5.0,0.88,8.93
1542217395439384937,189,0,/imu_data_acquisition2,17686.0,-0.240051269531,0.265441894531,0.654174804688,0.666320800781,-116.0,140.0625,-192.25,4.4,2.67,10.98
1542217395448838949,190,0,/imu_data_acquisition2,17696.0,-0.257141113281,0.262084960938,0.64404296875,0.671142578125,-115.4375,119.3125,-180.4375,5.18,-0.01,-0.01
1542217395459598064,191,0,/imu_data_acquisition2,17707.0,-0.272277832031,0.256469726562,0.635314941406,0.675598144531,-122.375,83.4375,-167.6875,6.07,5.17,10.44
1542217395468776941,192,0,/imu_data_acquisition2,17716.0,-0.285217285156,0.248779296875,0.628356933594,0.6796875,-126.5,46.0625,-149.9375,6.29,5.61,10.12
1542217395478526115,193,0,/imu_data_acquisition2,17726.0,-0.295349121094,0.23974609375,0.623107910156,0.683410644531,-121.0,9.5625,-130.25,6.28,5.53,9.93
1542217395488662004,194,0,/imu_data_acquisition2,17736.0,-6.103515625e-05,-6.103515625e-05,-6.103515625e-05,0.686889648438,-111.3125,-26.875,-110.0,6.09,5.13,9.92
1542217395500030040,195,0,/imu_data_acquisition2,17747.0,-0.306518554688,0.218566894531,0.617736816406,0.690368652344,-95.25,-63.5,-91.125,5.17,3.67,10.83
1542217395507807970,196,0,/imu_data_acquisition2,17755.0,-0.307006835938,0.206909179688,0.617309570312,0.694152832031,-74.1875,-99.6875,-74.75,4.64,2.93,11.66
1542217395518614053,197,0,/imu_data_acquisition2,17766.0,-0.304260253906,0.194458007812,0.618103027344,0.6982421875,-55.6875,-136.0,-61.75,4.14,2.34,12.26
1542217395528785943,198,0,/imu_data_acquisition2,17776.0,-0.298828125,0.180725097656,0.620178222656,0.702453613281,-45.6875,-170.0,-50.5,2.92,0.89,12.98
1542217395537467002,199,0,/imu_data_acquisition2,17785.0,-0.291564941406,0.16552734375,0.623291015625,0.706420898438,-43.375,-198.8125,-41.4375,2.18,0.1,12.97
1542217395550343990,200,0,/imu_data_acquisition2,17798.0,-0.282958984375,0.14892578125,0.627258300781,0.710144042969,-45.25,-223.75,-34.875,1.41,-0.78,12.7
1542217395557786941,201,0,/imu_data_acquisition2,17805.0,-0.273132324219,0.130981445312,0.631652832031,0.713623046875,-46.75,-244.75,-31.5,-0.04,-2.0,12.45
1542217395568095922,202,0,/imu_data_acquisition2,17816.0,-0.262145996094,0.111938476562,0.63623046875,0.716918945312,-45.75,-6.9375,-0.0625,-0.56,-2.35,-0.01
1542217395580333948,203,0,/imu_data_acquisition2,17827.0,-0.25,0.0919799804688,0.640747070312,0.720031738281,-44.0625,-279.0625,-31.25,-0.99,-2.74,12.6
1542217395593873977,204,0,/imu_data_acquisition2,17841.0,-0.236999511719,0.0711669921875,0.645080566406,0.722900390625,-43.125,-292.375,-32.0625,-1.3,-3.01,12.81
1542217395601742029,205,0,/imu_data_acquisition2,17847.0,-0.223266601562,0.0498046875,0.649169921875,0.725402832031,-42.0,-300.9375,-32.375,-1.84,-3.31,13.19
1542217395611057043,206,0,/imu_data_acquisition2,17859.0,-0.209045410156,0.0281982421875,0.652954101562,0.727416992188,-40.8125,-306.1875,-31.5625,-2.11,-3.26,13.61
1542217395620917081,207,0,/imu_data_acquisition2,17868.0,-0.194396972656,0.00653076171875,0.656494140625,0.728820800781,-39.1875,-5.5,-0.0625,-2.36,-3.11,14.31
1542217395627857923,208,0,/imu_data_acquisition2,17875.0,-0.180236816406,-0.014892578125,0.660522460938,0.728698730469,-12.75,-0.0625,-0.0625,-2.47,-2.51,17.82
1542217395638845920,209,0,/imu_data_acquisition2,17886.0,-0.165954589844,-0.0363159179688,0.664123535156,0.728088378906,-44.75,-304.25,-12.5625,-2.89,-2.77,20.76
1542217395648628950,210,0,/imu_data_acquisition2,17895.0,-0.153137207031,-0.0573120117188,0.667907714844,0.726013183594,-57.125,-289.875,2.375,-3.66,-2.74,24.2
1542217395657614946,211,0,/imu_data_acquisition2,17905.0,-0.143676757812,-0.0782470703125,0.672912597656,0.721435546875,-89.6875,-267.3125,34.625,-6.44,-1.86,29.73
1542217395669560909,212,0,/imu_data_acquisition2,17916.0,-0.13525390625,-0.099853515625,0.678100585938,0.715454101562,-105.0625,-266.1875,47.5,-7.42,-1.61,29.53
1542217395678770065,213,0,/imu_data_acquisition2,17925.0,-0.127014160156,-0.121215820312,0.683410644531,0.708618164062,-106.5625,-263.875,55.4375,-9.78,-0.79,28.85
1542217395692190885,214,0,/imu_data_acquisition2,17936.0,-0.117797851562,-0.141784667969,0.6884765625,0.701477050781,-92.75,-264.25,56.375,-14.84,0.87,27.38
1542217395700695991,215,0,/imu_data_acquisition2,17947.0,-0.105712890625,-0.161499023438,0.693237304688,0.694396972656,-62.0625,-281.125,49.5625,-18.21,-0.79,24.03
1542217395708785057,216,0,/imu_data_acquisition2,17955.0,-0.0880737304688,-0.179016113281,0.698181152344,0.687561035156,1.875,-308.375,41.375,-17.69,-1.4,17.75
1542217395720149993,217,0,/imu_data_acquisition2,17966.0,-0.06689453125,-0.193115234375,0.703796386719,0.680358886719,60.375,-311.0625,45.25,-18.42,2.8,12.45
1542217395730581998,218,0,/imu_data_acquisition2,17976.0,-0.0471801757812,-0.205505371094,0.710083007812,0.671813964844,63.625,-288.4375,67.0,-18.81,5.88,5.04
1542217395737195014,219,0,/imu_data_acquisition2,17985.0,-0.0327758789062,-0.218017578125,0.715393066406,0.663024902344,16.6875,-245.0625,74.25,-25.63,0.88,7.73
1542217395749460935,220,0,/imu_data_acquisition2,17997.0,-0.0202026367188,-0.2294921875,0.718078613281,0.65673828125,6.0,-213.8125,37.125,-31.03,-5.86,4.68
1542217395760586023,221,0,/imu_data_acquisition2,18007.0,-0.00433349609375,-0.236328125,0.71826171875,0.654418945312,65.4375,-194.9375,-23.6875,-34.38,-3.08,-10.53
1542217395767858982,222,0,/imu_data_acquisition2,18015.0,0.011962890625,-0.236938476562,0.716430664062,0.656066894531,116.0,-138.125,-73.5,-30.83,3.45,-17.6
1542217395778565883,223,0,/imu_data_acquisition2,18026.0,0.0219116210938,-0.232238769531,0.714050292969,0.660095214844,110.125,-37.1875,-81.375,-25.84,7.99,-19.16
1542217395790465116,224,0,/imu_data_acquisition2,18035.0,0.0211791992188,-0.224853515625,0.712524414062,0.664306640625,51.375,75.6875,-47.625,-16.86,15.65,-7.59
1542217395797632932,225,0,/imu_data_acquisition2,18045.0,0.00628662109375,-0.21875,0.712158203125,0.667053222656,-67.25,180.3125,12.125,-8.82,9.9,3.39
1542217395808717012,226,0,/imu_data_acquisition2,18055.0,-0.0167846679688,-0.216735839844,0.709411621094,0.670471191406,-172.6875,219.5625,9.25,4.81,-12.51,13.44
1542217395818700075,227,0,/imu_data_acquisition2,18065.0,-0.0380859375,-0.211303710938,0.706604003906,0.674255371094,-129.875,232.3125,1.6875,3.51,-15.04,19.36
1542217395828037977,228,0,/imu_data_acquisition2,18075.0,-0.052978515625,-0.205078125,0.706237792969,0.675537109375,-67.0,177.625,26.625,14.38,-7.29,19.14
1542217395838953971,229,0,/imu_data_acquisition2,18086.0,-0.0602416992188,-0.195983886719,0.710693359375,0.672973632812,26.9375,124.0625,80.375,5.58,-4.47,5.01
1542217395850526094,230,0,/imu_data_acquisition2,18096.0,-0.0609130859375,-0.182189941406,0.717346191406,0.669738769531,123.8125,103.125,91.5,1.88,2.79,-5.72
1542217395857671976,231,0,/imu_data_acquisition2,18105.0,-0.0663452148438,-0.168212890625,0.721984863281,0.667907714844,84.25,149.625,74.0,-9.04,-6.02,5.89
1542217395868963003,232,0,/imu_data_acquisition2,18116.0,-0.0740966796875,-0.154174804688,0.724609375,0.667541503906,63.75,174.375,50.25,-6.29,-16.9,24.45
1542217395878305912,233,0,/imu_data_acquisition2,18125.0,-0.0775146484375,-0.140441894531,0.726501464844,0.668151855469,94.75,138.125,27.8125,-3.75,-13.99,22.92
1542217395887854099,234,0,/imu_data_acquisition2,18135.0,-0.0789794921875,-0.126770019531,0.727844238281,0.669311523438,109.25,121.4375,15.8125,-0.61,-0.35,8.74
1542217395898986101,235,0,/imu_data_acquisition2,18146.0,-0.0802001953125,-0.113159179688,0.729370117188,0.669921875,110.4375,117.375,21.5625,2.94,2.75,17.53
1542217395909056901,236,0,/imu_data_acquisition2,18156.0,-0.0838012695312,-0.1005859375,0.732727050781,0.667846679688,82.25,124.5625,61.125,8.51,5.66,23.23
1542217395917956113,237,0,/imu_data_acquisition2,18166.0,-0.0914916992188,-0.0901489257812,0.736450195312,0.664184570312,31.0,141.25,80.4375,-4.13,0.48,12.91
1542217395929090976,238,0,/imu_data_acquisition2,18176.0,-0.099609375,-0.0833129882812,0.738403320312,0.661743164062,-5.1875,120.0,52.9375,-0.35,-15.44,15.33
1542217395937957048,239,0,/imu_data_acquisition2,18185.0,-0.105224609375,-0.0734252929688,0.739318847656,0.661010742188,42.1875,124.6875,30.9375,-2.2,-0.01,-0.01
1542217395948118925,240,0,/imu_data_acquisition2,18196.0,-0.109619140625,-0.0635375976562,0.73974609375,0.660888671875,53.125,115.375,20.3125,3.0,0.59,6.31
1542217395959444046,241,0,/imu_data_acquisition2,18206.0,-0.115234375,-0.0515747070312,0.739440917969,0.661254882812,60.375,143.3125,14.375,-3.34,-4.91,14.32
1542217395972060918,242,0,/imu_data_acquisition2,18218.0,-0.119750976562,-0.0404663085938,0.738098144531,0.662780761719,63.5,129.375,-5.9375,-3.99,-4.26,11.36
1542217395978673934,243,0,/imu_data_acquisition2,18226.0,-0.123779296875,-0.0317993164062,0.736511230469,0.664245605469,45.125,105.9375,-11.5625,-1.8,-2.04,11.24
1542217395989624977,244,0,/imu_data_acquisition2,18236.0,-0.127014160156,-0.025634765625,0.734985351562,0.665588378906,30.0,79.375,-13.125,-2.34,-3.96,10.51
1542217395998332023,245,0,/imu_data_acquisition2,18246.0,-0.12939453125,-0.0214233398438,0.73388671875,0.666442871094,18.9375,55.75,-8.875,-1.85,-2.94,10.29
1542217396008791923,246,0,/imu_data_acquisition2,18256.0,-0.131225585938,-0.018310546875,0.733154296875,0.6669921875,12.8125,41.625,-5.1875,-1.81,-2.83,10.41
1542217396017631053,247,0,/imu_data_acquisition2,18265.0,-0.132629394531,-0.0160522460938,0.732604980469,0.667419433594,9.25,31.0,-4.6875,-1.3,-3.07,10.22
1542217396032624959,248,0,/imu_data_acquisition2,18280.0,-0.133483886719,-0.0145874023438,0.732177734375,0.667724609375,6.3125,19.8125,-3.375,-0.35,-2.49,9.07
1542217396038732051,249,0,/imu_data_acquisition2,18286.0,-0.134216308594,-0.0133056640625,0.73193359375,0.667907714844,5.25,17.0,-1.25,-1.47,-2.49,10.27
1542217396048029899,250,0,/imu_data_acquisition2,18295.0,-0.134704589844,-0.0125122070312,0.731689453125,0.668029785156,3.1875,10.625,-1.5,-1.19,-1.74,9.62
1542217396066606998,251,0,/imu_data_acquisition2,18313.0,-0.135192871094,-0.0118408203125,0.7314453125,0.668273925781,2.625,9.875,-2.5625,-1.02,-2.4,9.81
1542217396070445060,252,0,/imu_data_acquisition2,18318.0,-0.135620117188,-0.0111694335938,0.731201171875,0.66845703125,2.4375,9.4375,-2.875,-1.01,-2.41,10.3
1542217396077352046,253,0,/imu_data_acquisition2,18325.0,-0.135803222656,-0.0106811523438,0.73095703125,0.668640136719,3.25,5.875,-2.625,-1.33,-2.3,9.62
1542217396092853069,254,0,/imu_data_acquisition2,18339.0,-0.135986328125,-0.0103759765625,0.730773925781,0.668823242188,1.8125,4.25,-2.25,-0.76,-0.01,-0.01
1542217396099792003,255,0,/imu_data_acquisition2,18346.0,-0.136108398438,-0.0101318359375,0.730651855469,0.6689453125,1.125,3.375,-1.8125,-1.39,-2.45,9.18
1542217396108757972,256,0,/imu_data_acquisition2,18356.0,-0.136291503906,-0.00994873046875,0.730590820312,0.669006347656,0.4375,3.25,-1.0625,-1.42,-2.33,9.72
1542217396119827985,257,0,/imu_data_acquisition2,18366.0,-0.136352539062,-0.009765625,0.73046875,0.669128417969,1.0625,1.6875,-1.5,-1.07,-2.35,9.53
1542217396129739046,258,0,/imu_data_acquisition2,18376.0,-0.13623046875,-0.00970458984375,0.730346679688,0.669250488281,1.6875,-0.0625,-1.9375,-1.41,-2.64,9.53
1542217396138674974,259,0,/imu_data_acquisition2,18385.0,-0.136047363281,-0.00970458984375,0.730285644531,0.66943359375,2.0,-1.75,-1.9375,-1.32,-2.62,9.39
1542217396148509025,260,0,/imu_data_acquisition2,18396.0,-0.1357421875,-0.009765625,0.730224609375,0.669494628906,1.8125,-3.1875,-0.8125,-1.61,-2.61,9.38
1542217396159265995,261,0,/imu_data_acquisition2,18405.0,-0.135314941406,-0.00994873046875,0.730285644531,0.669555664062,1.5625,-4.8125,-0.75,-1.34,-2.55,9.11
1542217396167633056,262,0,/imu_data_acquisition2,18415.0,-0.134948730469,-0.01025390625,0.730346679688,0.669555664062,0.75,-5.375,0.5,-1.42,-2.54,9.61
1542217396178790092,263,0,/imu_data_acquisition2,18425.0,-0.134582519531,-0.0105590820312,0.730407714844,0.669555664062,0.25,-6.0625,0.4375,-1.07,-2.25,9.2
1542217396187638998,264,0,/imu_data_acquisition2,18435.0,-0.13427734375,-0.0109252929688,0.730529785156,0.669494628906,-0.625,-5.9375,0.9375,-0.78,-1.89,9.53
1542217396197550058,265,0,/imu_data_acquisition2,18445.0,-0.133911132812,-0.0112915039062,0.730590820312,0.669494628906,-0.375,-5.8125,-0.125,-0.81,-2.15,9.08
1542217396207974910,266,0,/imu_data_acquisition2,18455.0,-0.133666992188,-0.011474609375,0.730590820312,0.669494628906,-0.5625,-3.0625,-0.1875,-0.8,-2.35,9.26
1542217396222223997,267,0,/imu_data_acquisition2,18466.0,-0.133666992188,-0.0115966796875,0.730651855469,0.66943359375,-0.9375,-1.3125,0.375,-1.4,-2.08,9.7
1542217396228032112,268,0,/imu_data_acquisition2,18475.0,-0.133666992188,-0.0117797851562,0.730651855469,0.66943359375,-1.6875,-1.75,-0.5,-1.01,-2.33,9.29
1542217396238229036,269,0,/imu_data_acquisition2,18486.0,-0.133666992188,-0.0117797851562,0.730651855469,0.66943359375,-1.375,-1.3125,-0.875,-1.26,-2.32,-0.01
1542217396249474048,270,0,/imu_data_acquisition2,18496.0,-0.133361816406,-0.012939453125,0.730529785156,0.669616699219,-1.0,-1.6875,-1.125,-1.44,-2.48,9.25
1542217396257451057,271,0,/imu_data_acquisition2,18505.0,-0.13330078125,-0.0131225585938,0.73046875,0.669677734375,-1.125,-2.0625,-1.125,-1.21,-2.51,9.39
1542217396268759012,272,0,/imu_data_acquisition2,18516.0,-0.133239746094,-0.0133666992188,0.73046875,0.669738769531,-1.3125,-2.625,-0.8125,-1.42,-2.48,9.23
1542217396279191017,273,0,/imu_data_acquisition2,18525.0,-0.133239746094,-0.0133666992188,0.73046875,0.669738769531,-2.6875,-2.625,-0.25,-1.48,-2.5,9.66
1542217396288777112,274,0,/imu_data_acquisition2,18536.0,-0.13330078125,-0.0147705078125,0.730407714844,0.669677734375,-3.625,-3.0625,0.125,-1.27,-2.29,8.93
1542217396303308010,275,0,/imu_data_acquisition2,18548.0,-0.133544921875,-0.015380859375,0.73046875,0.669616699219,-4.8125,-0.375,0.875,-1.42,-2.06,9.58
1542217396311259031,276,0,/imu_data_acquisition2,18557.0,-0.1337890625,-0.0162963867188,0.730407714844,0.669616699219,-5.375,-0.75,-0.1875,-1.19,-0.01,-0.01
1542217396319323062,277,0,/imu_data_acquisition2,18567.0,-0.134033203125,-0.0170288085938,0.730346679688,0.669555664062,-5.75,0.875,-0.4375,-1.26,-2.19,9.33
1542217396332854032,278,0,/imu_data_acquisition2,18578.0,-0.134460449219,-0.0172119140625,0.730346679688,0.669555664062,-5.0,1.625,-0.0625,-1.71,-2.33,-0.01
1542217396341310024,279,0,/imu_data_acquisition2,18587.0,-0.134704589844,-0.0176391601562,0.730346679688,0.66943359375,-5.4375,-0.9375,-0.1875,-1.47,-2.66,9.61
1542217396349940061,280,0,/imu_data_acquisition2,18597.0,-0.134826660156,-0.01806640625,0.730346679688,0.669372558594,-5.375,-2.5,0.3125,-1.31,-2.31,9.4
1542217396361457109,281,0,/imu_data_acquisition2,18607.0,-0.134887695312,-0.0186157226562,0.730407714844,0.669311523438,-4.875,-3.9375,0.1875,-1.36,-2.69,9.31
1542217396373125076,282,0,/imu_data_acquisition2,18618.0,-0.134826660156,-0.0191040039062,0.730407714844,0.669311523438,-3.75,-4.375,-0.375,-0.79,-2.32,9.49
1542217396381716966,283,0,/imu_data_acquisition2,18628.0,-0.134704589844,-0.0194702148438,0.730407714844,0.669372558594,-1.9375,-3.6875,-1.4375,-0.81,-2.44,9.09
1542217396391524076,284,0,/imu_data_acquisition2,18637.0,-0.134704589844,-0.0194702148438,0.730407714844,0.669372558594,-2.125,-1.125,-1.0625,-0.89,-2.44,9.6
1542217396403243064,285,0,/imu_data_acquisition2,18648.0,-0.134765625,-0.0196533203125,0.730346679688,0.669372558594,-1.125,-1.9375,-2.5,-1.21,-2.3,8.9
1542217396413175106,286,0,/imu_data_acquisition2,18661.0,-0.134765625,-0.0199584960938,0.730102539062,0.669616699219,-1.25,-0.1875,-2.1875,-1.24,-2.28,9.72
1542217396421339035,287,0,/imu_data_acquisition2,18667.0,-0.134765625,-0.02001953125,0.729919433594,0.669799804688,-0.125,-0.3125,-2.9375,-1.34,-2.62,9.56
1542217396431274890,288,0,/imu_data_acquisition2,18677.0,-0.134765625,-0.02001953125,0.729919433594,0.669799804688,0.125,1.3125,-2.5625,-0.9,-2.38,9.69
1542217396440442085,289,0,/imu_data_acquisition2,18688.0,-0.134582519531,-0.020751953125,0.729675292969,0.670104980469,0.25,1.625,-2.3125,-1.38,-2.53,9.16
1542217396451723098,290,0,/imu_data_acquisition2,18697.0,-0.134826660156,-0.0211791992188,0.729431152344,0.670288085938,-0.75,2.6875,-0.5625,-1.14,-2.63,8.8
1542217396461616992,291,0,/imu_data_acquisition2,18708.0,-0.134826660156,-0.0211791992188,0.729431152344,0.670288085938,-1.8125,4.875,-0.375,-0.3,-1.95,-0.01
1542217396471712112,292,0,/imu_data_acquisition2,18719.0,-0.13525390625,-0.0210571289062,0.729370117188,0.670288085938,-3.375,7.5,0.125,-0.93,-3.43,10.69
1542217396478080034,293,0,/imu_data_acquisition2,18726.0,-0.135925292969,-0.0208129882812,0.729309082031,0.670227050781,-3.9375,9.3125,1.0625,-0.05,-2.42,9.77
1542217396491184949,294,0,/imu_data_acquisition2,18738.0,-0.13671875,-0.0205078125,0.729248046875,0.670166015625,-4.25,12.3125,0.0625,0.49,-1.26,8.08
1542217396503053903,295,0,/imu_data_acquisition2,18749.0,-0.1376953125,-0.0200805664062,0.729064941406,0.670104980469,-6.1875,17.875,3.5625,-1.67,-2.37,9.3
1542217396508699893,296,0,/imu_data_acquisition2,18756.0,-0.13916015625,-0.0194091796875,0.729064941406,0.669860839844,-8.625,19.75,5.3125,-0.99,-2.29,8.62
1542217396522806882,297,0,/imu_data_acquisition2,18768.0,-0.140869140625,-0.018798828125,0.729125976562,0.66943359375,-10.25,21.5,6.625,0.03,-2.76,9.21
1542217396533158063,298,0,/imu_data_acquisition2,18779.0,-0.144836425781,-0.0173950195312,0.729370117188,0.668395996094,-10.9375,22.5,7.875,-0.14,-2.18,10.38
1542217396538434028,299,0,/imu_data_acquisition2,18786.0,-0.144836425781,-0.0173950195312,0.729370117188,0.668395996094,-19.0,13.1875,12.0625,-0.1,-2.04,9.88
1542217396553725957,300,0,/imu_data_acquisition2,18798.0,-6.103515625e-05,-6.103515625e-05,-6.103515625e-05,0.667419433594,-17.9375,17.0625,13.25,-3.01,-5.42,10.89
1542217396561606884,301,0,/imu_data_acquisition2,18808.0,-0.151306152344,-0.0173950195312,0.731323242188,0.664794921875,-20.125,21.5625,22.1875,-2.89,-2.51,9.47
1542217396570822954,302,0,/imu_data_acquisition2,18818.0,-0.151306152344,-0.0173950195312,0.731323242188,0.664794921875,-21.375,17.25,16.8125,-1.53,-4.97,9.09
1542217396580806016,303,0,/imu_data_acquisition2,18827.0,-0.156066894531,-0.016845703125,0.732238769531,0.662719726562,-14.5625,25.8125,10.4375,-0.83,-3.96,8.71
1542217396590502023,304,0,/imu_data_acquisition2,18837.0,-0.00433349609375,-6.103515625e-05,-6.103515625e-05,0.662414550781,17.25,88.8125,10.0625,2.83,-2.46,8.01
1542217396599756956,305,0,/imu_data_acquisition2,18847.0,-0.164001464844,-0.00799560546875,0.732482910156,0.660705566406,-6.1875,48.875,27.0,2.65,-6.42,8.25
1542217396621038913,306,0,/imu_data_acquisition2,18857.0,-0.164001464844,-0.00799560546875,0.732482910156,0.660705566406,10.5,68.75,79.375,4.53,-7.36,7.21
1542217396622473955,307,0,/imu_data_acquisition2,18867.0,-0.167724609375,-0.00238037109375,0.735961914062,0.655944824219,66.75,85.5625,105.4375,0.37,-15.37,11.58
1542217396628563880,308,0,/imu_data_acquisition2,18876.0,-0.169311523438,0.00799560546875,0.740539550781,0.650329589844,203.625,149.1875,91.125,4.7,-18.64,14.95
1542217396639276027,309,0,/imu_data_acquisition2,18886.0,-0.167358398438,0.0302124023438,0.743041992188,0.647277832031,203.625,149.1875,91.125,2.9,-14.4,14.74
1542217396650644063,310,0,/imu_data_acquisition2,18897.0,-0.163024902344,0.0717163085938,0.741943359375,0.646362304688,556.75,393.5625,68.125,3.53,-7.57,13.42
1542217396660216093,311,0,/imu_data_acquisition2,18906.0,-0.156616210938,0.128784179688,0.735656738281,0.646301269531,648.375,436.8125,41.8125,2.64,-4.81,18.17
1542217396669702053,312,0,/imu_data_acquisition2,18917.0,-0.147583007812,0.193054199219,0.723510742188,0.646118164062,578.9375,413.875,-23.625,9.2,-2.68,33.81
1542217396680198907,313,0,/imu_data_acquisition2,18926.0,-0.141418457031,0.250305175781,0.706359863281,0.646850585938,578.9375,413.875,-23.625,6.37,-19.07,18.15
1542217396689215898,314,0,/imu_data_acquisition2,18937.0,-0.152099609375,0.275085449219,0.694396972656,0.647338867188,-55.6875,125.25,-132.6875,10.75,-10.93,-0.59
1542217396700221061,315,0,/imu_data_acquisition2,18947.0,-0.165588378906,0.276916503906,0.686706542969,0.6513671875,-41.75,164.0,-157.875,3.38,-5.52,3.41
1542217396724369049,317,0,/imu_data_acquisition2,18967.0,-0.215942382812,0.2861328125,0.655517578125,0.664611816406,-87.375,158.25,-172.6875,5.46,0.23,8.33
1542217396733289957,318,0,/imu_data_acquisition2,18980.0,-0.234069824219,0.28515625,0.646057128906,0.668212890625,-108.9375,145.4375,-166.25,5.37,1.14,10.0
1542217396744023084,319,0,/imu_data_acquisition2,18991.0,-0.251281738281,0.28271484375,0.637634277344,0.671081542969,-118.25,125.6875,-153.375,5.7,2.7,10.94
1542217396749763965,320,0,/imu_data_acquisition2,18997.0,-0.251281738281,0.28271484375,0.637634277344,0.671081542969,-131.5,96.8125,-138.5,6.09,4.33,10.12
1542217396772984981,322,0,/imu_data_acquisition2,19018.0,-0.281372070312,0.271423339844,0.625671386719,0.675048828125,-141.25,27.75,-103.0,6.41,4.79,9.33
1542217396778225898,323,0,/imu_data_acquisition2,19026.0,-0.293212890625,0.263061523438,-6.103515625e-05,0.676452636719,-141.25,27.75,-103.0,6.41,4.79,9.33
1542217396792212009,324,0,/imu_data_acquisition2,19040.0,-0.302429199219,0.253540039062,0.620483398438,0.677673339844,-117.5,-40.5625,-70.6875,5.67,2.77,-0.01
1542217396801474094,325,0,/imu_data_acquisition2,19047.0,-0.308532714844,0.243225097656,0.619995117188,0.67919921875,-97.0,-78.25,-59.9375,5.3,2.19,12.51
1542217396809266090,326,0,/imu_data_acquisition2,19057.0,-0.311218261719,0.232055664062,0.620544433594,0.681335449219,-78.625,-115.75,-51.4375,4.39,1.9,13.79
1542217396820207118,327,0,/imu_data_acquisition2,19068.0,-0.310668945312,0.219909667969,0.6220703125,0.684204101562,-69.4375,-150.9375,-43.125,3.94,1.81,13.79
1542217396829291105,328,0,/imu_data_acquisition2,19076.0,-0.307495117188,0.206420898438,0.624816894531,0.687377929688,-69.4375,-150.9375,-43.125,3.24,1.48,13.57
1542217396838063955,329,0,/imu_data_acquisition2,19086.0,-0.302429199219,0.191284179688,0.628601074219,0.690490722656,-68.4375,-181.875,-34.5625,3.24,1.48,13.57
1542217396852803945,330,0,/imu_data_acquisition2,19098.0,-0.2958984375,0.174682617188,0.633361816406,0.693359375,-70.75,-228.9375,-22.125,1.09,0.03,12.59
1542217396861588001,331,0,/imu_data_acquisition2,19107.0,-0.2880859375,0.156921386719,0.638671875,0.696044921875,-68.375,-247.125,-19.3125,0.44,-0.46,12.8
1542217396869589090,332,0,/imu_data_acquisition2,19117.0,-0.278991699219,0.13818359375,0.644287109375,0.698547363281,-64.1875,-263.125,-18.4375,-0.17,-0.84,13.39
1542217396879309892,333,0,/imu_data_acquisition2,19126.0,-0.2685546875,0.118713378906,0.650024414062,0.700927734375,-64.1875,-263.125,-18.4375,-1.04,-1.98,15.09
1542217396893172025,334,0,/imu_data_acquisition2,19139.0,-0.257202148438,0.0983276367188,0.655639648438,0.703063964844,-63.375,-277.5625,-18.5625,-1.46,-2.21,15.77
1542217396899723052,335,0,/imu_data_acquisition2,19147.0,-0.244995117188,0.0772094726562,0.661071777344,0.705017089844,-62.3125,-300.5625,-21.5625,-1.76,-2.05,15.87
1542217396911461114,336,0,/imu_data_acquisition2,19158.0,-0.231994628906,0.0553588867188,0.666198730469,0.706604003906,-61.5625,-308.875,-21.1875,-2.38,-1.54,16.77
1542217396921849012,337,0,/imu_data_acquisition2,19168.0,-0.218322753906,0.0330200195312,0.671020507812,0.707824707031,-62.1875,-314.375,-17.25,-2.57,-1.07,17.3
1542217396929058074,338,0,/imu_data_acquisition2,19177.0,-0.204162597656,0.0103759765625,0.675720214844,0.708251953125,-62.1875,-314.375,-17.25,-2.82,-0.28,18.05
1542217396939899921,339,0,/imu_data_acquisition2,19187.0,-0.18994140625,-0.01220703125,0.680297851562,0.707763671875,-63.4375,-314.375,-10.25,-3.08,0.59,18.74
1542217396950239896,340,0,/imu_data_acquisition2,19197.0,-0.176391601562,-0.0345458984375,0.68505859375,0.705932617188,-69.8125,-307.25,2.25,-4.29,0.64,20.49
1542217396959506034,341,0,/imu_data_acquisition2,19207.0,-0.164672851562,-0.0565185546875,0.690124511719,0.702392578125,-102.75,-269.0625,38.3125,-5.13,-0.73,21.65
1542217396971085071,342,0,/imu_data_acquisition2,19218.0,-0.155212402344,-0.0779418945312,0.695495605469,0.697265625,-105.9375,-246.25,50.375,-7.17,-1.42,22.39
1542217396979159116,343,0,/imu_data_acquisition2,19226.0,-0.147277832031,-0.0979614257812,0.700805664062,0.691101074219,-105.9375,-246.25,50.375,-7.17,-1.42,22.39
1542217396990286111,344,0,/imu_data_acquisition2,19237.0,-0.139465332031,-0.11572265625,0.705810546875,0.684875488281,-50.8125,-215.5,45.25,-12.83,-2.85,27.19
1542217397000833988,345,0,/imu_data_acquisition2,19248.0,-0.129943847656,-0.130676269531,0.710327148438,0.679321289062,-3.4375,-224.9375,29.125,-16.55,-3.42,27.05
1542217397013204097,346,0,/imu_data_acquisition2,19259.0,-0.116943359375,-0.143432617188,0.714294433594,0.674926757812,65.5,-270.5625,12.1875,-19.19,-2.42,19.5
1542217397020782947,347,0,/imu_data_acquisition2,19268.0,-0.0970458984375,-0.154724121094,0.71826171875,0.67138671875,155.75,-324.0625,2.0625,-19.27,3.51,16.0
1542217397030148029,348,0,/imu_data_acquisition2,19277.0,-0.0685424804688,-0.16357421875,0.722717285156,0.66796875,155.75,-4.0625,-0.0625,-18.53,5.16,11.47
1542217397037811040,349,0,/imu_data_acquisition2,19285.0,-0.0392456054688,-0.172119140625,0.727844238281,0.66259765625,163.8125,-332.875,22.875,-18.53,5.16,11.47
1542217397049887895,350,0,/imu_data_acquisition2,19297.0,-0.0171508789062,-0.183166503906,0.732849121094,0.655029296875,85.1875,-6.875,-0.0625,-33.25,-4.73,1.64
1542217397062170028,351,0,/imu_data_acquisition2,19308.0,-0.0057373046875,-0.197875976562,0.735534667969,0.647888183594,-82.1875,-202.6875,17.0,-36.03,-7.98,-8.92
1542217397072148084,352,0,/imu_data_acquisition2,19318.0,0.0020751953125,-0.213989257812,0.735107421875,0.643310546875,-82.1875,-202.6875,17.0,-34.45,-4.86,-19.01
1542217397079279899,353,0,/imu_data_acquisition2,19327.0,0.0128784179688,-0.22412109375,0.73193359375,0.643371582031,-14.25,-170.75,-51.375,-34.45,-4.86,-19.01
1542217397093821048,354,0,/imu_data_acquisition2,19341.0,0.0244140625,-0.224853515625,0.726867675781,0.648498535156,95.625,5.1875,-138.0,-20.35,6.51,-11.24
1542217397101793050,355,0,/imu_data_acquisition2,19348.0,0.0319213867188,-0.218383789062,0.721069335938,0.656799316406,63.8125,92.375,-132.75,-13.25,10.76,-3.62
1542217397110112905,356,0,/imu_data_acquisition2,19358.0,0.0322875976562,-0.208984375,0.715026855469,0.666320800781,-33.625,175.125,-72.25,4.9,4.79,12.65
1542217397121037006,357,0,/imu_data_acquisition2,19368.0,0.0211181640625,-0.200927734375,0.710754394531,0.673767089844,-33.625,175.125,-72.25,4.12,-11.78,20.36
1542217397128117084,358,0,/imu_data_acquisition2,19375.0,-0.0042724609375,-0.197814941406,0.706726074219,0.679260253906,-187.5,250.4375,-18.9375,4.12,-11.78,20.36
1542217397136867046,359,0,/imu_data_acquisition2,19385.0,-0.0322875976562,-0.194946289062,0.702331542969,0.683837890625,-211.0,268.9375,-7.625,3.74,-12.86,32.33
1542217397147665977,360,0,/imu_data_acquisition2,19395.0,-0.0508422851562,-0.189758300781,0.700927734375,0.685668945312,-13.5,-0.0625,-0.0625,13.51,1.47,1.71
1542217397172724008,361,0,/imu_data_acquisition2,19407.0,-0.0598754882812,-0.181823730469,0.704956054688,0.682922363281,-0.125,130.875,81.1875,-6.45,7.36,-5.38
1542217397175360918,362,0,/imu_data_acquisition2,19418.0,-0.0662841796875,-0.166564941406,0.7119140625,0.679016113281,87.875,163.1875,113.3125,-8.9,-2.19,10.76
1542217397180062055,363,0,/imu_data_acquisition2,19428.0,-0.0765380859375,-0.149658203125,0.716979980469,0.676513671875,45.1875,213.25,70.25,-4.16,-7.44,23.4
1542217397188481092,364,0,/imu_data_acquisition2,19436.0,-0.0877685546875,-0.134216308594,0.720031738281,0.675109863281,45.1875,213.25,70.25,-4.16,-7.44,23.4
1542217397200052022,365,0,/imu_data_acquisition2,19447.0,-0.0925903320312,-0.120666503906,0.72314453125,0.673767089844,80.3125,144.3125,57.8125,-1.75,-5.43,10.35
1542217397209862947,366,0,/imu_data_acquisition2,19457.0,-6.103515625e-05,-6.103515625e-05,-6.103515625e-05,0.672607421875,85.8125,134.8125,51.1875,4.23,2.27,25.59
1542217397222702980,367,0,/imu_data_acquisition2,19469.0,-0.100708007812,-0.0942993164062,0.728393554688,0.671081542969,80.0,135.375,54.4375,-8.02,-2.81,23.47
1542217397228991985,368,0,/imu_data_acquisition2,19476.0,-0.106079101562,-0.0823974609375,0.73193359375,0.668029785156,60.4375,133.125,74.4375,-8.02,-2.81,23.47
1542217397237442970,369,0,/imu_data_acquisition2,19485.0,-0.111938476562,-0.072998046875,0.734130859375,0.665710449219,34.25,120.25,55.1875,-3.4,-4.96,14.93
1542217397250344991,370,0,/imu_data_acquisition2,19497.0,-0.116638183594,-0.0643310546875,0.735107421875,0.664733886719,37.4375,106.5625,31.5625,-0.72,-1.66,10.98
1542217397261913061,371,0,/imu_data_acquisition2,19508.0,-0.119995117188,-0.055419921875,0.735534667969,0.664428710938,51.125,98.75,20.625,-0.78,-3.01,10.31
1542217397270042896,372,0,/imu_data_acquisition2,19518.0,-0.01416015625,-6.103515625e-05,-6.103515625e-05,0.664978027344,48.125,99.6875,6.4375,-1.92,-2.28,10.32
1542217397278979063,373,0,/imu_data_acquisition2,19526.0,-0.126831054688,-0.0374145507812,0.733825683594,0.666381835938,56.6875,105.375,-6.625,-1.92,-2.28,10.32
1542217397287676095,374,0,/imu_data_acquisition2,19536.0,-0.130432128906,-0.0291137695312,0.732116699219,0.667907714844,45.0625,99.5625,-12.6875,-2.4,-2.58,11.51
1542217397300226926,375,0,/imu_data_acquisition2,19548.0,-0.133850097656,-0.0225830078125,0.730407714844,0.66943359375,31.8125,84.75,-15.5,-1.96,-0.01,-0.01
1542217397311754941,376,0,/imu_data_acquisition2,19558.0,-0.136596679688,-0.0177001953125,0.728820800781,0.670715332031,21.9375,65.0625,-14.75,-1.98,-2.69,10.9
1542217397321942090,377,0,/imu_data_acquisition2,19569.0,-0.138793945312,-0.0142211914062,0.727600097656,0.671691894531,13.3125,48.75,-12.625,-1.25,-3.09,10.1
1542217397327150106,378,0,/imu_data_acquisition2,19575.0,-0.140319824219,-0.011962890625,0.7265625,0.672485351562,8.5625,32.875,-11.0625,-1.25,-3.09,10.1
1542217397338375091,379,0,/imu_data_acquisition2,19585.0,-0.141357421875,-0.01025390625,0.725769042969,0.673156738281,7.4375,24.125,-8.6875,-1.95,-2.86,10.28
1542217397352942943,380,0,/imu_data_acquisition2,19600.0,-0.142028808594,-0.00909423828125,0.725219726562,0.673645019531,4.625,9.0625,-4.125,-1.66,-2.67,9.97
1542217397361969947,381,0,/imu_data_acquisition2,19608.0,-0.142333984375,-0.00830078125,0.724914550781,0.673950195312,4.625,9.0625,-0.0625,-0.96,-2.53,9.23
1542217397372239112,382,0,/imu_data_acquisition2,19619.0,-0.142456054688,-0.0078125,0.724609375,0.674255371094,3.9375,5.8125,-3.9375,-1.62,-2.88,9.8
1542217397378474950,383,0,/imu_data_acquisition2,19625.0,-0.142456054688,-0.0074462890625,0.724426269531,0.674438476562,3.0,3.375,-2.375,-1.62,-2.88,9.8
1542217397387128114,384,0,/imu_data_acquisition2,19635.0,-0.142395019531,-0.0072021484375,0.724304199219,0.674621582031,2.6875,1.625,-2.25,-1.45,-2.06,9.69
1542217397397916078,385,0,/imu_data_acquisition2,19646.0,-0.142333984375,-0.00714111328125,0.724182128906,0.674682617188,1.25,-0.3125,-1.25,-1.05,-2.44,9.93
1542217397410238027,386,0,/imu_data_acquisition2,19658.0,-0.142150878906,-0.00726318359375,0.72412109375,0.6748046875,0.75,-2.3125,-1.5625,-1.26,-2.73,9.02
1542217397422575950,387,0,/imu_data_acquisition2,19669.0,-0.142028808594,-0.00738525390625,0.724182128906,0.6748046875,0.25,-2.5,-0.1875,-1.35,-2.44,9.36
1542217397427050113,388,0,/imu_data_acquisition2,19675.0,-0.141845703125,-0.00775146484375,0.724243164062,0.6748046875,-1.625,-4.3125,-0.125,-1.35,-2.44,9.36
1542217397437997102,389,0,/imu_data_acquisition2,19686.0,-0.1416015625,-0.00823974609375,0.724243164062,0.6748046875,-2.4375,-5.75,-0.625,-1.31,-2.34,9.25
1542217397449111938,390,0,/imu_data_acquisition2,19695.0,-0.141418457031,-0.00872802734375,0.724304199219,0.674743652344,-2.5625,-6.1875,-0.375,-1.08,-2.4,9.21
1542217397461846113,391,0,/imu_data_acquisition2,19709.0,-0.141052246094,-0.00933837890625,0.724365234375,0.674743652344,-2.0625,-7.5,-0.75,-1.4,-2.48,9.09
1542217397472493886,392,0,/imu_data_acquisition2,19719.0,-0.140747070312,-0.009765625,0.724426269531,0.674743652344,-1.625,-6.0625,-0.4375,-1.42,-2.38,9.18
1542217397481399059,393,0,/imu_data_acquisition2,19726.0,-0.140502929688,-0.01025390625,0.724487304688,0.674743652344,-2.3125,-6.0625,-0.6875,-1.42,-2.38,9.18
1542217397488990068,394,0,/imu_data_acquisition2,19737.0,-0.140258789062,-0.0113525390625,0.724487304688,0.6748046875,-2.125,-5.5,-0.5,-1.39,-2.35,9.35
1542217397502980947,395,0,/imu_data_acquisition2,19750.0,-0.140014648438,-0.0122680664062,0.724487304688,0.6748046875,-2.0625,-4.4375,-0.4375,-1.3,-2.43,9.44
1542217397511250972,396,0,/imu_data_acquisition2,19758.0,-0.139831542969,-0.01318359375,0.724487304688,0.6748046875,-2.0625,-4.4375,-0.4375,-1.3,-2.43,9.44
1542217397520179986,397,0,/imu_data_acquisition2,19767.0,-0.139587402344,-0.01416015625,0.724426269531,0.674926757812,-1.625,-4.3125,-0.6875,-1.29,-2.39,9.26
1542217397533566951,398,0,/imu_data_acquisition2,19780.0,-0.139404296875,-0.0149536132812,0.724426269531,0.674926757812,-1.875,-4.25,0.3125,-1.33,-2.35,9.32
1542217397538716077,399,0,/imu_data_acquisition2,19786.0,-0.13916015625,-0.0158081054688,0.724426269531,0.674987792969,-1.875,-4.25,0.3125,-1.33,-2.35,9.32
1542217397549706935,400,0,/imu_data_acquisition2,19797.0,-0.138916015625,-0.0166625976562,0.724426269531,0.674987792969,-2.5,-3.9375,0.5,-1.19,-2.24,9.43
1542217397560786962,401,0,/imu_data_acquisition2,19807.0,-0.138854980469,-0.0177001953125,0.724426269531,0.674987792969,-3.1875,-3.4375,0.1875,-1.19,-2.58,9.11
1542217397571046113,402,0,/imu_data_acquisition2,19819.0,-0.138732910156,-0.0184936523438,0.724365234375,0.675048828125,-2.875,-2.3125,-0.4375,-1.24,-2.17,9.08
1542217397579346895,403,0,/imu_data_acquisition2,19826.0,-0.138793945312,-0.0192260742188,0.724304199219,0.675048828125,-2.5625,-0.5,-0.4375,-1.27,-2.53,9.36
1542217397589562892,404,0,/imu_data_acquisition2,19836.0,-0.138732910156,-0.0200805664062,0.724243164062,0.675170898438,-2.0,-1.3125,-0.9375,-1.2,-2.53,9.35
1542217397598628997,405,0,/imu_data_acquisition2,19846.0,-0.138793945312,-0.0208129882812,0.72412109375,0.67529296875,-1.6875,-1.0,-1.4375,-1.52,-2.56,9.23
1542217397611042022,406,0,/imu_data_acquisition2,19858.0,-0.138916015625,-0.0214233398438,0.723937988281,0.675354003906,-1.5625,-0.1875,-1.1875,-1.23,-2.47,9.33
1542217397617605924,407,0,/imu_data_acquisition2,19865.0,-0.138916015625,-0.0218505859375,0.723876953125,0.675476074219,-0.9375,0.125,-1.0625,-1.42,-2.33,-0.01
1542217397632107019,408,0,/imu_data_acquisition2,19876.0,-0.139038085938,-0.0220947265625,0.723754882812,0.675537109375,-0.625,0.9375,-0.6875,-1.55,-2.48,9.41
1542217397643834114,409,0,/imu_data_acquisition2,19891.0,-0.139038085938,-0.0225830078125,0.723693847656,0.675598144531,-0.5625,-0.9375,-1.4375,-1.59,-2.16,9.21
1542217397647643089,410,0,/imu_data_acquisition2,19895.0,-0.138916015625,-0.0228271484375,0.723571777344,0.675720214844,-0.5625,-0.9375,-1.4375,-1.59,-2.16,9.21
1542217397661739110,411,0,/imu_data_acquisition2,19908.0,-0.138977050781,-0.0230102539062,0.723571777344,0.675720214844,0.5,0.75,-0.5625,-1.38,-2.49,9.53
1542217397670237064,412,0,/imu_data_acquisition2,19917.0,-0.139038085938,-0.0234985351562,0.723449707031,0.675842285156,0.5625,-0.5,-1.125,-1.23,-2.7,9.05
1542217397677941083,413,0,/imu_data_acquisition2,19925.0,-0.138916015625,-0.0237426757812,0.723327636719,0.675964355469,0.875,-0.5,-0.9375,-1.32,-2.32,9.64
1542217397691118001,414,0,/imu_data_acquisition2,19938.0,-0.138977050781,-0.0240478515625,0.723327636719,0.675964355469,-0.9375,0.1875,0.0625,-1.52,-2.44,9.43
1542217397701138973,415,0,/imu_data_acquisition2,19947.0,-0.138916015625,-0.0241088867188,0.723266601562,0.676025390625,-0.4375,-0.5625,-1.0,-1.37,-1.89,9.67
1542217397712003946,416,0,/imu_data_acquisition2,19958.0,-0.138793945312,-0.0243530273438,0.72314453125,0.676147460938,-1.0625,-2.875,-2.25,-0.82,-2.27,9.32
1542217397722058057,417,0,/imu_data_acquisition2,19969.0,-0.138610839844,-0.0245971679688,0.723022460938,0.676330566406,-0.5,-2.875,-3.0,-1.32,-2.27,8.97
1542217397728020906,418,0,/imu_data_acquisition2,19975.0,-0.138488769531,-0.0247192382812,0.722900390625,0.676513671875,0.125,-1.625,-2.9375,-1.65,-2.4,9.62
1542217397738679885,419,0,/imu_data_acquisition2,19986.0,-0.138305664062,-0.0250244140625,0.722717285156,0.676696777344,-0.5,-1.3125,-2.375,-1.13,-2.36,9.3
1542217397749356985,420,0,/imu_data_acquisition2,19995.0,-0.138305664062,-0.0250854492188,0.722595214844,0.676818847656,-0.1875,-0.25,-2.6875,-1.33,-2.95,9.08
1542217397759675025,421,0,/imu_data_acquisition2,20007.0,-0.138610839844,-0.0247192382812,0.722473144531,0.676940917969,1.0625,5.5625,-1.0,-0.7,-0.8,7.74
1542217397769882917,422,0,/imu_data_acquisition2,20017.0,-0.139221191406,-0.0242309570312,0.722473144531,0.676818847656,-1.25,8.8125,1.75,-1.03,-3.2,9.27
1542217397779117107,423,0,/imu_data_acquisition2,20026.0,-0.140075683594,-0.0234985351562,0.722351074219,0.6767578125,-0.625,13.125,1.25,-1.87,-3.66,11.02
1542217397788423061,424,0,/imu_data_acquisition2,20035.0,-0.141357421875,-0.0223999023438,0.722290039062,0.676635742188,-1.0625,19.8125,2.875,0.62,-2.25,10.35
1542217397799974918,425,0,/imu_data_acquisition2,20046.0,-0.142883300781,-0.0216064453125,0.722290039062,0.676330566406,-5.875,19.375,4.375,-0.93,-2.72,10.25
1542217397825128078,426,0,/imu_data_acquisition2,20067.0,-0.144714355469,-0.0206298828125,0.722351074219,0.675903320312,-7.1875,23.3125,5.6875,-2.16,-2.59,9.0
1542217397832427024,428,0,/imu_data_acquisition2,20080.0,-0.148498535156,-0.0180053710938,0.72216796875,0.675354003906,-3.5625,26.625,2.875,-0.8,-1.13,9.23
1542217397838391065,429,0,/imu_data_acquisition2,20085.0,-0.149963378906,-0.0176391601562,0.721984863281,0.675231933594,-8.625,15.8125,1.0625,0.17,-3.14,9.66
1542217397847748041,430,0,/imu_data_acquisition2,20095.0,-0.151245117188,-0.0181884765625,0.722534179688,0.67431640625,-16.0625,4.875,11.25,-2.4,-2.14,-0.01
1542217397861320972,431,0,/imu_data_acquisition2,20108.0,-0.15283203125,-0.0186767578125,0.723754882812,0.672668457031,-19.6875,7.375,23.5,-3.42,-3.87,9.34
1542217397873963117,432,0,/imu_data_acquisition2,20119.0,-0.154296875,-0.0189819335938,0.724792480469,0.671203613281,-17.0625,7.9375,19.875,-0.59,-3.72,9.45
1542217397881094932,433,0,/imu_data_acquisition2,20128.0,-0.155639648438,-0.02001953125,0.725830078125,0.669738769531,-21.5,1.0,20.0,-1.72,-6.21,9.79
1542217397889364957,434,0,/imu_data_acquisition2,20135.0,-0.157104492188,-0.0195922851562,0.726745605469,0.668395996094,-10.1875,14.125,19.375,-0.34,-0.72,7.46
1542217397899763107,435,0,/imu_data_acquisition2,20146.0,-0.160278320312,-0.0145874023438,0.726806640625,0.667724609375,16.8125,66.4375,16.5,0.24,-4.11,8.48
1542217397912647008,436,0,/imu_data_acquisition2,20160.0,-0.160949707031,-0.0156860351562,0.728454589844,0.665710449219,-18.75,-6.0,28.0625,-2.99,-8.16,9.86
1542217397919898033,437,0,/imu_data_acquisition2,20167.0,-0.161804199219,-0.0175170898438,0.734313964844,0.658996582031,-34.0,-19.6875,100.625,2.85,-8.25,7.82
1542217397931410074,438,0,/imu_data_acquisition2,20177.0,-0.16064453125,-0.0150756835938,0.739440917969,0.653564453125,21.125,-2.1875,92.125,2.86,-12.95,11.17
1542217397941620111,439,0,/imu_data_acquisition2,20186.0,-0.157958984375,-0.001708984375,0.743469238281,0.649841308594,130.9375,71.75,88.4375,5.93,-17.62,15.57
1542217397948807954,440,0,/imu_data_acquisition2,20196.0,-0.158264160156,0.029052734375,0.745727539062,0.646545410156,262.5,235.0625,103.9375,8.3,-14.0,17.37
1542217397960767984,441,0,/imu_data_acquisition2,20207.0,-0.161071777344,0.0838623046875,0.744201660156,0.642761230469,456.75,449.625,123.5625,6.34,-14.96,14.92
1542217397969258069,442,0,/imu_data_acquisition2,20216.0,-0.167114257812,0.158142089844,0.735717773438,0.637023925781,607.8125,641.625,121.9375,2.89,-9.68,14.03
1542217397977735042,443,0,/imu_data_acquisition2,20225.0,-0.014892578125,-6.103515625e-05,-6.103515625e-05,0.631042480469,686.6875,684.25,71.0625,-15.11,0.57,39.67
1542217397992475032,444,0,/imu_data_acquisition2,20239.0,-0.179138183594,0.290649414062,0.698547363281,0.628845214844,440.9375,509.1875,-44.4375,0.3,-22.88,33.45
1542217397999641895,445,0,/imu_data_acquisition2,20245.0,-0.192626953125,0.295837402344,0.689636230469,0.632263183594,-19.3125,158.0,-129.6875,16.48,-15.93,3.56
1542217398007814884,446,0,/imu_data_acquisition2,20255.0,-0.205688476562,0.296875,0.679260253906,0.638854980469,-37.875,114.6875,-14.75,1.58,-1.67,5.46
1542217398019885063,447,0,/imu_data_acquisition2,20267.0,-0.220642089844,0.301208496094,0.666748046875,0.644958496094,-19.625,162.25,-186.0,1.86,0.3,5.7
1542217398030740976,448,0,/imu_data_acquisition2,20276.0,-0.236694335938,0.302307128906,0.654846191406,0.651000976562,-55.3125,144.6875,-193.0625,4.05,1.84,6.03
1542217398037497997,449,0,/imu_data_acquisition2,20285.0,-0.253723144531,0.299743652344,0.643981933594,0.656555175781,-96.6875,122.9375,-194.9375,5.02,2.74,8.37
1542217398049607992,450,0,/imu_data_acquisition2,20297.0,-0.269836425781,0.2958984375,0.634094238281,0.661499023438,-104.4375,105.0,-183.375,5.22,4.59,-0.01
1542217398062553882,451,0,/imu_data_acquisition2,20310.0,-0.283813476562,0.291198730469,0.625183105469,0.666198730469,-98.625,79.8125,-168.5,5.35,5.29,10.33
1542217398069443941,452,0,/imu_data_acquisition2,20316.0,-0.295715332031,0.28466796875,0.617980957031,0.670471191406,-103.25,46.0625,-7.8125,5.97,5.44,10.08
1542217398079376935,453,0,/imu_data_acquisition2,20326.0,-0.305114746094,0.276428222656,0.612609863281,0.674682617188,-6.0625,-0.0625,-0.0625,6.41,5.92,9.6
1542217398092398881,454,0,/imu_data_acquisition2,20339.0,-0.308410644531,0.266174316406,0.61083984375,0.678894042969,-79.625,-65.5,-92.875,6.16,5.93,9.34
1542217398097364902,455,0,/imu_data_acquisition2,20345.0,-0.311645507812,0.255859375,0.609008789062,0.683044433594,-79.625,-65.5,-92.875,5.73,5.43,9.32
1542217398108269929,456,0,/imu_data_acquisition2,20355.0,-0.311767578125,0.24462890625,0.608825683594,0.687255859375,-65.8125,-101.875,-73.3125,4.55,3.37,10.37
1542217398118890047,457,0,/imu_data_acquisition2,20366.0,-0.305908203125,0.231628417969,0.611511230469,0.691955566406,-36.375,-171.75,-43.0625,3.81,2.04,11.51
1542217398127861022,458,0,/imu_data_acquisition2,20376.0,-0.297729492188,0.217224121094,0.615234375,0.696899414062,-29.125,-204.25,-35.25,3.08,0.88,12.19
1542217398140875101,459,0,/imu_data_acquisition2,20387.0,-0.287963867188,0.201354980469,0.61962890625,0.701904296875,-29.25,-230.875,-30.625,1.65,-0.85,12.53
1542217398149585008,460,0,/imu_data_acquisition2,20396.0,-0.277282714844,0.183776855469,0.624450683594,0.706665039062,-35.3125,-251.875,-29.375,0.76,-1.89,12.71
1542217398159861087,461,0,/imu_data_acquisition2,20407.0,-0.265869140625,0.164733886719,0.629333496094,0.71142578125,-40.4375,-269.75,-31.9375,-0.02,-2.77,12.46
1542217398168297052,462,0,/imu_data_acquisition2,20415.0,-0.253784179688,0.144470214844,0.633911132812,0.716186523438,-43.3125,-284.8125,-37.3125,-1.35,-3.81,12.47
1542217398178999900,463,0,/imu_data_acquisition2,20426.0,-0.241027832031,0.123046875,0.637939453125,0.720947265625,-44.875,-297.75,-43.875,-1.96,-4.4,12.88
1542217398189812898,464,0,/imu_data_acquisition2,20436.0,-0.227478027344,0.100769042969,0.641296386719,0.725830078125,-43.8125,-309.125,-51.875,-2.39,-4.79,13.31
1542217398197138071,465,0,/imu_data_acquisition2,20445.0,-0.213134765625,0.0779418945312,0.643920898438,0.730651855469,-40.3125,-318.375,-58.6875,-2.71,-4.73,13.51
1542217398214194059,466,0,/imu_data_acquisition2,20461.0,-0.198059082031,0.0547485351562,0.645935058594,0.735229492188,-36.25,-324.5625,-61.9375,-3.13,-3.87,13.64
1542217398221075057,467,0,/imu_data_acquisition2,20468.0,-0.182312011719,0.0316772460938,0.647583007812,0.739196777344,-31.3125,-328.25,-60.1875,-3.37,-3.01,13.65
1542217398227129936,468,0,/imu_data_acquisition2,20475.0,-0.166320800781,0.0089111328125,0.649291992188,0.742065429688,-29.0625,-326.375,-50.0,-3.36,-2.08,14.76
1542217398242723941,469,0,/imu_data_acquisition2,20489.0,-0.151306152344,-0.0128784179688,0.651611328125,0.743225097656,-33.1875,-311.5,-30.1875,-3.54,-0.91,20.1
1542217398249906063,470,0,/imu_data_acquisition2,20496.0,-0.138000488281,-0.0335693359375,0.65478515625,0.742309570312,-43.9375,-290.625,-3.875,-4.31,0.09,23.35
1542217398257150888,471,0,/imu_data_acquisition2,20505.0,-0.12646484375,-0.0543212890625,0.659423828125,0.739074707031,-62.875,-281.0,27.5,-5.6,0.59,26.56
1542217398269057035,472,0,/imu_data_acquisition2,20516.0,-0.116149902344,-0.0757446289062,0.665405273438,0.733459472656,-81.9375,-280.5625,57.125,-10.48,-1.29,33.04
1542217398280206918,473,0,/imu_data_acquisition2,20526.0,-0.106018066406,-0.0979614257812,0.671875,0.726440429688,-90.25,-288.3125,72.25,-13.96,-2.07,34.07
1542217398288921117,474,0,/imu_data_acquisition2,20536.0,-0.0941162109375,-0.12060546875,0.678344726562,0.718688964844,-80.0625,-306.1875,75.0,-16.72,-2.45,31.83
1542217398300626039,475,0,/imu_data_acquisition2,20547.0,-0.0805053710938,-0.142028808594,0.684326171875,0.710632324219,-56.8125,-310.375,72.0,-18.16,0.12,27.4
1542217398309346914,476,0,/imu_data_acquisition2,20556.0,-0.066650390625,-0.161865234375,0.690124511719,0.7021484375,-42.75,-298.75,75.375,-20.87,7.38,18.23
