%time,field.header.seq,field.header.stamp,field.header.frame_id,field.time_stamp,field.quat_x,field.quat_y,field.quat_z,field.quat_w,field.gyro_x,field.gyro_y,field.gyro_z,field.accel_x,field.accel_y,field.accel_z
1541003797055888891,1,0,/imu_data_acquisition2,49231.0,0.0359497070312,0.115905761719,0.683776855469,0.719482421875,26.25,-43.25,34.1875,3.07,6.45,9.01
1541003797061916112,2,0,/imu_data_acquisition2,49241.0,0.0404052734375,0.114685058594,0.685485839844,0.717834472656,26.25,-43.25,34.1875,2.86,5.77,10.0
1541003797071336984,3,0,/imu_data_acquisition2,49250.0,0.04541015625,0.113647460938,0.688659667969,0.714721679688,31.25,-43.8125,59.6875,2.4,4.35,10.27
1541003797082016944,4,0,/imu_data_acquisition2,49261.0,0.0509033203125,0.111938476562,0.693115234375,0.710266113281,23.8125,-56.875,98.3125,1.14,-0.01,-0.01
1541003797092207908,5,0,/imu_data_acquisition2,49271.0,0.0565795898438,0.109497070312,0.698486328125,0.704895019531,15.4375,-60.5,106.0625,0.04,0.05,10.62
1541003797102114915,6,0,/imu_data_acquisition2,49281.0,0.06201171875,-6.103515625e-05,-6.103515625e-05,0.699096679688,6.25,-65.0,104.0625,-0.68,-1.76,10.59
1541003797111150979,7,0,/imu_data_acquisition2,49290.0,0.0671997070312,-6.103515625e-05,-6.103515625e-05,0.693420410156,6.25,-65.0,104.0625,-0.68,-1.76,10.59
1541003797121426105,8,0,/imu_data_acquisition2,49300.0,0.072021484375,0.09765625,0.714965820312,0.688537597656,-1.1875,-68.625,90.5625,-2.15,-2.93,10.05
1541003797132258892,9,0,/imu_data_acquisition2,49311.0,0.0762329101562,0.0924682617188,-6.103515625e-05,0.684936523438,-17.25,-72.0625,45.5625,-3.7,-2.74,11.0
1541003797142007112,10,0,/imu_data_acquisition2,49321.0,0.0799560546875,-6.103515625e-05,-6.103515625e-05,0.682861328125,-17.75,-77.4375,18.9375,-4.33,-0.75,9.53
1541003797152446985,11,0,/imu_data_acquisition2,49331.0,0.0838012695312,0.0812377929688,0.721618652344,0.682373046875,-16.3125,-81.625,-5.3125,-4.56,0.57,8.45
1541003797160684108,12,0,/imu_data_acquisition2,49339.0,0.0877685546875,0.0756225585938,0.720825195312,0.683349609375,-16.3125,-81.625,-5.3125,-4.56,0.57,8.45
1541003797170279026,13,0,/imu_data_acquisition2,49349.0,-6.103515625e-05,-6.103515625e-05,-6.103515625e-05,0.685546875,-14.0,-0.0625,-0.0625,-4.82,1.74,8.01
1541003797183101892,14,0,/imu_data_acquisition2,49361.0,0.095947265625,0.0653686523438,0.7158203125,0.688598632812,-2.625,-75.0,-48.0,-5.58,5.17,6.23
1541003797193339109,15,0,/imu_data_acquisition2,49372.0,0.10009765625,0.0612182617188,0.71240234375,0.69189453125,0.375,-68.875,-48.0625,-5.58,5.61,4.87
1541003797205646991,16,0,/imu_data_acquisition2,49383.0,0.103942871094,-6.103515625e-05,-6.103515625e-05,0.695129394531,2.5625,-58.75,-46.4375,-5.55,5.93,4.07
1541003797212740898,17,0,/imu_data_acquisition2,49391.0,0.107421875,0.0547485351562,0.705688476562,0.698181152344,2.5625,-58.75,-46.4375,-5.43,6.42,3.48
1541003797223203897,18,0,/imu_data_acquisition2,49401.0,0.10986328125,0.052490234375,0.702697753906,0.700988769531,-0.4375,-44.5625,-44.125,-5.29,6.39,4.17
1541003797232753038,19,0,/imu_data_acquisition2,49411.0,0.111083984375,0.051025390625,0.700134277344,0.703491210938,-9.875,-10.3125,-31.9375,-5.33,6.65,5.49
1541003797245242118,20,0,/imu_data_acquisition2,49422.0,0.110961914062,0.0501098632812,0.698181152344,0.705505371094,-12.4375,1.625,-6.1875,-5.12,6.41,7.77
1541003797254870891,21,0,/imu_data_acquisition2,49432.0,0.110046386719,0.0496826171875,0.696899414062,0.706909179688,-13.25,7.9375,-11.0,-5.69,6.56,7.31
1541003797261841058,22,0,/imu_data_acquisition2,49440.0,0.108703613281,0.0494995117188,0.696411132812,0.707641601562,-13.25,7.9375,-11.0,-5.69,6.56,7.31
1541003797272825002,23,0,/imu_data_acquisition2,49451.0,0.106201171875,0.0479736328125,0.696655273438,0.707885742188,-34.0625,7.9375,0.75,-4.85,0.88,13.07
1541003797285753011,24,0,/imu_data_acquisition2,49463.0,0.104431152344,0.0374755859375,0.696105957031,0.709289550781,-78.3125,-100.625,-28.125,-0.13,4.87,3.09
1541003797293004035,25,0,/imu_data_acquisition2,49471.0,0.105529785156,0.0270385742188,0.693786621094,0.7119140625,-71.9375,-89.1875,-25.25,-1.91,6.3,0.62
1541003797306154966,26,0,/imu_data_acquisition2,49482.0,0.106384277344,0.0177001953125,0.691589355469,0.714233398438,-75.9375,-49.625,-10.4375,-1.67,10.31,0.41
1541003797314013957,27,0,/imu_data_acquisition2,49491.0,0.104675292969,0.0103759765625,0.690612792969,0.715576171875,-75.9375,-49.625,-10.4375,-4.42,0.67,1.7
1541003797321602106,28,0,/imu_data_acquisition2,49500.0,0.0974731445312,0.00335693359375,0.691650390625,0.715637207031,-118.6875,0.625,15.875,-4.42,0.67,1.7
1541003797334697008,29,0,/imu_data_acquisition2,49513.0,0.08642578125,-0.0023193359375,0.693603515625,0.715148925781,-178.0625,84.6875,42.8125,1.34,-0.23,18.38
1541003797347804069,30,0,/imu_data_acquisition2,49523.0,0.0706787109375,-0.0079345703125,0.696716308594,0.7138671875,-181.125,119.375,19.8125,2.46,7.88,8.66
1541003797352993965,31,0,/imu_data_acquisition2,49532.0,0.052734375,-0.011474609375,0.698364257812,0.713684082031,-257.8125,144.5,21.875,-0.67,-0.45,10.13
1541003797363877058,32,0,/imu_data_acquisition2,49542.0,0.0286254882812,-0.01806640625,0.699829101562,0.713500976562,-257.8125,144.5,21.875,-1.63,-7.69,12.53
1541003797373147964,33,0,/imu_data_acquisition2,49551.0,0.0020751953125,-0.0265502929688,0.700256347656,0.71337890625,-294.1875,148.25,12.9375,-1.63,-7.69,12.53
1541003797383321046,34,0,/imu_data_acquisition2,49562.0,-0.0227661132812,-0.0347290039062,0.698852539062,0.714111328125,-201.125,119.0,-34.375,-4.46,-16.73,17.07
1541003797395008087,35,0,/imu_data_acquisition2,49573.0,-0.0418090820312,-0.0394897460938,0.69580078125,0.715942382812,-71.875,94.5625,-64.3125,-7.01,-2.12,13.34
1541003797404284000,36,0,/imu_data_acquisition2,49582.0,-0.051513671875,-0.0382080078125,0.691284179688,0.7197265625,-34.25,52.5625,-54.6875,-5.13,-0.77,21.08
1541003797412842988,37,0,/imu_data_acquisition2,49591.0,-0.0565185546875,-0.0372314453125,0.687622070312,0.722900390625,-34.25,52.5625,-54.6875,-5.13,-0.77,21.08
1541003797424515008,38,0,/imu_data_acquisition2,49603.0,-0.0597534179688,-0.0391845703125,0.685424804688,0.724609375,-43.625,11.5625,-32.3125,-1.68,-5.42,9.66
1541003797434624910,39,0,/imu_data_acquisition2,49613.0,-0.0624389648438,-0.0387573242188,0.684020996094,0.725769042969,15.5625,16.75,-10.375,-2.11,-3.97,11.62
1541003797443984985,40,0,/imu_data_acquisition2,49623.0,-0.0623779296875,-0.0369262695312,0.683349609375,0.726501464844,24.125,6.75,3.9375,-0.84,-2.6,10.74
1541003797455931901,41,0,/imu_data_acquisition2,49633.0,-0.0613403320312,-0.0350952148438,0.683654785156,0.726379394531,32.1875,2.875,10.625,-0.45,-0.68,10.39
1541003797462570905,42,0,/imu_data_acquisition2,49641.0,-0.0595703125,-0.032958984375,0.684387207031,0.725952148438,32.1875,2.875,10.625,-0.12,-1.14,-0.01
1541003797473323106,43,0,/imu_data_acquisition2,49652.0,-0.0575561523438,-0.0311279296875,0.685241699219,0.725402832031,31.5625,-1.125,12.4375,-0.56,-1.0,9.86
1541003797485440015,44,0,/imu_data_acquisition2,49663.0,-0.0559692382812,-0.0298461914062,0.686157226562,0.724670410156,24.3125,-2.625,14.375,-0.78,-0.06,9.93
1541003797494060039,45,0,/imu_data_acquisition2,49672.0,-0.0545654296875,-0.0288696289062,0.687133789062,0.723876953125,11.625,-4.375,13.0625,-0.43,0.38,9.77
1541003797503895044,46,0,/imu_data_acquisition2,49682.0,-0.0536499023438,-0.0284423828125,0.68798828125,0.72314453125,0.875,-5.25,9.4375,-0.34,0.17,9.29
1541003797514293909,47,0,/imu_data_acquisition2,49690.0,-0.0532836914062,-0.0286254882812,0.688598632812,0.722595214844,0.875,-5.25,9.4375,-0.34,0.17,9.29
1541003797524352073,48,0,/imu_data_acquisition2,49703.0,-0.053466796875,-0.0294189453125,0.688903808594,0.722290039062,-14.875,-3.9375,1.125,-0.21,-0.43,9.02
1541003797534075975,49,0,/imu_data_acquisition2,49712.0,-0.0541381835938,-0.030517578125,0.68896484375,0.72216796875,-18.4375,-1.125,-1.375,-0.57,-1.17,9.57
1541003797553565979,50,0,/imu_data_acquisition2,49723.0,-0.05517578125,-0.0316772460938,0.688842773438,0.722106933594,-20.5,0.125,-3.9375,-0.63,-1.66,9.53
1541003797555085897,51,0,/imu_data_acquisition2,49733.0,-0.0564575195312,-0.0328369140625,0.688537597656,0.722290039062,-19.5,2.3125,-6.0625,-0.74,-2.77,9.98
1541003797563816070,52,0,/imu_data_acquisition2,49743.0,-0.0577392578125,-0.0338745117188,0.688110351562,0.722534179688,-19.5,2.3125,-6.0625,-0.74,-2.77,9.98
1541003797571409940,53,0,/imu_data_acquisition2,49749.0,-0.05859375,-0.034423828125,0.687683105469,0.722778320312,-11.0625,2.5,-5.375,-0.69,-2.93,9.97
1541003797584655046,54,0,/imu_data_acquisition2,49763.0,-0.0586547851562,-0.0343627929688,0.6875,0.723022460938,5.625,0.0625,-0.625,-0.5,-1.94,9.8
1541003797594142913,55,0,/imu_data_acquisition2,49773.0,-0.0582885742188,-0.0339965820312,0.6875,0.723083496094,10.25,-1.1875,0.875,-0.4,-1.36,9.86
1541003797605407953,56,0,/imu_data_acquisition2,49783.0,-0.0576171875,-0.0335083007812,0.687561035156,0.723083496094,10.25,-1.1875,0.875,-0.43,-0.95,9.83
1541003797612904071,57,0,/imu_data_acquisition2,49791.0,-0.0568237304688,-0.032958984375,0.687744140625,0.722961425781,10.5625,-1.8125,1.9375,-0.43,-0.95,9.83
1541003797623315095,58,0,/imu_data_acquisition2,49802.0,-0.05615234375,-0.032470703125,0.687866210938,0.722900390625,9.9375,-1.625,2.0,-0.34,-0.84,9.51
1541003797634733915,59,0,/imu_data_acquisition2,49813.0,-0.0556030273438,-0.0321655273438,0.68798828125,0.722839355469,7.5,-2.125,1.3125,-0.34,-0.84,9.51
1541003797646162986,60,0,/imu_data_acquisition2,49822.0,-0.0552368164062,-0.031982421875,0.68798828125,0.722900390625,2.25,-3.25,-0.5625,-0.26,-1.43,10.1
1541003797654720067,61,0,/imu_data_acquisition2,49833.0,-0.0548706054688,-0.0320434570312,0.688049316406,0.722900390625,1.625,-3.5625,-0.6875,-0.32,-1.34,9.78
1541003797663048982,62,0,/imu_data_acquisition2,49839.0,-0.0545654296875,-0.0321655273438,0.68798828125,0.722900390625,1.625,-0.0625,-0.0625,-0.32,-1.34,9.78
1541003797674689054,63,0,/imu_data_acquisition2,49853.0,-0.05419921875,-0.0322875976562,0.68798828125,0.722961425781,3.8125,-5.0,-0.25,-0.16,-1.54,9.89
1541003797684102058,64,0,/imu_data_acquisition2,49863.0,-0.0536499023438,-0.0323486328125,0.688049316406,0.722961425781,3.8125,-5.0,-0.25,0.03,-1.45,9.79
1541003797695621967,65,0,/imu_data_acquisition2,49873.0,-0.0531005859375,-0.0324096679688,0.688110351562,0.722900390625,4.375,-4.8125,0.9375,0.11,-1.32,9.74
1541003797704042911,66,0,/imu_data_acquisition2,49883.0,-0.0525512695312,-0.0324096679688,0.688232421875,0.722839355469,4.375,-4.875,1.25,-0.15,-1.12,9.95
1541003797713572978,67,0,/imu_data_acquisition2,49892.0,-0.0520629882812,-0.0324096679688,0.688354492188,0.722778320312,4.375,-3.625,1.25,-0.15,-1.12,9.95
1541003797722551107,68,0,/imu_data_acquisition2,49899.0,-0.0517578125,-0.0324096679688,0.688415527344,0.722717285156,2.4375,-2.4375,0.9375,-0.27,-1.04,9.61
1541003797734940052,69,0,/imu_data_acquisition2,49913.0,-0.0516357421875,-0.0324096679688,0.688415527344,0.722717285156,0.0,-1.0625,-0.3125,-0.11,-1.29,9.86
1541003797746082067,70,0,/imu_data_acquisition2,49923.0,-6.103515625e-05,-6.103515625e-05,-6.103515625e-05,0.722717285156,-0.3125,-0.625,-0.3125,-0.7,-1.25,10.25
1541003797755991935,71,0,/imu_data_acquisition2,49933.0,-0.0515747070312,-0.0325317382812,0.688415527344,0.722717285156,-0.3125,-0.625,-0.3125,-0.34,-1.36,9.72
1541003797764446020,72,0,/imu_data_acquisition2,49942.0,-0.0515747070312,-0.0325317382812,0.688415527344,0.722717285156,-0.5,-0.125,0.0,-0.34,-1.36,9.72
1541003797775223970,73,0,/imu_data_acquisition2,49954.0,-0.051513671875,-0.0325317382812,0.688415527344,0.722717285156,0.1875,-0.5625,-0.1875,-0.38,-1.48,9.97
1541003797785403966,74,0,/imu_data_acquisition2,49963.0,-0.0516357421875,-0.0325927734375,0.688415527344,0.722717285156,0.1875,-0.5625,-0.1875,-0.17,-1.2,9.6
1541003797795156002,75,0,/imu_data_acquisition2,49973.0,-0.0516967773438,-0.0325927734375,0.688415527344,0.722717285156,0.1875,0.1875,-0.1875,-0.35,-1.24,9.72
1541003797804766893,76,0,/imu_data_acquisition2,49983.0,-0.00482177734375,-6.103515625e-05,-6.103515625e-05,0.722717285156,0.3125,-0.125,-0.3125,-0.37,-1.04,9.7
1541003797812752008,77,0,/imu_data_acquisition2,49989.0,-0.0517578125,-0.0325927734375,0.688415527344,0.722717285156,-0.3125,0.5625,-0.4375,-0.37,-1.04,9.7
1541003797826160907,78,0,/imu_data_acquisition2,50003.0,-0.0518188476562,-0.0325317382812,0.688354492188,0.722778320312,-0.5,1.25,-0.8125,-0.5,-1.17,9.81
1541003797835329055,79,0,/imu_data_acquisition2,50014.0,-0.052001953125,-0.032470703125,0.688293457031,0.722839355469,-0.8125,1.375,-1.125,-0.42,-1.46,9.58
1541003797847714900,80,0,/imu_data_acquisition2,50023.0,-0.0523071289062,-0.0324096679688,0.688232421875,0.722900390625,-1.0,2.1875,-1.0625,-0.71,-1.53,10.01
1541003797857903003,81,0,/imu_data_acquisition2,50034.0,-0.0524291992188,-0.0322875976562,0.688110351562,0.722961425781,-0.3125,2.1875,-1.1875,-0.49,-1.1,9.76
1541003797864505052,82,0,/imu_data_acquisition2,50042.0,-0.0525512695312,-0.0321655273438,0.688049316406,0.723022460938,0.0625,2.25,-1.0625,-0.49,-1.1,9.76
1541003797871043920,83,0,/imu_data_acquisition2,50049.0,-0.0526733398438,-0.031982421875,0.68798828125,0.723083496094,0.25,2.5,-1.0,-0.6,-1.54,9.87
1541003797884533882,84,0,/imu_data_acquisition2,50062.0,-0.052978515625,-0.0318603515625,0.687927246094,0.72314453125,-0.1875,1.9375,-1.125,-0.37,-1.41,9.86
1541003797896162033,85,0,/imu_data_acquisition2,50074.0,-0.0531616210938,-0.0319213867188,0.687866210938,0.723205566406,-1.0,0.125,-1.0,-0.51,-1.29,9.63
1541003797904453992,86,0,/imu_data_acquisition2,50083.0,-0.0534057617188,-0.0321044921875,0.687805175781,0.723266601562,-2.25,-0.6875,-0.875,-0.51,-1.29,9.63
1541003797915401935,87,0,/imu_data_acquisition2,50092.0,-6.103515625e-05,-6.103515625e-05,-6.103515625e-05,0.723266601562,-1.75,-0.75,-1.0,-0.26,-1.45,9.61
1541003797926034927,88,0,/imu_data_acquisition2,50103.0,-0.0536499023438,-0.0322875976562,0.687683105469,0.723327636719,-0.1875,-0.125,-1.0625,-0.23,-1.44,9.83
1541003797934820890,89,0,/imu_data_acquisition2,50113.0,-0.0538330078125,-0.0321655273438,0.687561035156,0.723388671875,-0.125,2.0625,-0.8125,-0.37,-1.23,9.54
1541003797945728063,90,0,/imu_data_acquisition2,50123.0,-0.053955078125,-0.0321044921875,0.6875,0.723449707031,0.125,0.75,-1.0,-0.52,-1.42,9.99
1541003797955693960,91,0,/imu_data_acquisition2,50133.0,-0.0540771484375,-0.0321655273438,0.6875,0.723510742188,-0.75,0.125,-0.8125,-0.52,-1.42,9.99
1541003797962306022,92,0,/imu_data_acquisition2,50140.0,-0.05419921875,-0.0321655273438,0.687438964844,0.723510742188,-0.6875,0.8125,-0.875,-0.4,-1.29,9.69
1541003797974384069,93,0,/imu_data_acquisition2,50151.0,-0.054443359375,-0.0320434570312,0.687377929688,0.723571777344,-0.0625,1.3125,-0.8125,-0.51,-1.46,9.89
1541003797982378005,94,0,/imu_data_acquisition2,50160.0,-0.0546264648438,-0.0320434570312,0.687316894531,0.7236328125,-0.125,1.4375,-0.875,-0.32,-1.57,9.96
1541003797993890047,95,0,/imu_data_acquisition2,50173.0,-0.0547485351562,-0.0320434570312,0.687255859375,0.7236328125,-0.6875,0.5,-0.625,-0.54,-1.11,9.45
1541003798005578041,96,0,/imu_data_acquisition2,50183.0,-0.0549926757812,-0.0320434570312,0.687194824219,0.723693847656,-0.8125,1.1875,-0.75,-0.56,-1.6,10.01
1541003798011473894,97,0,/imu_data_acquisition2,50189.0,-0.05517578125,-0.0321044921875,0.687133789062,0.723693847656,-0.8125,0.3125,-0.6875,-0.38,-1.45,10.06
1541003798022001981,98,0,/imu_data_acquisition2,50200.0,-0.0553588867188,-0.0321044921875,0.687072753906,0.723754882812,-1.3125,1.0625,-0.0625,-0.32,-1.21,9.6
1541003798033811092,99,0,/imu_data_acquisition2,50212.0,-0.0555419921875,-0.0321044921875,0.68701171875,0.723815917969,-0.9375,1.1875,-0.875,-0.34,-1.57,10.0
1541003798043344974,100,0,/imu_data_acquisition2,50221.0,-0.0557861328125,-0.0320434570312,0.686950683594,0.723876953125,-0.625,2.0625,-1.375,-0.26,-1.44,9.85
1541003798054815053,101,0,/imu_data_acquisition2,50233.0,-0.0560913085938,-0.0319213867188,0.686828613281,0.723937988281,-0.6875,3.6875,-1.375,-0.48,-1.38,9.98
1541003798111423015,102,0,/imu_data_acquisition2,50241.0,-0.056396484375,-0.0316162109375,0.686706542969,0.724060058594,-0.5625,4.625,-1.5625,-0.48,-1.38,9.98
1541003798153975963,103,0,/imu_data_acquisition2,50250.0,-0.0567626953125,-0.031494140625,0.686584472656,0.724182128906,-1.1875,4.0,-1.9375,-0.52,-1.55,9.97
1541003798157052993,106,0,/imu_data_acquisition2,50284.0,-0.0578002929688,-0.0310668945312,0.686157226562,0.724487304688,-2.1875,3.875,-1.4375,0.43,0.6,8.35
1541003798158478021,107,0,/imu_data_acquisition2,50289.0,-0.0587158203125,-0.03076171875,0.686157226562,0.724426269531,-5.125,10.25,0.625,0.43,0.6,8.35
1541003798160588026,108,0,/imu_data_acquisition2,50299.0,-0.05908203125,-0.030517578125,0.685913085938,0.724609375,-1.0625,5.375,-3.0625,-0.57,-2.5,11.28
1541003798162964105,109,0,/imu_data_acquisition2,50309.0,-0.0597534179688,-0.0300903320312,0.685729980469,0.724731445312,-2.5,9.4375,-2.0,-0.18,-1.33,10.5
1541003798166301965,110,0,/imu_data_acquisition2,50320.0,-0.0135498046875,-6.103515625e-05,-6.103515625e-05,0.724853515625,-2.9375,8.625,-2.0625,-0.58,-1.99,9.78
1541003798172911882,111,0,/imu_data_acquisition2,50331.0,-0.0611572265625,-0.0292358398438,0.685424804688,0.724975585938,-1.875,10.25,-1.5,-0.45,-1.5,10.03
1541003798173444986,112,0,/imu_data_acquisition2,50339.0,-0.0619506835938,-0.0286254882812,0.685302734375,0.725036621094,-1.875,11.8125,-0.0625,-0.18,-1.4,10.05
1541003798174945116,113,0,/imu_data_acquisition2,50349.0,-0.062744140625,-0.0280151367188,0.685119628906,0.725158691406,-2.0625,11.6875,-1.5625,0.25,-1.16,9.79
1541003798182775020,114,0,/imu_data_acquisition2,50359.0,-0.063720703125,-0.02734375,0.684936523438,0.725280761719,-3.25,13.8125,-1.625,-0.17,-1.33,9.62
1541003798195327043,115,0,/imu_data_acquisition2,50374.0,-0.0650024414062,-0.0266723632812,0.684753417969,0.725402832031,-5.0625,16.0,-1.875,0.09,-1.32,9.36
1541003798205255031,116,0,/imu_data_acquisition2,50381.0,-0.0665283203125,-0.0260620117188,0.684448242188,0.725524902344,-7.9375,18.125,-2.4375,0.09,-1.32,9.36
1541003798211838006,117,0,/imu_data_acquisition2,50390.0,-0.0682983398438,-0.025390625,0.68408203125,0.725769042969,-10.3125,20.4375,-3.875,0.47,-0.84,9.25
1541003798222143888,118,0,/imu_data_acquisition2,50399.0,-0.0702514648438,-0.0245971679688,0.683471679688,0.726135253906,-9.5625,23.0625,-7.375,1.2,-0.79,7.91
1541003798231312990,119,0,/imu_data_acquisition2,50410.0,-0.0731811523438,-0.0234375,0.68310546875,0.726257324219,-16.1875,34.0,-2.5625,-1.32,-3.51,10.89
1541003798244823932,120,0,/imu_data_acquisition2,50424.0,-0.076171875,-0.0219116210938,0.682678222656,0.726440429688,-13.375,37.9375,-2.625,-0.99,-2.56,10.16
1541003798252871990,121,0,/imu_data_acquisition2,50431.0,-0.0790405273438,-0.0203247070312,0.682006835938,0.726745605469,-11.625,37.25,-6.125,-0.42,-1.74,9.55
1541003798262034893,122,0,/imu_data_acquisition2,50440.0,-0.0817260742188,-0.0186157226562,0.68115234375,0.727294921875,-8.4375,37.4375,-9.3125,-0.24,-0.9,9.73
1541003798273005008,123,0,/imu_data_acquisition2,50450.0,-0.0845947265625,-0.0166625976562,0.680419921875,0.727722167969,-8.75,40.6875,-7.4375,-1.15,-2.15,10.15
1541003798286856889,124,0,/imu_data_acquisition2,50464.0,-0.0875244140625,-0.0145263671875,0.679809570312,0.727966308594,-8.5625,42.625,-4.25,-1.0,-1.7,9.86
1541003798296245098,125,0,/imu_data_acquisition2,50473.0,-0.0901489257812,-0.0122680664062,0.679260253906,0.728271484375,-4.0625,41.0625,-0.0625,-1.0,-1.7,9.86
1541003798306180000,126,0,/imu_data_acquisition2,50482.0,-0.0925903320312,-0.00994873046875,0.6787109375,0.728515625,-1.8125,40.4375,-3.8125,-0.81,-2.2,9.8
1541003798311388969,127,0,/imu_data_acquisition2,50490.0,-0.0947265625,-0.00738525390625,0.678161621094,0.728698730469,2.125,40.125,-3.0,-1.18,-0.01,-0.01
1541003798323076963,128,0,/imu_data_acquisition2,50502.0,-0.0965576171875,-0.00433349609375,-6.103515625e-05,0.72900390625,8.6875,41.3125,-3.0625,-1.2,-2.29,9.9
1541003798333952903,129,0,/imu_data_acquisition2,50510.0,-0.0980224609375,-0.00079345703125,0.677062988281,0.729370117188,16.5,42.75,-4.0,-1.33,-2.3,9.85
1541003798346199989,130,0,/imu_data_acquisition2,50524.0,-0.0990600585938,0.00347900390625,0.676391601562,0.729858398438,25.8125,-0.0625,-0.0625,-1.65,-2.75,9.85
1541003798356472015,131,0,/imu_data_acquisition2,50535.0,-0.100158691406,0.008056640625,0.67578125,0.730224609375,27.75,49.4375,-3.125,-1.65,-2.67,9.86
1541003798363441944,132,0,/imu_data_acquisition2,50540.0,-0.100952148438,0.01318359375,0.675109863281,0.730651855469,34.0625,51.1875,-2.8125,-1.65,-2.67,9.86
1541003798373732089,133,0,/imu_data_acquisition2,50551.0,-0.101196289062,0.0189819335938,0.674377441406,0.731201171875,44.9375,52.875,-4.0,-1.6,-2.24,10.0
1541003798383280038,134,0,/imu_data_acquisition2,50562.0,-6.103515625e-05,-6.103515625e-05,-6.103515625e-05,0.731811523438,55.0,55.5625,-4.875,-1.9,-2.8,10.31
1541003798393784999,135,0,/imu_data_acquisition2,50570.0,-0.100341796875,0.03271484375,0.672485351562,0.732543945312,64.375,58.875,-5.75,-1.7,-2.77,10.53
1541003798404629945,136,0,/imu_data_acquisition2,50582.0,-0.0980224609375,0.0418701171875,0.670715332031,0.734008789062,95.375,62.0625,-14.9375,-1.83,-2.44,10.55
1541003798413994073,137,0,/imu_data_acquisition2,50592.0,-0.094970703125,0.0516967773438,0.66845703125,0.73583984375,107.9375,62.75,-21.125,-2.1,-3.05,11.04
1541003798423237085,138,0,/imu_data_acquisition2,50600.0,-0.0910034179688,0.0621948242188,0.665588378906,0.738159179688,121.8125,61.875,-29.5,-1.94,-0.01,-0.01
1541003798434637069,139,0,/imu_data_acquisition2,50612.0,-0.086669921875,0.0731201171875,0.662170410156,0.74072265625,129.5,63.0625,-34.8125,-2.16,-1.85,10.4
1541003798446542024,140,0,/imu_data_acquisition2,50625.0,-0.0818481445312,0.08447265625,0.658325195312,0.743469238281,137.625,63.4375,-39.3125,-2.55,-1.22,-0.01
1541003798454086065,141,0,/imu_data_acquisition2,50632.0,-0.0763549804688,0.0962524414062,0.653991699219,0.746459960938,146.6875,61.9375,-44.1875,-2.55,-1.22,10.42
1541003798462676048,142,0,/imu_data_acquisition2,50640.0,-0.0704345703125,0.108337402344,-6.103515625e-05,0.74951171875,154.3125,62.1875,-48.6875,-2.15,-0.19,10.28
1541003798473859071,143,0,/imu_data_acquisition2,50652.0,-0.0651245117188,0.120422363281,0.644409179688,0.752319335938,148.5,66.8125,-47.3125,0.74,4.2,9.28
1541003798482492923,144,0,/imu_data_acquisition2,50659.0,-0.0619506835938,0.13134765625,0.640686035156,0.75390625,118.0625,72.9375,-32.0,2.56,8.31,11.48
1541003798493191957,145,0,/imu_data_acquisition2,50672.0,-0.0617065429688,0.138366699219,0.640380859375,0.752990722656,55.5,62.625,9.75,3.99,8.79,15.53
1541003798503943920,146,0,/imu_data_acquisition2,50682.0,-0.0609741210938,0.142028808594,0.643310546875,0.749877929688,27.1875,29.9375,53.375,5.45,4.35,16.11
1541003798511806011,147,0,/imu_data_acquisition2,50689.0,-0.0579223632812,0.143676757812,0.648620605469,0.745178222656,27.1875,-4.0,89.0,5.65,2.28,14.65
1541003798534975051,148,0,/imu_data_acquisition2,50702.0,-0.0526733398438,0.144287109375,0.655456542969,0.739440917969,35.1875,-30.25,114.3125,5.4,3.14,13.01
1541003798540947914,149,0,/imu_data_acquisition2,50712.0,-0.0460205078125,0.14404296875,0.663635253906,0.732604980469,38.25,-46.9375,135.1875,4.74,2.91,12.11
1541003798543760061,150,0,/imu_data_acquisition2,50719.0,-0.0388793945312,0.143188476562,0.672668457031,0.724914550781,35.75,-55.625,150.875,2.87,1.41,10.75
1541003798554816007,151,0,/imu_data_acquisition2,50732.0,-0.0315551757812,0.141845703125,0.682189941406,0.716613769531,31.875,-59.6875,159.6875,1.45,0.41,10.78
1541003798563198089,152,0,/imu_data_acquisition2,50740.0,-0.024169921875,0.140075683594,0.691711425781,0.708068847656,29.25,-64.3125,161.25,0.18,-0.54,10.42
1541003798571196079,153,0,/imu_data_acquisition2,50750.0,-0.0169067382812,0.138061523438,0.70068359375,0.699768066406,27.125,-64.6875,155.0,-1.8,-2.32,9.85
1541003798582472085,154,0,/imu_data_acquisition2,50761.0,-0.0103149414062,0.136047363281,0.708801269531,0.692077636719,22.9375,-60.4375,140.9375,-2.59,-2.83,9.98
1541003798592499017,155,0,/imu_data_acquisition2,50770.0,-0.0047607421875,0.1337890625,0.715637207031,0.685485839844,14.9375,-0.0625,-0.0625,-3.18,-3.4,10.15
1541003798602643013,156,0,/imu_data_acquisition2,50781.0,-0.0003662109375,0.131225585938,0.721008300781,0.680358886719,5.125,-50.125,94.0,-3.77,-3.92,9.85
1541003798613190889,157,0,/imu_data_acquisition2,50791.0,0.0028076171875,0.12841796875,0.724731445312,0.677001953125,-3.8125,-44.75,63.5625,-3.9,-4.09,9.86
1541003798622519016,158,0,/imu_data_acquisition2,50800.0,0.00531005859375,0.125793457031,0.726440429688,0.675598144531,-5.625,-40.4375,30.0625,-3.93,-3.52,10.54
1541003798631398916,159,0,/imu_data_acquisition2,50810.0,0.00762939453125,0.123107910156,0.726440429688,0.676086425781,-4.3125,-42.125,-1.125,-3.89,-0.97,11.63
1541003798643270969,160,0,/imu_data_acquisition2,50821.0,0.0101318359375,0.1201171875,0.724914550781,0.67822265625,-3.625,-48.3125,-26.3125,-3.72,0.01,10.92
1541003798655610084,161,0,/imu_data_acquisition2,50833.0,0.0127563476562,0.117065429688,0.722229003906,0.681579589844,-1.875,-52.0625,-46.25,-3.67,1.02,10.11
1541003798661684989,162,0,/imu_data_acquisition2,50840.0,0.015380859375,0.114196777344,-6.103515625e-05,0.685852050781,1.375,-52.3125,-62.375,-3.59,1.31,9.62
1541003798676022052,163,0,/imu_data_acquisition2,50852.0,0.0181884765625,0.111755371094,0.714233398438,0.690673828125,7.125,-51.0,-71.75,-2.91,4.46,8.68
1541003798684806108,164,0,/imu_data_acquisition2,50860.0,0.0208740234375,0.109619140625,0.709838867188,0.695434570312,8.375,-47.125,-72.375,-2.31,5.62,7.9
1541003798692620992,165,0,/imu_data_acquisition2,50871.0,0.0231323242188,0.107849121094,0.705810546875,0.69970703125,7.9375,-40.25,-65.5,-1.73,6.44,7.36
1541003798703471899,166,0,/imu_data_acquisition2,50882.0,0.0250244140625,0.106506347656,0.70263671875,0.703125,7.875,-32.3125,-51.8125,-0.34,7.97,7.11
1541003798712728023,167,0,/imu_data_acquisition2,50889.0,0.0267944335938,0.105529785156,0.700561523438,0.705200195312,8.25,-25.625,-32.25,0.22,8.27,7.26
1541003798722517967,168,0,/imu_data_acquisition2,50901.0,0.0285034179688,0.104858398438,0.699890136719,0.705932617188,9.0625,-21.25,-9.1875,0.63,7.91,7.41
1541003798733264923,169,0,/imu_data_acquisition2,50911.0,0.030517578125,0.1044921875,0.700500488281,0.705261230469,13.4375,-18.3125,13.0625,1.16,6.7,7.43
1541003798743074893,170,0,/imu_data_acquisition2,50921.0,0.0328979492188,0.104553222656,0.702270507812,0.703430175781,18.9375,-16.5,33.125,1.4,6.15,7.93
1541003798753849983,171,0,/imu_data_acquisition2,50932.0,0.0355834960938,0.104736328125,0.705139160156,0.700439453125,21.375,-16.1875,51.875,1.52,5.44,8.68
1541003798763818979,172,0,/imu_data_acquisition2,50940.0,0.0385131835938,0.104614257812,0.708862304688,0.696472167969,20.1875,-19.125,67.3125,1.52,4.21,9.4
1541003798772249937,173,0,/imu_data_acquisition2,50950.0,0.0419921875,0.10400390625,0.713073730469,0.692077636719,20.6875,-26.3125,76.3125,1.29,2.15,10.28
1541003798782968044,174,0,/imu_data_acquisition2,50961.0,0.0458374023438,0.102844238281,0.717468261719,0.687377929688,18.625,-34.0,81.0,0.95,1.37,10.26
1541003798793365001,175,0,/imu_data_acquisition2,50970.0,0.0496826171875,0.100891113281,0.721923828125,0.682739257812,11.8125,-40.5625,81.3125,0.55,0.46,9.86
1541003798802045106,176,0,/imu_data_acquisition2,50980.0,0.053466796875,0.0983276367188,0.725952148438,0.678527832031,5.9375,-45.3125,74.5625,-0.26,-1.18,9.82
1541003798815669059,177,0,/imu_data_acquisition2,50991.0,0.0570068359375,0.0952758789062,0.729248046875,0.675170898438,0.625,-49.1875,61.875,-0.65,-1.34,9.69
1541003798822997093,178,0,/imu_data_acquisition2,51000.0,0.0601806640625,0.0916748046875,0.731750488281,0.672668457031,-7.1875,-51.6875,46.9375,-1.19,-1.47,9.93
1541003798832076072,179,0,/imu_data_acquisition2,51010.0,0.063232421875,0.0877685546875,0.733215332031,0.671325683594,-9.6875,-55.1875,29.625,-1.82,-0.74,9.59
1541003798842371940,180,0,/imu_data_acquisition2,51020.0,0.0663452148438,0.0838012695312,0.733703613281,0.671020507812,-10.125,-58.125,12.375,-1.98,-0.02,9.24
1541003798855679988,181,0,/imu_data_acquisition2,51033.0,0.0695190429688,0.0798950195312,0.733276367188,0.671691894531,-8.75,-59.4375,-2.625,-2.2,1.27,9.32
1541003798863276958,182,0,/imu_data_acquisition2,51041.0,-6.103515625e-05,-6.103515625e-05,-6.103515625e-05,0.6728515625,-9.5,-59.5,-12.1875,-2.73,2.44,8.6
1541003798873145103,183,0,/imu_data_acquisition2,51050.0,0.0757446289062,0.0723876953125,0.730712890625,0.674621582031,-6.375,-58.5,-21.75,-3.04,2.75,8.47
1541003798880939960,184,0,/imu_data_acquisition2,51060.0,0.0789794921875,0.0693359375,0.728698730469,0.676696777344,-0.6875,-56.4375,-28.3125,-3.11,3.65,8.09
1541003798892024040,185,0,/imu_data_acquisition2,51070.0,0.0823364257812,0.0667724609375,0.726501464844,0.678955078125,4.125,-53.1875,-31.75,-3.27,4.04,7.43
1541003798904762983,186,0,/imu_data_acquisition2,51080.0,0.0853881835938,0.0645751953125,0.724243164062,0.681213378906,5.9375,-47.75,-33.125,-3.4,4.55,6.47
1541003798911151885,187,0,/imu_data_acquisition2,51089.0,0.0884399414062,0.0631713867188,0.722045898438,0.683288574219,11.8125,-41.625,-31.8125,-2.89,5.98,5.71
1541003798922034978,188,0,/imu_data_acquisition2,51100.0,0.0906982421875,0.06201171875,0.720336914062,0.684875488281,7.9375,-30.875,-24.4375,-2.84,5.47,5.62
1541003798935122966,189,0,/imu_data_acquisition2,51109.0,0.0919799804688,0.0611572265625,0.719116210938,0.68603515625,3.0,-20.375,-18.0,-2.86,4.85,6.71
1541003798940949916,190,0,/imu_data_acquisition2,51120.0,0.0926513671875,0.0604858398438,0.718322753906,0.686889648438,-0.9375,-12.625,-12.5,-2.91,4.84,7.17
1541003798952266931,191,0,/imu_data_acquisition2,51131.0,0.0928344726562,0.0597534179688,0.7177734375,0.687438964844,-4.6875,-8.75,-8.1875,-2.8,3.96,7.09
1541003798966363906,192,0,/imu_data_acquisition2,51144.0,0.0926513671875,0.0591430664062,0.717346191406,0.68798828125,-7.0625,-0.0625,-0.0625,-2.87,2.57,7.78
1541003798970989942,193,0,/imu_data_acquisition2,51150.0,0.0923461914062,0.0586547851562,0.716857910156,0.688537597656,-7.0,-2.25,-8.625,-2.49,2.99,8.02
1541003798981993913,194,0,/imu_data_acquisition2,51160.0,0.0919799804688,0.0582275390625,0.716430664062,0.689147949219,-7.0625,-1.1875,-8.625,-2.6,2.98,8.74
1541003798992832899,195,0,/imu_data_acquisition2,51170.0,0.0900268554688,0.0567626953125,0.716125488281,0.689819335938,-28.5625,4.0625,-8.0,-4.01,3.04,9.32
1541003799000632047,196,0,/imu_data_acquisition2,51179.0,0.0861206054688,0.0540161132812,0.715515136719,0.691162109375,-56.25,9.125,-15.875,-6.5,-4.28,8.55
1541003799013324975,197,0,/imu_data_acquisition2,51191.0,0.078857421875,0.0508422851562,0.714416503906,0.693359375,-87.9375,32.9375,-29.1875,-14.13,14.72,12.69
1541003799023170948,198,0,/imu_data_acquisition2,51200.0,0.0655517578125,0.0421752929688,0.714660644531,0.695129394531,-184.625,40.6875,-12.4375,-21.85,-10.5,20.19
1541003799030951023,199,0,/imu_data_acquisition2,51210.0,0.056396484375,0.0319213867188,0.713562011719,0.697570800781,-163.0,-9.125,-26.3125,7.48,12.81,1.3
1541003799043148040,200,0,/imu_data_acquisition2,51221.0,0.0382080078125,0.0177001953125,0.715270996094,0.697570800781,-15.0625,-0.0625,-0.0625,8.48,-1.68,0.27
1541003799053502082,201,0,/imu_data_acquisition2,51230.0,0.016357421875,0.00726318359375,0.715209960938,0.698669433594,-269.5,98.3125,-9.3125,2.96,-1.71,6.99
1541003799062392950,202,0,/imu_data_acquisition2,51241.0,-0.00714111328125,-0.00347900390625,0.713989257812,0.700134277344,-285.4375,110.3125,-22.3125,-4.15,-6.43,15.85
1541003799072705984,203,0,/imu_data_acquisition2,51251.0,-0.0291748046875,-0.014892578125,0.711364746094,0.702087402344,-279.4375,92.0,-38.5625,-2.51,-8.64,15.64
1541003799084448099,204,0,/imu_data_acquisition2,51261.0,-0.0458374023438,-0.0238037109375,0.707458496094,0.704833984375,-213.5,68.0,-55.25,-1.5,-12.0,12.6
1541003799091187000,205,0,/imu_data_acquisition2,51270.0,-0.0570068359375,-0.0291748046875,0.703369140625,0.707885742188,-137.125,51.8125,-59.6875,-4.56,-6.96,17.22
1541003799102574110,206,0,/imu_data_acquisition2,51280.0,-0.0631713867188,-0.0319213867188,0.69970703125,0.7109375,-73.5,31.6875,-56.0625,-0.62,-2.46,10.2
1541003799111720085,207,0,/imu_data_acquisition2,51290.0,-0.0671997070312,-0.0325317382812,0.696472167969,0.713684082031,-38.6875,31.375,-48.1875,-2.4,-4.0,11.3
1541003799123213052,208,0,/imu_data_acquisition2,51299.0,-0.0701293945312,-0.0325927734375,0.694519042969,0.71533203125,-24.6875,25.9375,-13.5,-2.29,-6.99,11.15
1541003799133294105,209,0,/imu_data_acquisition2,51310.0,-0.0706176757812,-0.0317993164062,0.693542480469,0.716247558594,2.8125,11.625,-14.625,-1.3,-4.39,10.19
1541003799142592906,210,0,/imu_data_acquisition2,51320.0,-0.0699462890625,-0.0309448242188,0.693664550781,0.716186523438,12.9375,2.125,1.8125,-1.31,-3.51,10.79
1541003799153162002,211,0,/imu_data_acquisition2,51331.0,-0.0685424804688,-0.0299682617188,0.694396972656,0.715698242188,19.75,-4.4375,10.4375,-1.03,-2.67,10.03
1541003799161406040,212,0,/imu_data_acquisition2,51339.0,-0.0667724609375,-0.029052734375,0.695373535156,0.714965820312,22.25,-7.5,14.5,-0.69,-1.12,9.94
1541003799174134016,213,0,/imu_data_acquisition2,51351.0,-0.0648803710938,-0.0281982421875,0.696472167969,0.714111328125,22.8125,-9.3125,16.0,-0.62,-0.38,10.03
1541003799182868957,214,0,/imu_data_acquisition2,51361.0,-0.0632934570312,-0.0275268554688,0.697387695312,0.71337890625,18.0,-8.625,13.875,-0.65,0.16,9.75
1541003799192615985,215,0,/imu_data_acquisition2,51369.0,-0.0623779296875,-0.0274047851562,0.697998046875,0.712829589844,9.0,-7.1875,9.75,-0.25,0.03,9.45
1541003799201615095,216,0,/imu_data_acquisition2,51380.0,-0.06201171875,-0.027587890625,0.698303222656,0.712585449219,1.4375,-4.5625,4.25,-0.42,0.04,9.39
1541003799212681055,217,0,/imu_data_acquisition2,51391.0,-0.0623779296875,-0.0280151367188,0.698303222656,0.712524414062,-6.625,-1.3125,-0.3125,-0.39,-0.11,9.44
1541003799225146055,218,0,/imu_data_acquisition2,51400.0,-0.063232421875,-0.02880859375,0.698059082031,0.712646484375,-13.75,1.375,-3.25,-0.48,-0.56,9.64
1541003799232491016,219,0,/imu_data_acquisition2,51410.0,-0.0643920898438,-0.0297241210938,0.697692871094,0.712890625,-17.125,1.8125,-5.125,-0.8,-1.66,9.86
1541003799243347883,220,0,/imu_data_acquisition2,51420.0,-0.0653076171875,-0.0307006835938,0.697265625,0.713134765625,-15.875,0.0625,-6.1875,-0.91,-1.83,9.63
1541003799252111911,221,0,/imu_data_acquisition2,51429.0,-0.0660400390625,-0.0316162109375,0.696960449219,0.71337890625,-13.4375,-1.875,-4.8125,-0.95,-2.33,10.18
1541003799262478113,222,0,/imu_data_acquisition2,51441.0,-6.103515625e-05,-6.103515625e-05,-6.103515625e-05,0.713439941406,-8.1875,-3.875,-2.1875,-1.09,-2.05,10.03
1541003799272504091,223,0,/imu_data_acquisition2,51450.0,-0.0662231445312,-0.0328979492188,0.696838378906,0.71337890625,-3.75,-4.8125,-0.0625,-1.0,-1.52,10.14
1541003799281440019,224,0,/imu_data_acquisition2,51460.0,-0.0659790039062,-0.0333862304688,0.696899414062,0.71337890625,-2.0,-6.3125,0.5625,-0.65,-1.36,9.62
1541003799293932914,225,0,/imu_data_acquisition2,51472.0,-0.065673828125,-0.0338745117188,0.696960449219,0.713317871094,-1.875,-6.75,0.8125,-1.09,-1.84,9.73
1541003799306356906,226,0,/imu_data_acquisition2,51485.0,-0.0651245117188,-0.0343627929688,0.697082519531,0.713195800781,0.75,-9.0,1.25,-0.89,-1.59,9.64
1541003799311301946,227,0,/imu_data_acquisition2,51490.0,-0.0642700195312,-0.0347290039062,0.697265625,0.713073730469,4.125,-9.5625,2.1875,-0.74,-1.51,9.62
1541003799327565908,228,0,/imu_data_acquisition2,51503.0,-0.0634765625,-0.0348510742188,0.697509765625,0.712890625,5.5,-8.0,2.4375,-0.27,-1.32,9.86
1541003799333533048,229,0,/imu_data_acquisition2,51510.0,-0.0628662109375,-0.0349731445312,0.69775390625,0.712707519531,4.3125,-6.625,3.75,-0.04,-1.0,9.47
1541003799341310024,230,0,/imu_data_acquisition2,51520.0,-0.0624389648438,-0.034912109375,0.697875976562,0.712646484375,4.375,-2.875,0.875,-0.32,-1.22,-0.01
1541003799355581045,231,0,/imu_data_acquisition2,51531.0,-0.0621337890625,-0.0348510742188,0.697875976562,0.712646484375,3.0,-2.0625,0.125,-0.33,-1.53,10.4
1541003799363850116,232,0,/imu_data_acquisition2,51541.0,-0.0618286132812,-0.0347900390625,0.697875976562,0.712707519531,3.0625,-1.875,0.0,-0.82,-1.61,10.54
1541003799370809078,233,0,/imu_data_acquisition2,51550.0,-0.0614013671875,-0.0347900390625,0.697937011719,0.712707519531,3.0,-3.75,0.3125,-0.22,-1.56,10.14
1541003799384360074,234,0,/imu_data_acquisition2,51560.0,-0.0140380859375,-6.103515625e-05,-6.103515625e-05,0.712646484375,3.875,-4.5,0.875,-0.4,-1.57,9.85
1541003799398017883,235,0,/imu_data_acquisition2,51575.0,-0.0604248046875,-0.034912109375,0.698120117188,0.712585449219,3.625,-0.0625,-0.0625,-0.24,-1.36,9.63
1541003799401945114,236,0,/imu_data_acquisition2,51580.0,-0.0604248046875,-0.034912109375,0.698120117188,0.712585449219,4.375,-5.75,1.5,-0.73,-1.33,10.06
1541003799414199113,237,0,/imu_data_acquisition2,51592.0,-0.059326171875,-0.0350952148438,0.698425292969,0.712341308594,3.25,-5.375,1.875,-0.58,-1.18,9.74
1541003799423480987,238,0,/imu_data_acquisition2,51601.0,-0.011962890625,-6.103515625e-05,-6.103515625e-05,0.712280273438,2.4375,-5.3125,1.6875,-0.6,-1.06,9.78
1541003799431358098,239,0,/imu_data_acquisition2,51610.0,-0.058837890625,-0.0352783203125,0.698547363281,0.712280273438,2.125,-4.0,1.4375,-0.54,-1.29,9.8
1541003799442399978,240,0,/imu_data_acquisition2,51620.0,-0.0584716796875,-0.035400390625,0.698669433594,0.712158203125,1.6875,-3.125,0.875,-0.5,-0.93,9.59
1541003799453471899,241,0,/imu_data_acquisition2,51630.0,-0.05810546875,-0.0355834960938,0.69873046875,0.712097167969,0.5625,-1.75,0.1875,-0.41,-1.17,9.79
1541003799462090015,242,0,/imu_data_acquisition2,51640.0,-0.05810546875,-0.0355834960938,0.69873046875,0.712097167969,-0.0625,-0.3125,-0.375,-0.58,-1.37,9.83
1541003799473407030,243,0,/imu_data_acquisition2,51651.0,-0.05810546875,-0.0355224609375,0.69873046875,0.712158203125,-0.4375,-0.0625,-0.75,-0.43,-1.35,9.92
1541003799486640930,244,0,/imu_data_acquisition2,51662.0,-0.05810546875,-0.0355224609375,0.69873046875,0.712158203125,-0.1875,0.625,-0.8125,-0.54,-1.19,9.79
1541003799491911888,245,0,/imu_data_acquisition2,51671.0,-0.0582885742188,-0.0353393554688,0.698608398438,0.712280273438,0.0625,1.1875,-0.875,-0.58,-1.35,9.88
1541003799503554105,246,0,/imu_data_acquisition2,51681.0,-0.0582885742188,-0.0353393554688,0.698608398438,0.712280273438,-0.25,1.1875,-0.875,-0.54,-1.2,9.42
1541003799515840053,247,0,/imu_data_acquisition2,51692.0,-0.0584106445312,-0.03515625,0.698547363281,0.712280273438,-0.4375,1.25,-0.8125,-0.82,-1.46,10.23
1541003799521902084,248,0,/imu_data_acquisition2,51701.0,-0.0586547851562,-0.0349731445312,0.698425292969,0.712463378906,-0.5625,0.8125,-1.5,-0.99,-1.25,10.05
1541003799533539056,249,0,/imu_data_acquisition2,51712.0,-0.0588989257812,-0.034912109375,0.698303222656,0.712524414062,-1.5625,1.9375,-1.375,-0.52,-1.27,9.7
1541003799546287059,250,0,/imu_data_acquisition2,51722.0,-0.0588989257812,-0.034912109375,0.698303222656,0.712524414062,-1.8125,1.5,-1.6875,-0.93,-1.2,9.63
1541003799553287982,251,0,/imu_data_acquisition2,51732.0,-0.0592651367188,-0.03515625,0.698059082031,0.712707519531,-3.125,0.375,-1.75,-0.38,-1.31,9.43
1541003799564595937,252,0,/imu_data_acquisition2,51742.0,-0.0592651367188,-0.03515625,0.698059082031,0.712707519531,-2.625,0.5625,-2.0625,-0.69,-1.44,10.01
1541003799571835041,253,0,/imu_data_acquisition2,51750.0,-0.0593872070312,-0.0353393554688,0.697937011719,0.712829589844,-2.5625,1.5625,-1.875,-0.59,-1.18,9.66
1541003799582215070,254,0,/imu_data_acquisition2,51760.0,-0.0596313476562,-0.035400390625,0.697814941406,0.712890625,-1.3125,3.0,-1.875,-0.39,-1.62,9.98
1541003799594105958,255,0,/imu_data_acquisition2,51772.0,-0.0598754882812,-0.0352783203125,0.697692871094,0.713012695312,-0.6875,3.8125,-1.5625,-0.5,-1.56,9.73
1541003799602835893,256,0,/imu_data_acquisition2,51781.0,-0.0601806640625,-0.0350952148438,0.697570800781,0.713134765625,-1.0,2.1875,-0.0625,-0.47,-1.53,10.0
1541003799612812042,257,0,/imu_data_acquisition2,51791.0,-0.0603637695312,-0.0350341796875,0.697448730469,0.713256835938,-0.5625,1.8125,-1.1875,-0.38,-1.36,9.75
1541003799623213052,258,0,/imu_data_acquisition2,51801.0,-0.0136108398438,-6.103515625e-05,-6.103515625e-05,0.713317871094,-0.4375,2.0625,-1.125,-0.74,-1.41,10.05
1541003799633538007,259,0,/imu_data_acquisition2,51810.0,-0.0606689453125,-0.0347900390625,0.697265625,0.71337890625,-0.9375,1.5625,-1.0,-0.57,-1.17,9.7
1541003799642450094,260,0,/imu_data_acquisition2,51821.0,-0.0608520507812,-0.03466796875,0.697204589844,0.713439941406,-1.5,1.4375,-1.25,-0.78,-1.38,9.68
1541003799654921054,261,0,/imu_data_acquisition2,51832.0,-0.0611572265625,-0.0346069335938,0.697143554688,0.713500976562,-1.875,1.625,-1.1875,-0.49,-1.3,9.66
1541003799664160013,262,0,/imu_data_acquisition2,51841.0,-0.0614013671875,-0.0345458984375,0.697021484375,0.713562011719,-1.4375,1.9375,-1.1875,-0.66,-1.56,9.79
1541003799672723054,263,0,/imu_data_acquisition2,51852.0,-0.0617065429688,-0.0344848632812,0.696960449219,0.713623046875,-0.9375,2.75,-0.9375,-0.79,-1.39,10.09
1541003799683676004,264,0,/imu_data_acquisition2,51861.0,-0.0620727539062,-0.0343017578125,0.696899414062,0.713684082031,-0.5,2.125,-0.9375,-0.32,-1.45,9.53
1541003799693213939,265,0,/imu_data_acquisition2,51871.0,-0.062255859375,-0.0341186523438,0.696838378906,0.713745117188,-0.5,3.25,-0.875,-0.53,-1.37,9.66
1541003799702999114,266,0,/imu_data_acquisition2,51882.0,-0.0625,-0.033935546875,0.69677734375,0.713806152344,-0.375,3.0,-1.0,-0.37,-1.57,9.85
1541003799715071916,267,0,/imu_data_acquisition2,51893.0,-0.0628662109375,-0.0336303710938,0.696594238281,0.713928222656,-0.5,2.8125,-0.875,-0.42,-1.25,9.8
1541003799721838951,268,0,/imu_data_acquisition2,51901.0,-0.0628662109375,-0.0336303710938,0.696594238281,0.713928222656,-0.5,2.8125,-0.875,-0.53,-1.67,9.85
1541003799733685970,269,0,/imu_data_acquisition2,51912.0,-0.0630493164062,-0.0335083007812,0.696533203125,0.713989257812,-1.4375,2.75,-1.6875,-0.62,-1.07,9.61
1541003799746678113,270,0,/imu_data_acquisition2,51923.0,-0.0632934570312,-0.033447265625,0.696411132812,0.714111328125,-2.875,2.3125,-1.4375,0.15,-1.66,7.99
1541003799755666017,271,0,/imu_data_acquisition2,51933.0,-0.0640869140625,-0.0332641601562,0.696228027344,0.714233398438,-1.9375,6.25,-0.6875,-0.87,-0.01,-0.01
1541003799763904094,272,0,/imu_data_acquisition2,51942.0,-6.103515625e-05,-6.103515625e-05,-6.103515625e-05,0.714233398438,-4.75,6.6875,-0.375,-0.13,-0.6,10.19
1541003799773395061,273,0,/imu_data_acquisition2,51949.0,-0.0648193359375,-0.0330810546875,0.696166992188,0.714172363281,-4.75,6.6875,-0.375,-0.13,-0.6,10.19
1541003799783947944,274,0,/imu_data_acquisition2,51962.0,-0.0653076171875,-0.0328979492188,0.695922851562,0.714416503906,-1.75,8.875,-3.25,-0.55,-1.55,10.1
1541003799794226884,275,0,/imu_data_acquisition2,51972.0,-0.06591796875,-0.032470703125,0.695678710938,0.714599609375,-2.6875,9.125,-2.75,-0.51,-1.7,9.38
1541003799804939985,276,0,/imu_data_acquisition2,51981.0,-0.0665893554688,-0.0321044921875,0.695434570312,0.714782714844,-2.875,12.25,-1.8125,-0.84,-1.87,10.59
1541003799813311100,277,0,/imu_data_acquisition2,51992.0,-0.0050048828125,-6.103515625e-05,-6.103515625e-05,0.714904785156,-3.125,11.375,-2.625,-0.28,-0.88,9.68
1541003799826071023,278,0,/imu_data_acquisition2,52004.0,-0.0694580078125,-0.0305786132812,0.694763183594,0.715209960938,-5.25,-0.0625,-0.0625,0.0,-1.37,9.74
1541003799830902099,279,0,/imu_data_acquisition2,52009.0,-0.0694580078125,-0.0305786132812,0.694763183594,0.715209960938,-5.25,13.375,-2.6875,0.0,-1.37,9.74
1541003799844270944,280,0,/imu_data_acquisition2,52023.0,-0.0707397460938,-0.0300903320312,0.694396972656,0.715454101562,-8.375,17.6875,-5.75,-0.07,-1.36,9.53
1541003799855190992,281,0,/imu_data_acquisition2,52033.0,-0.072265625,-0.029541015625,0.693908691406,0.7158203125,-11.375,21.25,-7.6875,-0.52,-3.82,9.58
1541003799862649917,282,0,/imu_data_acquisition2,52041.0,-0.0741577148438,-0.0289916992188,0.693298339844,0.716247558594,-11.5,25.75,-12.5,1.07,0.94,8.74
1541003799872708082,283,0,/imu_data_acquisition2,52050.0,-0.0763549804688,-0.0281982421875,0.6923828125,0.716918945312,-11.5,25.75,-12.5,1.07,0.94,8.74
1541003799884182929,284,0,/imu_data_acquisition2,52060.0,-0.0789184570312,-0.0270385742188,0.691223144531,0.717834472656,-12.0,32.0625,-15.25,0.26,-2.21,8.83
1541003799892584085,285,0,/imu_data_acquisition2,52071.0,-0.082275390625,-0.025634765625,0.690246582031,0.718444824219,-8.0,38.5,-4.4375,-0.6,-3.27,9.62
1541003799905529022,286,0,/imu_data_acquisition2,52082.0,-0.0849609375,-0.02392578125,0.688720703125,0.719665527344,-6.625,42.3125,-26.625,-1.87,-1.72,9.69
1541003799914182901,287,0,/imu_data_acquisition2,52092.0,-0.0877685546875,-0.02197265625,0.686767578125,0.721252441406,-8.8125,40.5,-25.75,0.88,-2.67,9.65
1541003799921396970,288,0,/imu_data_acquisition2,52100.0,-0.0906372070312,-0.0202026367188,0.684875488281,0.722717285156,-8.8125,40.5,-25.75,0.88,-2.67,9.65
1541003799932343006,289,0,/imu_data_acquisition2,52111.0,-0.0936279296875,-0.017822265625,0.682678222656,0.724487304688,-4.75,47.125,-30.0625,-0.89,-2.22,9.84
1541003799945143938,290,0,/imu_data_acquisition2,52122.0,-0.0967407226562,-0.0153198242188,0.68017578125,0.726501464844,1.4375,51.375,-39.3125,-0.76,-2.28,9.68
1541003799952842950,291,0,/imu_data_acquisition2,52132.0,-0.0995483398438,-0.0123901367188,0.677307128906,0.728820800781,6.8125,53.3125,-45.75,-0.88,-2.5,9.49
1541003799964107036,292,0,/imu_data_acquisition2,52142.0,-0.102111816406,-0.00909423828125,0.674072265625,0.731506347656,14.625,56.3125,-52.375,-1.21,-3.41,9.92
1541003799972978115,293,0,/imu_data_acquisition2,52151.0,-0.104370117188,-0.0052490234375,0.670349121094,0.734680175781,14.625,56.3125,-0.0625,-1.47,-2.9,9.76
1541003799984370946,294,0,/imu_data_acquisition2,52161.0,-0.106018066406,-0.00042724609375,0.666015625,0.738342285156,27.75,60.0625,-60.4375,-1.47,-2.9,9.76
1541003799994621038,295,0,/imu_data_acquisition2,52173.0,-0.107116699219,0.005126953125,0.661376953125,0.742309570312,39.9375,64.9375,-63.9375,-1.88,-2.19,9.73
1541003800005719900,296,0,/imu_data_acquisition2,52183.0,-0.108276367188,0.0108642578125,0.65673828125,0.746215820312,44.5,65.5625,-62.5625,-1.98,-0.01,-0.01
1541003800013398885,297,0,/imu_data_acquisition2,52192.0,-0.109130859375,0.0169067382812,0.652160644531,0.75,48.875,64.875,-60.1875,-1.92,-2.0,9.78
1541003800023030996,298,0,/imu_data_acquisition2,52201.0,-0.109741210938,0.0231323242188,0.647644042969,0.753662109375,48.875,64.875,-60.1875,-1.92,-2.0,9.78
1541003800032366991,299,0,/imu_data_acquisition2,52210.0,-0.109802246094,0.0298461914062,0.643188476562,0.757202148438,56.5,64.9375,-58.0,-2.07,-2.37,10.31
1541003800044924020,300,0,/imu_data_acquisition2,52223.0,-0.109252929688,0.037109375,0.638793945312,0.760681152344,78.125,66.5,-56.0,-1.85,-2.02,9.96
1541003800054764032,301,0,/imu_data_acquisition2,52233.0,-0.107971191406,0.0451049804688,0.634338378906,0.76416015625,89.3125,68.25,-56.125,-1.66,-2.1,10.47
1541003800065391063,302,0,/imu_data_acquisition2,52243.0,-0.106079101562,0.0537719726562,0.629699707031,0.767700195312,103.6875,71.625,-57.5625,-1.52,-1.76,9.86
1541003800074099063,303,0,/imu_data_acquisition2,52253.0,-0.103454589844,0.0634155273438,0.624816894531,0.771301269531,114.5625,76.5,-58.8125,-1.81,-2.62,10.48
1541003800236151933,304,0,/imu_data_acquisition2,52260.0,-0.100341796875,0.0739135742188,0.61962890625,0.77490234375,114.5625,76.5,-58.8125,-1.81,-2.62,10.48
1541003800242265939,305,0,/imu_data_acquisition2,52272.0,-6.103515625e-05,-6.103515625e-05,-6.103515625e-05,0.778564453125,123.875,78.375,-12.6875,-2.56,-2.11,10.85
1541003800243920087,306,0,/imu_data_acquisition2,52283.0,-0.0916137695312,0.0967407226562,-6.103515625e-05,0.782653808594,157.875,72.75,-73.0625,-1.8,0.45,10.2
1541003800246560096,307,0,/imu_data_acquisition2,52293.0,-0.0855102539062,0.109069824219,0.601257324219,0.786926269531,159.75,75.9375,-72.1875,3.33,10.59,11.58
1541003800248193025,308,0,/imu_data_acquisition2,52299.0,-0.0794067382812,0.121704101562,0.594360351562,0.790954589844,159.75,75.9375,-72.1875,3.33,10.59,11.58
1541003800249278068,309,0,/imu_data_acquisition2,52309.0,-0.0751953125,0.133544921875,0.588928222656,0.793518066406,132.5625,82.1875,-51.375,5.09,13.73,15.75
1541003800250335931,310,0,/imu_data_acquisition2,52321.0,-0.0748901367188,0.141540527344,-6.103515625e-05,0.792663574219,59.125,75.25,6.375,6.98,-0.01,-0.01
1541003800251274108,311,0,/imu_data_acquisition2,52332.0,-0.012451171875,-6.103515625e-05,-6.103515625e-05,0.788818359375,24.25,4.375,116.4375,7.08,3.21,14.21
1541003800252137899,312,0,/imu_data_acquisition2,52342.0,-0.0720825195312,0.148376464844,0.599731445312,0.783020019531,24.25,4.375,116.4375,6.29,2.23,13.03
1541003800253895998,313,0,/imu_data_acquisition2,52349.0,-6.103515625e-05,-6.103515625e-05,-6.103515625e-05,0.77587890625,34.25,-27.875,150.5625,6.29,2.23,13.03
1541003800255490064,314,0,/imu_data_acquisition2,52359.0,-0.0590209960938,0.149108886719,0.620483398438,0.767639160156,42.75,-48.625,175.3125,5.03,1.44,12.57
1541003800256553888,315,0,/imu_data_acquisition2,52372.0,-0.05029296875,0.148315429688,0.632507324219,0.758544921875,45.6875,-63.8125,190.5625,1.14,-0.79,10.86
1541003800259537935,316,0,/imu_data_acquisition2,52382.0,-0.0411376953125,0.146606445312,0.644897460938,0.748962402344,41.8125,-74.625,198.625,-0.28,-2.23,10.04
1541003800262145996,317,0,/imu_data_acquisition2,52392.0,-0.0322265625,0.143859863281,0.657409667969,0.738952636719,31.4375,-81.0625,201.1875,-2.69,-5.35,9.61
1541003800264451980,318,0,/imu_data_acquisition2,52399.0,-0.0241088867188,0.140380859375,0.669555664062,0.72900390625,19.1875,-81.0625,196.125,-2.69,-5.35,9.61
1541003800271168947,319,0,/imu_data_acquisition2,52409.0,-0.01708984375,0.136596679688,0.680480957031,0.719665527344,9.9375,-75.875,178.9375,-3.58,-6.14,9.9
1541003800274266958,320,0,/imu_data_acquisition2,52424.0,-0.0110473632812,0.132873535156,0.689697265625,0.711730957031,5.0625,-69.3125,151.25,-4.2,-5.7,10.31
1541003800281292915,321,0,/imu_data_acquisition2,52432.0,-0.005859375,-6.103515625e-05,-6.103515625e-05,0.70556640625,1.4375,-64.6875,117.0625,-4.37,-4.76,11.09
1541003800283767938,322,0,/imu_data_acquisition2,52442.0,-0.001953125,0.125305175781,-6.103515625e-05,0.701477050781,-7.1875,-58.75,80.125,-4.52,-3.93,11.37
1541003800286695003,323,0,/imu_data_acquisition2,52449.0,0.00079345703125,0.12109375,0.704223632812,0.699584960938,-16.0625,-54.75,41.625,-4.52,-3.93,11.37
1541003800287987947,324,0,/imu_data_acquisition2,52461.0,0.00299072265625,0.116638183594,0.70458984375,0.699951171875,-19.1875,-56.1875,3.3125,-4.43,-2.96,11.05
1541003800294691085,325,0,/imu_data_acquisition2,52472.0,0.00518798828125,0.111999511719,0.702819824219,0.702453613281,-18.0,-59.75,-32.5,-4.5,0.16,10.34
1541003800305185079,326,0,/imu_data_acquisition2,52483.0,0.00750732421875,0.107421875,0.699279785156,0.706665039062,-14.375,-63.25,-60.75,-4.26,3.03,9.4
1541003800318135023,327,0,/imu_data_acquisition2,52495.0,0.012939453125,0.0989379882812,0.688842773438,0.718017578125,-3.5625,-65.75,-93.25,-3.71,5.59,7.6
1541003800323059082,328,0,/imu_data_acquisition2,52502.0,0.012939453125,0.0989379882812,0.688842773438,0.718017578125,-3.5625,-65.75,-93.25,-3.71,5.59,7.6
1541003800334120988,329,0,/imu_data_acquisition2,52511.0,0.0157470703125,0.0952758789062,0.682739257812,0.724243164062,-0.4375,-62.3125,-98.4375,-3.22,6.64,7.04
1541003800346571922,330,0,/imu_data_acquisition2,52524.0,0.018310546875,0.0921630859375,0.6767578125,0.730224609375,2.8125,-55.3125,-96.25,-1.64,9.34,7.35
1541003800353840112,331,0,/imu_data_acquisition2,52532.0,0.0205688476562,0.0896606445312,0.67138671875,0.735412597656,4.125,-46.125,-4.9375,-1.14,9.67,7.24
1541003800366235971,332,0,/imu_data_acquisition2,52544.0,0.0225219726562,0.0877075195312,0.667053222656,0.739501953125,6.0,-32.8125,-45.875,-0.55,9.48,7.37
1541003800374600887,333,0,/imu_data_acquisition2,52550.0,0.0244140625,0.0860595703125,0.6640625,0.742309570312,6.0,-32.8125,-45.875,-0.55,9.48,7.37
1541003800381099939,334,0,/imu_data_acquisition2,52560.0,0.026611328125,0.0848999023438,0.66259765625,0.743713378906,11.1875,-29.1875,-21.5625,-0.08,9.49,7.54
1541003800394056081,335,0,/imu_data_acquisition2,52572.0,0.0292358398438,0.0841674804688,0.662658691406,0.743591308594,17.3125,-27.375,4.1875,0.56,7.95,7.49
1541003800406873941,336,0,/imu_data_acquisition2,52583.0,0.032470703125,0.0836791992188,0.664184570312,0.742126464844,23.75,-27.625,28.625,0.62,6.01,8.26
1541003800414534091,337,0,/imu_data_acquisition2,52593.0,0.0364379882812,0.0836791992188,0.6669921875,0.739440917969,32.6875,-27.4375,49.5625,0.3,4.03,9.08
1541003800422758102,338,0,/imu_data_acquisition2,52600.0,0.0409545898438,0.0839233398438,0.670837402344,0.735717773438,39.5625,-27.8125,67.5,0.3,4.03,9.08
1541003800434544086,339,0,/imu_data_acquisition2,52611.0,0.0458374023438,0.083984375,0.675476074219,0.731140136719,40.75,-31.5625,81.3125,0.0,2.37,9.12
1541003800444473028,340,0,/imu_data_acquisition2,52622.0,0.05078125,0.0836181640625,0.680541992188,0.726135253906,37.1875,-35.0,89.125,-0.58,0.02,9.66
1541003800467890977,342,0,/imu_data_acquisition2,52644.0,0.0601196289062,0.0814819335938,0.690551757812,0.716125488281,14.25,-41.6875,80.875,-1.33,-1.93,9.62
1541003800471858024,343,0,/imu_data_acquisition2,52651.0,0.06396484375,0.0794067382812,0.695129394531,0.711608886719,14.25,-41.6875,80.875,-1.33,-1.93,9.62
1541003800483820915,344,0,/imu_data_acquisition2,52661.0,0.0673828125,0.0767822265625,0.698974609375,0.707824707031,6.75,-43.625,68.3125,-1.52,-1.7,9.39
1541003800494220018,345,0,/imu_data_acquisition2,52672.0,0.070556640625,0.0739135742188,0.701782226562,0.705017089844,2.9375,-45.5625,52.5625,-1.88,-1.04,9.11
1541003800504046916,346,0,/imu_data_acquisition2,52682.0,0.0735473632812,0.0709228515625,0.703674316406,0.703186035156,-0.625,-14.5625,-0.0625,-2.38,-0.4,8.92
1541003800516091108,347,0,/imu_data_acquisition2,52693.0,0.076171875,0.0677490234375,0.70458984375,0.702270507812,-4.375,-46.4375,20.125,-2.54,1.05,8.76
1541003800522166013,348,0,/imu_data_acquisition2,52700.0,0.0787353515625,0.0647583007812,0.704528808594,0.702270507812,-3.6875,-46.875,4.375,-2.54,1.05,8.76
1541003800531697034,349,0,/imu_data_acquisition2,52710.0,0.0814208984375,-6.103515625e-05,-6.103515625e-05,0.703002929688,-0.9375,-46.5,-7.875,-2.87,1.87,9.43
1541003800545809984,350,0,/imu_data_acquisition2,52722.0,0.0841064453125,0.0595092773438,0.702331542969,0.704345703125,1.6875,-13.0,-0.0625,-3.08,2.64,9.55
1541003800554574966,351,0,/imu_data_acquisition2,52732.0,-6.103515625e-05,-6.103515625e-05,-6.103515625e-05,0.7060546875,2.8125,-45.25,-25.375,-2.72,4.22,7.01
1541003800564610958,352,0,/imu_data_acquisition2,52743.0,0.0897216796875,0.0552978515625,0.698364257812,0.707946777344,7.8125,-43.0625,-29.75,-2.47,5.67,6.4
1541003800573846101,353,0,/imu_data_acquisition2,52751.0,0.0922241210938,0.053955078125,0.696411132812,0.709655761719,9.6875,-35.25,-27.875,-2.47,5.67,6.4
1541003800582788944,354,0,/imu_data_acquisition2,52760.0,0.0940551757812,0.0530395507812,0.694763183594,0.711059570312,7.25,-25.875,-22.9375,-2.31,5.71,6.37
1541003800597873926,355,0,/imu_data_acquisition2,52772.0,0.0950927734375,0.0523071289062,0.693725585938,0.712036132812,2.25,-16.25,-15.0,-2.2,5.37,5.34
1541003800606177091,356,0,/imu_data_acquisition2,52784.0,0.0952758789062,0.0517578125,0.693237304688,0.712524414062,-11.75,5.5,-3.3125,-2.34,4.38,5.71
1541003800617207050,357,0,/imu_data_acquisition2,52794.0,0.09423828125,0.0513916015625,0.693115234375,0.712768554688,-11.75,5.5,-3.3125,-4.24,1.53,9.19
1541003800623117923,358,0,/imu_data_acquisition2,52801.0,0.0912475585938,0.051025390625,0.693298339844,0.713012695312,-28.875,21.0625,-1.9375,-4.24,1.53,9.19
1541003800633681058,359,0,/imu_data_acquisition2,52812.0,0.0847778320312,0.049072265625,0.693725585938,0.713562011719,-71.5,36.9375,-2.625,-5.51,-4.83,9.16
1541003800642112970,360,0,/imu_data_acquisition2,52820.0,0.0756225585938,0.0460815429688,0.693359375,0.715148925781,-103.0,48.4375,-0.0625,-7.18,-1.35,9.23
1541003800655098915,361,0,/imu_data_acquisition2,52834.0,-6.103515625e-05,-6.103515625e-05,-6.103515625e-05,0.7177734375,-162.75,81.875,-34.5,-7.13,16.83,-0.01
1541003800664712905,362,0,/imu_data_acquisition2,52842.0,-6.103515625e-05,-6.103515625e-05,-6.103515625e-05,0.721862792969,-196.0625,75.25,-59.375,-7.13,16.83,12.74
1541003800671812057,363,0,/imu_data_acquisition2,52850.0,0.0302734375,0.0271606445312,0.685852050781,0.726623535156,-186.0,43.125,-73.0,1.4,21.85,5.74
1541003800683198928,364,0,/imu_data_acquisition2,52861.0,0.0117797851562,0.0158081054688,0.684143066406,0.729064941406,-251.375,51.125,-36.25,0.66,-10.84,10.23
1541003800696372985,365,0,/imu_data_acquisition2,52874.0,-0.0138549804688,0.00286865234375,-6.103515625e-05,0.728881835938,-326.6875,95.75,1.625,-7.1,-8.64,20.03
1541003800705739021,366,0,/imu_data_acquisition2,52884.0,-0.0372924804688,-0.00830078125,0.681945800781,0.730407714844,-292.5625,94.4375,-37.25,-0.25,-4.73,10.63
1541003800715564966,367,0,/imu_data_acquisition2,52894.0,-0.0501098632812,-0.0167846679688,0.676513671875,0.734497070312,-177.9375,33.0,-82.5625,-2.91,-10.5,14.37
1541003800723375082,368,0,/imu_data_acquisition2,52900.0,-0.0574340820312,-0.0233154296875,0.671508789062,0.738403320312,-114.75,5.0625,-13.5625,-2.91,-10.5,14.37
1541003800732234001,369,0,/imu_data_acquisition2,52911.0,-0.0645141601562,-0.0259399414062,0.66845703125,0.740539550781,-81.5625,36.1875,-43.0,-2.04,0.1,11.84
1541003800742538928,370,0,/imu_data_acquisition2,52920.0,-0.0670776367188,-0.025390625,0.665405273438,0.743041992188,-17.8125,28.125,-13.625,-0.69,-2.76,10.28
1541003800754095077,371,0,/imu_data_acquisition2,52931.0,-0.0704345703125,-0.0255737304688,0.663635253906,0.744323730469,-30.3125,26.375,-24.375,-2.34,-3.37,10.65
1541003800764794111,372,0,/imu_data_acquisition2,52943.0,-0.0715942382812,-0.0244750976562,0.662536621094,0.745178222656,-1.1875,19.875,-15.375,-1.85,-4.5,11.12
1541003800775398015,373,0,/imu_data_acquisition2,52952.0,-0.0714721679688,-0.0234985351562,0.662536621094,0.745239257812,8.9375,7.9375,0.4375,-1.14,-3.16,10.15
1541003800781878948,374,0,/imu_data_acquisition2,52960.0,-0.0702514648438,-0.0223999023438,0.663208007812,0.744812011719,19.1875,-0.625,9.875,-1.01,-2.1,10.07
1541003800792633056,375,0,/imu_data_acquisition2,52970.0,-0.0687255859375,-0.0214233398438,0.664245605469,0.744018554688,20.4375,-4.1875,15.75,-0.77,-1.08,9.78
1541003800805022001,376,0,/imu_data_acquisition2,52983.0,-0.0670166015625,-0.0205688476562,0.665466308594,0.7431640625,21.6875,-7.0,18.0,-0.44,-0.12,10.18
1541003800814490079,377,0,/imu_data_acquisition2,52992.0,-0.0654907226562,-0.0198974609375,0.666564941406,0.742309570312,18.25,-7.5,16.375,-0.27,0.35,9.67
1541003800822870016,378,0,/imu_data_acquisition2,53000.0,-0.0645141601562,-0.0196533203125,0.667297363281,0.74169921875,10.3125,-6.0,11.1875,-0.62,-0.04,9.76
1541003800834363937,379,0,/imu_data_acquisition2,53010.0,-0.0641479492188,-0.019775390625,0.667663574219,0.741394042969,1.625,-4.4375,5.6875,-0.62,-0.53,9.71
1541003800840801000,380,0,/imu_data_acquisition2,53020.0,-0.064208984375,-0.0202026367188,0.667724609375,0.741333007812,-4.0,-3.375,0.8125,-0.51,-0.43,9.7
1541003800855041980,381,0,/imu_data_acquisition2,53033.0,-0.0646362304688,-0.0209350585938,0.667602539062,0.741394042969,-9.25,-2.4375,-2.375,-0.7,-1.44,9.71
1541003800863414049,382,0,/imu_data_acquisition2,53041.0,-0.0653686523438,-0.0217895507812,0.667358398438,0.741577148438,-13.0625,-1.75,-3.875,-1.13,-1.48,9.94
1541003800871567964,383,0,/imu_data_acquisition2,53050.0,-0.0660400390625,-0.0225830078125,0.667053222656,0.741760253906,-11.875,-1.6875,-4.3125,-1.08,-2.17,10.04
