%time,field.header.seq,field.header.stamp,field.header.frame_id,field.time_stamp,field.quat_x,field.quat_y,field.quat_z,field.quat_w,field.gyro_x,field.gyro_y,field.gyro_z,field.accel_x,field.accel_y,field.accel_z
1541003225148720979,1,0,/imu_data_acquisition2,30764.0,-0.0029296875,0.132507324219,0.727355957031,0.67333984375,5.0,-52.8125,-69.25,-1.37,2.36,9.12
1541003225151287078,2,0,/imu_data_acquisition2,30774.0,-0.0029296875,0.132507324219,0.727355957031,0.67333984375,4.375,-54.0,-73.9375,-0.02,4.08,8.16
1541003225156162023,3,0,/imu_data_acquisition2,30781.0,-6.103515625e-05,-6.103515625e-05,-6.103515625e-05,0.678466796875,4.375,-54.0,-73.9375,-0.02,4.08,8.16
1541003225166546106,4,0,/imu_data_acquisition2,30791.0,0.00250244140625,0.126831054688,0.718872070312,0.683471679688,3.3125,-53.75,-71.8125,0.73,5.32,7.81
1541003225178641080,5,0,/imu_data_acquisition2,30803.0,0.00506591796875,-6.103515625e-05,-6.103515625e-05,0.687805175781,2.5,-50.75,-63.125,1.25,5.68,7.79
1541003225191239118,6,0,/imu_data_acquisition2,30814.0,0.00738525390625,0.121337890625,0.712341308594,0.691223144531,-0.3125,-46.8125,-48.5,0.67,5.13,9.72
1541003225200138092,7,0,/imu_data_acquisition2,30824.0,0.00970458984375,0.118591308594,0.710510253906,0.693542480469,-2.0625,-45.1875,-15.1875,0.05,4.83,9.87
1541003225209134101,8,0,/imu_data_acquisition2,30833.0,0.01220703125,0.115661621094,0.709655761719,0.694885253906,-2.75,-47.25,-14.1875,0.05,4.83,-0.01
1541003225216852903,9,0,/imu_data_acquisition2,30841.0,0.01513671875,0.112060546875,0.710388183594,0.694702148438,-7.1875,-6.0,-0.0625,-0.66,4.54,9.72
1541003225230159997,10,0,/imu_data_acquisition2,30854.0,0.01806640625,-6.103515625e-05,-6.103515625e-05,0.694458007812,-7.1875,-6.0,-0.0625,-2.38,3.37,7.9
1541003225241714954,11,0,/imu_data_acquisition2,30864.0,0.020751953125,0.104614257812,0.712280273438,0.693786621094,-11.75,-52.625,19.6875,-3.25,3.3,8.29
1541003225251219034,12,0,/imu_data_acquisition2,30875.0,0.022216796875,0.100769042969,0.713684082031,0.692810058594,-21.8125,-42.0,22.8125,-4.46,2.98,7.66
1541003225258375883,13,0,/imu_data_acquisition2,30883.0,0.0231323242188,0.09716796875,0.714904785156,0.692016601562,-24.1875,-36.1875,18.375,-4.46,2.98,7.66
1541003225269345045,14,0,/imu_data_acquisition2,30892.0,0.0232543945312,0.0938720703125,0.715698242188,0.691650390625,-28.0625,-27.5625,10.625,-5.13,2.81,7.01
1541003225282661914,15,0,/imu_data_acquisition2,30905.0,0.0218505859375,0.0908813476562,0.715881347656,0.691955566406,-36.6875,-12.5625,-1.9375,-12.23,-1.78,7.63
1541003225290914058,16,0,/imu_data_acquisition2,30914.0,0.0159301757812,0.087890625,0.714965820312,0.693420410156,-72.9375,23.5625,-25.1875,-12.39,-2.8,6.31
1541003225301426887,17,0,/imu_data_acquisition2,30924.0,0.00830078125,0.0844116210938,0.712219238281,0.696838378906,-90.125,31.4375,-58.875,-13.02,-0.89,6.37
1541003225311701059,18,0,/imu_data_acquisition2,30934.0,-0.000244140625,0.08154296875,0.707153320312,0.702331542969,-90.125,42.75,-96.125,-13.02,-0.89,6.37
1541003225319487094,19,0,/imu_data_acquisition2,30942.0,-0.0096435546875,0.0790405273438,0.700134277344,0.709533691406,-92.5,51.0625,-127.6875,-13.23,1.02,6.96
1541003225329034090,20,0,/imu_data_acquisition2,30954.0,-0.0195922851562,0.076416015625,0.692016601562,0.717590332031,-96.4375,53.5625,-144.5,-12.95,7.35,9.95
1541003225346509933,21,0,/imu_data_acquisition2,30964.0,-0.0139770507812,-6.103515625e-05,-6.103515625e-05,0.725280761719,-105.5625,46.4375,-141.6875,-6.88,10.26,14.43
1541003225353367090,22,0,/imu_data_acquisition2,30977.0,-0.0458374023438,0.0607299804688,0.672607421875,0.736083984375,-107.1875,-3.8125,-82.875,-0.18,-2.06,8.08
1541003225358191967,23,0,/imu_data_acquisition2,30982.0,-0.0458374023438,0.0607299804688,0.672607421875,0.736083984375,-107.1875,-3.8125,-82.875,-0.18,-2.06,8.08
1541003225370718955,24,0,/imu_data_acquisition2,30993.0,-0.05078125,0.0560913085938,0.670593261719,0.737915039062,-77.375,-1.3125,-38.5625,-4.78,-0.67,-0.01
1541003225381107091,25,0,/imu_data_acquisition2,31004.0,-0.0531616210938,0.0545043945312,0.669738769531,0.738708496094,-32.375,5.5,-16.5625,-1.1,-0.9,-0.01
1541003225389995098,26,0,/imu_data_acquisition2,31014.0,-0.0552368164062,0.0537719726562,0.669311523438,0.738952636719,-23.6875,9.6875,-7.25,-1.45,-1.5,10.03
1541003225403671026,27,0,/imu_data_acquisition2,31025.0,-0.0563354492188,0.05419921875,-6.103515625e-05,0.739074707031,-5.6875,12.5625,-2.9375,-2.39,-1.73,10.8
1541003225410428047,28,0,/imu_data_acquisition2,31034.0,-0.0565185546875,0.05517578125,0.669311523438,0.73876953125,5.5625,9.6875,4.9375,-1.66,-0.62,10.35
1541003225418595075,29,0,/imu_data_acquisition2,31043.0,-0.0560302734375,0.0559692382812,0.669982910156,0.738159179688,9.625,3.0625,10.75,-1.66,-0.62,10.35
1541003225427474021,30,0,/imu_data_acquisition2,31052.0,-0.0552368164062,0.0565795898438,-6.103515625e-05,0.737487792969,10.5,-0.8125,12.875,-1.63,0.52,10.1
1541003225440617084,31,0,/imu_data_acquisition2,31065.0,-0.0546264648438,0.0568237304688,0.67138671875,0.736877441406,6.8125,-2.8125,11.4375,-1.13,0.91,9.91
1541003225452284097,32,0,/imu_data_acquisition2,31076.0,-0.05419921875,0.056884765625,0.671936035156,0.736450195312,-0.125,-2.125,4.75,-1.52,0.86,10.29
1541003225458103895,33,0,/imu_data_acquisition2,31082.0,-0.0540161132812,0.0567626953125,0.672241210938,0.736206054688,-0.125,-2.125,4.75,-1.52,0.86,10.29
1541003225469060897,34,0,/imu_data_acquisition2,31093.0,-0.0540161132812,0.056396484375,0.67236328125,0.736083984375,-2.75,-3.125,1.8125,-1.33,0.36,9.77
1541003225481764078,35,0,/imu_data_acquisition2,31103.0,-0.0540161132812,0.0559692382812,0.672424316406,0.736083984375,-3.875,-3.875,0.3125,-1.43,-0.01,10.26
1541003225490262985,36,0,/imu_data_acquisition2,31115.0,-0.0540161132812,0.055419921875,0.672424316406,0.736083984375,-3.875,-4.625,-0.0625,-1.62,-0.13,9.95
1541003225502722024,37,0,/imu_data_acquisition2,31126.0,-0.053955078125,0.054931640625,0.672485351562,0.736083984375,-1.875,-4.6875,0.75,-1.53,-0.08,9.71
1541003225509232044,38,0,/imu_data_acquisition2,31133.0,-0.0537719726562,0.0545654296875,0.672546386719,0.736083984375,-1.875,-4.6875,0.75,-1.53,-0.08,9.71
1541003225517359972,39,0,/imu_data_acquisition2,31142.0,-0.0535278320312,0.05419921875,0.672668457031,0.736022949219,-0.875,-5.0625,1.375,-1.57,-0.06,9.63
1541003225530983924,40,0,/imu_data_acquisition2,31154.0,-0.0532836914062,0.0538940429688,0.6728515625,0.735900878906,-0.375,-4.75,2.125,-1.7,-0.22,10.1
1541003225541872978,41,0,/imu_data_acquisition2,31164.0,-6.103515625e-05,-6.103515625e-05,-6.103515625e-05,0.735778808594,0.4375,-5.6875,2.5,-1.56,-0.09,9.77
1541003225551441907,42,0,/imu_data_acquisition2,31176.0,-0.0525512695312,0.0533447265625,0.673156738281,0.735656738281,0.625,-4.4375,-0.0625,-1.62,0.04,-0.01
1541003225559648990,43,0,/imu_data_acquisition2,31183.0,-0.0523071289062,0.0531616210938,0.67333984375,0.735534667969,0.625,-4.4375,2.5,-1.62,0.04,10.05
1541003225568178892,44,0,/imu_data_acquisition2,31192.0,-0.052001953125,0.0528564453125,0.673522949219,0.735412597656,0.25,-5.4375,2.5625,-1.51,-0.12,9.86
1541003225577297925,45,0,/imu_data_acquisition2,31202.0,-0.0047607421875,-6.103515625e-05,-6.103515625e-05,0.735290527344,0.25,-5.4375,2.75,-1.54,0.24,9.59
1541003225591689109,46,0,/imu_data_acquisition2,31216.0,-0.05126953125,0.0521850585938,0.673950195312,0.735168457031,-0.0625,-6.1875,2.6875,-1.48,0.04,-0.01
1541003225602700948,47,0,/imu_data_acquisition2,31225.0,-0.004150390625,-6.103515625e-05,-6.103515625e-05,0.735046386719,0.5,-3.75,2.4375,-1.48,0.04,9.98
1541003225609285116,48,0,/imu_data_acquisition2,31233.0,-0.05078125,0.0517578125,0.674255371094,0.734924316406,0.625,-0.0625,-0.0625,-1.11,-0.03,9.91
1541003225618868112,49,0,/imu_data_acquisition2,31242.0,-0.0504760742188,0.051513671875,0.674438476562,0.734802246094,0.75,-0.0625,-0.0625,-1.31,-0.13,10.11
1541003225629112958,50,0,/imu_data_acquisition2,31253.0,-0.0501098632812,0.0513305664062,0.674621582031,0.734680175781,0.9375,-0.0625,-0.0625,-1.36,-0.12,10.03
1541003225639601945,51,0,/imu_data_acquisition2,31264.0,-0.0496215820312,0.051025390625,0.674865722656,0.734497070312,1.6875,-6.25,3.5625,-1.25,-0.01,-0.01
1541003225653721094,52,0,/imu_data_acquisition2,31278.0,-0.0491333007812,0.05078125,0.675109863281,0.734313964844,1.9375,-5.8125,3.4375,-1.26,-0.05,10.0
1541003225659730911,53,0,/imu_data_acquisition2,31284.0,-0.0486450195312,0.0504760742188,0.675354003906,0.734191894531,1.9375,-0.0625,-0.0625,-1.26,-0.05,10.0
1541003225668237924,54,0,/imu_data_acquisition2,31292.0,-0.0481567382812,0.05029296875,0.675537109375,0.734008789062,1.6875,-4.8125,3.4375,-1.11,-0.01,-0.01
1541003225679003000,55,0,/imu_data_acquisition2,31302.0,-0.0478515625,0.0501098632812,0.67578125,0.73388671875,0.9375,-0.0625,-0.0625,-1.24,0.0,10.05
1541003225690610885,56,0,/imu_data_acquisition2,31315.0,-0.047607421875,0.0499877929688,0.675903320312,0.733764648438,1.0,-2.625,2.5,-1.33,0.08,9.91
1541003225701952934,57,0,/imu_data_acquisition2,31326.0,-0.04736328125,0.0499267578125,0.676086425781,0.733642578125,0.6875,-0.0625,-0.0625,-1.14,0.07,9.98
1541003225709397077,58,0,/imu_data_acquisition2,31333.0,-0.0471801757812,0.0498046875,0.676208496094,0.733520507812,0.5625,-2.0,1.8125,-1.14,0.07,9.98
1541003225718174934,59,0,/imu_data_acquisition2,31342.0,-0.0470581054688,0.0497436523438,0.67626953125,0.733459472656,0.5625,-1.0625,1.6875,-1.3,0.02,10.29
1541003225727664947,60,0,/imu_data_acquisition2,31352.0,-0.046875,0.0496215820312,0.676391601562,0.7333984375,0.6875,-0.0625,-0.0625,-1.04,-0.06,9.89
1541003225741445064,61,0,/imu_data_acquisition2,31365.0,-0.0467529296875,0.0496215820312,0.676452636719,0.733337402344,0.9375,-0.75,1.25,-1.61,0.13,-0.01
1541003225754815101,62,0,/imu_data_acquisition2,31377.0,-0.046630859375,0.049560546875,0.676513671875,0.733276367188,0.5625,-1.125,1.0,-1.47,0.21,9.88
1541003225760826110,63,0,/imu_data_acquisition2,31386.0,-0.0465698242188,0.049560546875,0.676574707031,0.733215332031,0.4375,0.0625,0.75,-1.47,0.21,9.88
1541003225772105932,64,0,/imu_data_acquisition2,31396.0,-0.0153198242188,-6.103515625e-05,-6.103515625e-05,0.733215332031,-0.0625,0.4375,0.375,-1.43,0.11,9.85
1541003225783814907,65,0,/imu_data_acquisition2,31406.0,-0.046630859375,0.0496826171875,0.676574707031,0.733215332031,-0.625,1.0,-0.125,-1.51,0.1,9.82
1541003225791670083,66,0,/imu_data_acquisition2,31416.0,-0.0468139648438,0.0497436523438,0.676574707031,0.733215332031,-0.8125,1.8125,-0.0625,-1.32,0.1,9.85
1541003225806627035,67,0,/imu_data_acquisition2,31426.0,-0.0469970703125,0.0497436523438,0.676574707031,0.733215332031,-1.4375,1.4375,-0.625,-1.32,0.1,9.85
1541003225809298992,68,0,/imu_data_acquisition2,31432.0,-0.0472412109375,0.0498046875,0.676452636719,0.733276367188,-1.75,2.125,-1.0625,-1.39,0.21,9.74
1541003225818367004,69,0,/imu_data_acquisition2,31442.0,-6.103515625e-05,-6.103515625e-05,-6.103515625e-05,0.733337402344,-2.375,1.9375,-1.5625,-1.44,0.09,9.75
1541003225832494020,70,0,/imu_data_acquisition2,31452.0,-0.0477905273438,0.0497436523438,0.67626953125,0.7333984375,-2.8125,2.0625,-1.75,-1.35,-0.16,10.04
1541003225837897062,71,0,/imu_data_acquisition2,31462.0,-0.048095703125,0.0497436523438,0.676147460938,0.733520507812,-2.6875,2.25,-1.8125,-1.41,0.16,9.79
1541003225848938941,72,0,/imu_data_acquisition2,31473.0,-0.04833984375,0.0497436523438,0.676086425781,0.733581542969,-2.375,2.1875,-1.75,-1.46,-0.04,10.1
1541003225858741044,73,0,/imu_data_acquisition2,31482.0,-0.048583984375,0.0496826171875,0.675964355469,0.733642578125,-2.4375,1.6875,-1.5,-1.21,-0.05,9.9
1541003225867856025,74,0,/imu_data_acquisition2,31492.0,-0.048828125,0.0496826171875,0.675903320312,0.733703613281,-2.125,1.875,-1.5625,-1.25,-0.01,-0.01
1541003225877448081,75,0,/imu_data_acquisition2,31502.0,-0.049072265625,0.0496826171875,0.67578125,0.733764648438,-2.25,1.9375,-1.5625,-1.34,0.1,9.63
1541003225891328096,76,0,/imu_data_acquisition2,31515.0,-0.04931640625,0.0496826171875,0.675659179688,0.73388671875,-1.9375,1.8125,-1.5625,-1.45,-0.12,9.92
1541003225898546934,77,0,/imu_data_acquisition2,31523.0,-0.049560546875,0.0496826171875,0.675598144531,0.733947753906,-1.8125,1.75,-1.4375,-1.39,0.01,9.85
1541003225907748937,78,0,/imu_data_acquisition2,31532.0,-0.0497436523438,0.0497436523438,0.675476074219,0.734008789062,-1.5625,2.1875,-1.5625,-1.55,-0.02,9.93
1541003225923346996,79,0,/imu_data_acquisition2,31544.0,-0.0499877929688,0.0498046875,0.675415039062,0.734069824219,-1.375,2.25,-1.5625,-1.44,-0.13,9.95
1541003225927719116,80,0,/imu_data_acquisition2,31552.0,-0.05029296875,0.0499877929688,0.67529296875,0.734130859375,-1.375,3.0625,-1.6875,-1.72,0.2,9.83
1541003225938755989,81,0,/imu_data_acquisition2,31563.0,-0.050537109375,0.0499877929688,0.675170898438,0.734252929688,-1.875,2.6875,-1.875,-1.31,-0.19,9.94
1541003225950021982,82,0,/imu_data_acquisition2,31573.0,-0.00396728515625,-6.103515625e-05,-6.103515625e-05,0.734313964844,-1.5625,3.125,-1.9375,-1.55,0.03,9.85
1541003225957845926,83,0,/imu_data_acquisition2,31582.0,-0.0511474609375,0.0502319335938,0.674926757812,0.734436035156,-1.5,3.375,-1.9375,-1.33,-0.05,10.0
1541003225968095064,84,0,/imu_data_acquisition2,31592.0,-0.0513916015625,0.0503540039062,0.674743652344,0.734497070312,-1.5,3.375,-2.1875,-1.21,-0.01,-0.01
1541003225983354091,85,0,/imu_data_acquisition2,31602.0,-0.0516967773438,0.050537109375,0.674621582031,0.734619140625,-1.125,4.3125,-2.125,-1.18,-0.09,9.83
1541003225990035057,86,0,/imu_data_acquisition2,31614.0,-0.005126953125,-6.103515625e-05,-6.103515625e-05,0.734741210938,-0.75,4.5625,-2.3125,-1.36,-0.08,9.81
1541003225999675989,87,0,/imu_data_acquisition2,31624.0,-0.0523681640625,0.051025390625,0.674255371094,0.73486328125,-0.75,5.1875,-0.0625,-1.56,0.09,9.82
1541003226008202075,88,0,/imu_data_acquisition2,31632.0,-0.0526733398438,0.05126953125,0.674072265625,0.734985351562,-0.9375,4.75,-2.875,-1.43,0.16,9.91
1541003226017993927,89,0,/imu_data_acquisition2,31642.0,-0.0531005859375,0.0514526367188,0.673889160156,0.735168457031,-1.75,5.4375,-3.0,-1.26,-0.46,9.64
1541003226027653932,90,0,/imu_data_acquisition2,31652.0,-0.00665283203125,-6.103515625e-05,-6.103515625e-05,0.735290527344,-1.8125,5.1875,-3.3125,-1.41,-0.56,10.43
1541003226046153068,91,0,/imu_data_acquisition2,31666.0,-0.0540161132812,0.0519409179688,0.673400878906,0.735473632812,-1.75,6.5,-3.1875,0.71,0.62,7.64
1541003226048211097,92,0,/imu_data_acquisition2,31672.0,-0.0547485351562,0.0523681640625,0.673095703125,0.735656738281,-3.0,9.375,-4.625,-1.23,-1.41,10.04
1541003226060859918,93,0,/imu_data_acquisition2,31685.0,-0.0551147460938,0.0526733398438,0.672729492188,0.735961914062,0.125,5.8125,-0.0625,-1.5,0.48,9.32
1541003226068907976,94,0,/imu_data_acquisition2,31692.0,-0.0557861328125,0.0530395507812,0.672485351562,0.736083984375,-2.625,8.375,-3.5625,-0.43,0.14,9.94
1541003226079066991,95,0,/imu_data_acquisition2,31702.0,-0.0562744140625,0.0535888671875,0.672180175781,0.736267089844,-0.375,8.5625,-0.0625,-1.34,0.18,10.08
1541003226089988946,96,0,/imu_data_acquisition2,31714.0,-0.0568237304688,0.05419921875,0.671813964844,0.736572265625,0.6875,10.0,-5.4375,-1.08,-0.44,9.56
1541003226098998069,97,0,/imu_data_acquisition2,31722.0,-0.0574340820312,0.054931640625,0.67138671875,0.73681640625,1.0,11.4375,-5.6875,-1.48,-0.24,10.09
1541003226109333038,98,0,/imu_data_acquisition2,31733.0,-0.0580444335938,0.0556640625,0.670959472656,0.737121582031,1.125,11.0625,-6.0,-0.67,-0.15,9.73
1541003226118629932,99,0,/imu_data_acquisition2,31743.0,-0.0587158203125,0.0565795898438,0.670471191406,0.737487792969,2.0,13.3125,-6.8125,-1.43,0.02,10.05
1541003226128118991,100,0,/imu_data_acquisition2,31751.0,-0.0592651367188,0.0574340820312,0.669921875,0.737854003906,2.0,-0.0625,-0.0625,-1.24,-0.01,-0.01
1541003226137666940,101,0,/imu_data_acquisition2,31762.0,-0.059814453125,0.0581665039062,0.669372558594,0.738220214844,2.125,15.375,-7.5,-1.06,-0.2,9.63
1541003226222151041,103,0,/imu_data_acquisition2,31781.0,-0.0615234375,0.0601196289062,0.668029785156,0.739135742188,1.125,20.5625,-10.1875,-1.09,-0.19,9.42
1541003226250984907,104,0,/imu_data_acquisition2,31793.0,-0.0628662109375,0.0616455078125,0.667175292969,0.739685058594,0.9375,24.0,-11.25,-1.8,-0.24,10.07
1541003226252347946,105,0,/imu_data_acquisition2,31802.0,-0.0641479492188,0.0631103515625,0.666320800781,0.740173339844,1.625,23.125,-11.3125,-1.18,-0.71,9.42
1541003226253634929,106,0,/imu_data_acquisition2,31812.0,-6.103515625e-05,-6.103515625e-05,-6.103515625e-05,0.740539550781,0.125,25.5,-8.5625,-1.26,-0.97,9.35
1541003226254503011,107,0,/imu_data_acquisition2,31828.0,-0.00469970703125,-6.103515625e-05,-6.103515625e-05,0.740844726562,2.25,-0.0625,-0.0625,-1.36,0.16,9.96
1541003226255592107,108,0,/imu_data_acquisition2,31831.0,-0.0689697265625,0.068359375,0.664367675781,0.741088867188,-1.25,30.1875,-7.4375,-1.17,-0.23,9.5
1541003226257780075,109,0,/imu_data_acquisition2,31841.0,-0.0708618164062,0.0704956054688,0.663635253906,0.741394042969,1.375,33.5625,-8.75,-1.69,0.18,10.16
1541003226259223937,110,0,/imu_data_acquisition2,31851.0,-0.0728149414062,0.0726318359375,0.662963867188,0.741516113281,-0.4375,34.4375,-0.0625,-1.47,-0.55,9.69
1541003226260833024,111,0,/imu_data_acquisition2,31861.0,-0.0748291015625,0.0750732421875,0.662231445312,0.741760253906,2.6875,37.75,-7.8125,-2.04,-0.56,9.76
1541003226262845993,112,0,/imu_data_acquisition2,31872.0,-0.01416015625,-6.103515625e-05,-6.103515625e-05,0.742004394531,6.5,39.6875,-8.1875,-2.16,-0.01,-0.01
1541003226268174886,113,0,/imu_data_acquisition2,31881.0,-0.0784301757812,0.0809326171875,0.660583496094,0.742248535156,9.3125,40.875,-8.0,-1.93,-0.5,9.65
1541003226270169019,114,0,/imu_data_acquisition2,31891.0,-0.080078125,0.0842895507812,0.659545898438,0.742614746094,13.25,43.3125,-10.3125,-1.85,-0.72,9.88
1541003226276068925,115,0,/imu_data_acquisition2,31901.0,-0.08154296875,0.0881958007812,0.658142089844,0.743225097656,19.5,46.375,-14.75,-2.25,-0.01,-0.01
1541003226292105913,116,0,/imu_data_acquisition2,31914.0,-6.103515625e-05,-6.103515625e-05,-6.103515625e-05,0.744201660156,26.75,48.875,-20.5,-2.16,-1.17,9.74
1541003226296745061,117,0,/imu_data_acquisition2,31921.0,-0.00537109375,-6.103515625e-05,-6.103515625e-05,0.745483398438,37.5625,52.0625,-26.6875,-2.38,-0.85,9.79
1541003226308459997,118,0,/imu_data_acquisition2,31933.0,-0.083984375,0.103576660156,0.651306152344,0.747009277344,44.8125,56.0,-30.4375,-2.05,0.67,9.72
1541003226317634105,119,0,/imu_data_acquisition2,31941.0,-6.103515625e-05,-6.103515625e-05,-6.103515625e-05,0.748474121094,43.8125,59.8125,-30.125,-1.65,0.86,-0.01
1541003226328531026,120,0,/imu_data_acquisition2,31952.0,-0.0859985351562,0.115783691406,0.645935058594,0.749633789062,41.125,65.6875,-27.8125,-1.77,0.88,-0.01
1541003226338771104,121,0,/imu_data_acquisition2,31962.0,-0.0877685546875,0.122192382812,0.6435546875,0.75048828125,37.9375,71.9375,-23.625,-2.22,-0.01,-0.01
1541003226347256898,122,0,/imu_data_acquisition2,31971.0,-0.089599609375,0.128967285156,0.641296386719,0.751037597656,38.75,75.5,-19.25,-2.04,-0.55,10.16
1541003226358788013,123,0,/imu_data_acquisition2,31983.0,-0.091064453125,0.135986328125,0.639221191406,0.751403808594,43.75,74.8125,-16.4375,-1.21,-0.2,10.69
1541003226369244098,124,0,/imu_data_acquisition2,31992.0,-0.09228515625,0.143005371094,0.637329101562,0.751586914062,45.75,74.0,-12.625,0.97,0.56,11.46
1541003226379116058,125,0,/imu_data_acquisition2,32002.0,-0.0935668945312,0.149963378906,0.635803222656,0.751342773438,43.25,73.3125,-6.0,2.08,-0.19,12.49
1541003226390223979,126,0,/imu_data_acquisition2,32015.0,-0.0940551757812,0.156555175781,0.634826660156,0.750793457031,46.6875,64.25,1.9375,3.03,2.04,12.18
1541003226398448944,127,0,/imu_data_acquisition2,32022.0,-0.0939331054688,0.162353515625,0.635009765625,0.749389648438,42.375,52.875,18.4375,3.21,2.98,14.79
1541003226410743951,128,0,/imu_data_acquisition2,32035.0,-0.0932006835938,0.166137695312,-6.103515625e-05,0.7470703125,29.125,30.375,40.1875,6.14,5.16,14.65
1541003226418955087,129,0,/imu_data_acquisition2,32043.0,-0.0914916992188,0.168212890625,0.640808105469,0.743469238281,18.75,8.3125,67.3125,5.55,4.16,15.87
1541003226428585052,130,0,/imu_data_acquisition2,32052.0,-0.0885009765625,0.168640136719,0.646545410156,0.738708496094,13.0625,-15.8125,93.125,5.21,3.68,15.2
1541003226437922000,131,0,/imu_data_acquisition2,32062.0,-0.083740234375,0.167846679688,0.653869628906,0.732971191406,14.6875,-39.375,116.1875,3.62,2.95,13.66
1541003226449392080,132,0,/imu_data_acquisition2,32071.0,-0.0775146484375,0.166076660156,0.662353515625,0.726440429688,17.0,-58.75,134.875,2.79,2.89,12.69
1541003226456955909,133,0,/imu_data_acquisition2,32081.0,-0.0702514648438,0.163757324219,0.671691894531,0.719116210938,19.5625,-7.0625,-0.0625,1.74,2.5,11.89
1541003226469696044,134,0,/imu_data_acquisition2,32094.0,-0.0625,0.161254882812,0.681579589844,0.711059570312,20.0625,-76.125,161.25,0.61,1.4,10.21
1541003226479780912,135,0,/imu_data_acquisition2,32102.0,-0.0546264648438,0.158935546875,0.691650390625,0.702453613281,21.875,-73.625,167.375,-1.64,0.77,10.54
1541003226487124919,136,0,/imu_data_acquisition2,32111.0,-0.0469970703125,0.156616210938,0.701538085938,0.693603515625,20.0625,-0.0625,-0.0625,-2.28,-0.69,9.6
1541003226499245882,137,0,/imu_data_acquisition2,32122.0,-0.0396728515625,0.154479980469,0.710754394531,0.685119628906,20.5,-68.0,158.4375,-4.22,-3.78,8.97
1541003226509908914,138,0,/imu_data_acquisition2,32132.0,-0.0325317382812,0.152709960938,0.718627929688,0.677612304688,25.0625,-64.75,139.1875,-4.85,-4.4,9.7
1541003226516685009,139,0,/imu_data_acquisition2,32141.0,-0.0255126953125,0.1513671875,0.724731445312,0.671691894531,31.8125,-61.5,111.375,-5.29,-4.39,10.73
1541003226529769897,140,0,/imu_data_acquisition2,32153.0,-0.0184326171875,0.150329589844,0.728881835938,0.667663574219,38.5,-63.5,79.8125,-5.13,-4.06,10.94
1541003226538465023,141,0,/imu_data_acquisition2,32162.0,-0.01123046875,0.149108886719,0.731201171875,0.665588378906,41.5,-68.5,49.1875,-4.36,-2.65,9.98
1541003226547404050,142,0,/imu_data_acquisition2,32172.0,-0.0045166015625,0.147583007812,-6.103515625e-05,0.665161132812,38.625,-69.5,20.8125,-4.27,-2.47,9.82
1541003226558890104,143,0,/imu_data_acquisition2,32183.0,0.00115966796875,0.145568847656,0.731262207031,0.666381835938,28.8125,-66.8125,-5.5,-4.24,-2.24,9.66
1541003226567864894,144,0,/imu_data_acquisition2,32191.0,0.00115966796875,0.145568847656,0.731262207031,0.666381835938,16.875,-63.5,-30.25,-4.19,-1.97,9.36
1541003226577491998,145,0,/imu_data_acquisition2,32202.0,0.00921630859375,0.140075683594,0.726196289062,0.672973632812,7.25,-61.375,-52.8125,-0.82,-0.01,-0.01
1541003226590213060,146,0,/imu_data_acquisition2,32213.0,0.0120849609375,0.13671875,0.72216796875,0.677978515625,0.4375,-60.1875,-70.375,-2.58,0.39,8.66
1541003226598088979,147,0,/imu_data_acquisition2,32221.0,0.014404296875,0.133056640625,0.717590332031,0.683471679688,-5.8125,-58.4375,-79.125,-0.04,4.13,7.61
1541003226607501983,148,0,/imu_data_acquisition2,32232.0,0.0161743164062,0.129333496094,0.713195800781,0.688781738281,-11.125,-54.4375,-77.375,0.83,5.11,7.71
1541003226618813991,149,0,/imu_data_acquisition2,32243.0,0.0176391601562,0.125671386719,0.709411621094,0.693298339844,-14.5,-49.375,-66.0625,1.42,6.31,7.92
1541003226626709938,150,0,/imu_data_acquisition2,32251.0,0.0176391601562,0.125671386719,0.709411621094,0.693298339844,-14.8125,-46.0625,-48.1875,1.43,-0.01,-0.01
1541003226639287948,151,0,/imu_data_acquisition2,32264.0,0.020751953125,0.11865234375,0.705078125,0.698791503906,-12.5,-47.0,-27.0625,1.38,7.21,8.72
1541003226649822950,152,0,/imu_data_acquisition2,32273.0,0.0228881835938,0.115051269531,0.704833984375,0.699584960938,-12.6875,-48.3125,-4.8125,1.08,7.35,8.78
1541003226660051107,153,0,/imu_data_acquisition2,32283.0,0.0250244140625,0.111328125,0.705871582031,0.699096679688,-14.625,-15.8125,-0.0625,0.6,7.17,8.31
1541003226668836116,154,0,/imu_data_acquisition2,32293.0,0.0269775390625,0.107543945312,0.708068847656,0.697387695312,-17.8125,-44.875,35.9375,-0.92,6.21,8.21
1541003226678915023,155,0,/imu_data_acquisition2,32302.0,0.0269775390625,0.107543945312,0.708068847656,0.697387695312,-19.0,-40.5,50.25,-2.03,5.3,8.66
1541003226690176963,156,0,/imu_data_acquisition2,32314.0,0.0300903320312,0.100219726562,0.714599609375,0.691650390625,-22.625,-4.75,-0.0625,-3.1,4.05,8.46
1541003226698489904,157,0,/imu_data_acquisition2,32323.0,0.0310668945312,0.0966186523438,0.718017578125,0.688598632812,-25.5625,-32.5625,56.8125,-5.01,2.04,7.07
1541003226710216999,158,0,/imu_data_acquisition2,32334.0,0.031005859375,0.0932006835938,0.720947265625,0.685974121094,-32.25,-23.5625,47.0625,-5.86,1.22,6.91
1541003226717897891,159,0,/imu_data_acquisition2,32342.0,0.031005859375,0.0932006835938,0.720947265625,0.685974121094,-6.0625,-0.0625,-0.0625,-6.51,3.01,6.73
1541003226729166030,160,0,/imu_data_acquisition2,32353.0,0.0247802734375,0.0873413085938,0.723510742188,0.684326171875,-64.375,20.6875,1.4375,-11.93,-2.64,7.97
1541003226743235111,161,0,/imu_data_acquisition2,32363.0,0.0177001953125,0.0844116210938,0.721923828125,0.686584472656,-82.0,33.875,-39.25,-12.68,-2.5,8.21
1541003226750529050,162,0,/imu_data_acquisition2,32374.0,0.0105590820312,0.0819702148438,0.717712402344,0.69140625,-75.0,35.4375,-81.5625,-11.94,0.32,8.12
1541003226759504079,163,0,/imu_data_acquisition2,32383.0,0.00341796875,0.0798950195312,0.711242675781,0.698425292969,-71.125,36.3125,-119.5,-11.22,2.47,7.01
1541003226769961118,164,0,/imu_data_acquisition2,32392.0,0.00341796875,0.0798950195312,0.711242675781,0.698425292969,-13.875,-0.0625,-0.0625,-10.88,5.75,9.65
1541003226782649993,165,0,/imu_data_acquisition2,32403.0,-0.0145874023438,-6.103515625e-05,-6.103515625e-05,0.715637207031,-91.4375,53.75,-157.5,-9.77,7.15,9.35
1541003226790335893,166,0,/imu_data_acquisition2,32414.0,-0.0145874023438,0.0756225585938,0.694213867188,0.715637207031,-103.4375,50.0625,-155.1875,-9.37,5.97,9.9
1541003226798376083,167,0,/imu_data_acquisition2,32422.0,-0.0247802734375,0.0723876953125,0.685302734375,0.724182128906,-102.3125,42.1875,-144.0625,-5.34,6.25,12.28
1541003226809204101,168,0,/imu_data_acquisition2,32433.0,-0.0343627929688,0.0687255859375,0.676940917969,0.731994628906,-84.5625,10.875,-122.375,2.02,8.04,6.59
1541003226820368051,169,0,/imu_data_acquisition2,32443.0,-0.0408935546875,0.064208984375,0.669799804688,0.738647460938,-80.875,7.6875,-62.4375,-8.33,-11.5,14.67
1541003226826769113,170,0,/imu_data_acquisition2,32451.0,-0.0467529296875,0.0598754882812,0.666320800781,0.741821289062,-80.875,7.6875,-62.4375,0.25,0.0,10.06
1541003226838794946,171,0,/imu_data_acquisition2,32463.0,-6.103515625e-05,-6.103515625e-05,-6.103515625e-05,0.742858886719,-19.125,-0.875,-3.6875,-1.7,-0.89,10.54
1541003226852360963,172,0,/imu_data_acquisition2,32473.0,-0.0513916015625,0.055908203125,0.664978027344,0.742980957031,-8.25,8.3125,0.0,-0.86,-0.77,9.58
1541003226858437061,173,0,/imu_data_acquisition2,32482.0,-0.0523681640625,0.0559692382812,0.664978027344,0.742919921875,-1.75,11.5,2.25,-2.33,-1.8,10.63
1541003226872725009,174,0,/imu_data_acquisition2,32492.0,-0.0062255859375,-6.103515625e-05,-6.103515625e-05,0.742736816406,4.0,7.4375,7.375,-2.01,-0.01,-0.01
1541003226880697965,175,0,/imu_data_acquisition2,32502.0,-0.05322265625,0.0573120117188,-6.103515625e-05,0.742248535156,4.0,7.4375,7.375,-1.7,-0.13,10.47
1541003226888372898,176,0,/imu_data_acquisition2,32512.0,-0.0529174804688,0.057861328125,0.666198730469,0.741638183594,4.75,-1.3125,12.3125,-1.26,0.65,9.93
1541003226901738882,177,0,/imu_data_acquisition2,32523.0,-0.052490234375,0.05810546875,0.666931152344,0.740966796875,1.875,-1.375,9.5625,-1.32,1.27,9.94
1541003226911093950,178,0,/imu_data_acquisition2,32533.0,-0.0523071289062,0.05810546875,-6.103515625e-05,0.740173339844,-1.3125,0.375,5.0625,-1.38,0.58,10.0
1541003226917305946,179,0,/imu_data_acquisition2,32542.0,-0.0523071289062,0.05810546875,0.667846679688,0.740173339844,-1.3125,0.375,5.0625,-1.68,0.45,9.79
1541003226928617954,180,0,/imu_data_acquisition2,32552.0,-0.052490234375,0.0579833984375,0.66796875,0.740051269531,-4.625,0.25,-0.4375,-1.65,0.0,10.02
1541003226941930055,181,0,/imu_data_acquisition2,32563.0,-0.00616455078125,-6.103515625e-05,-6.103515625e-05,0.740112304688,-4.875,-1.3125,-1.25,-1.66,-0.11,9.81
1541003226948662996,182,0,/imu_data_acquisition2,32573.0,-0.0530395507812,0.0573120117188,0.66796875,0.740112304688,-4.125,-2.4375,-1.0625,-1.78,-0.04,9.93
1541003226959470033,183,0,/imu_data_acquisition2,32583.0,-0.0531616210938,0.0569458007812,0.667907714844,0.740173339844,-2.875,-3.1875,-0.25,-1.87,-0.16,9.95
1541003226968381881,184,0,/imu_data_acquisition2,32592.0,-0.0531616210938,0.0565795898438,0.66796875,0.740173339844,-2.875,-3.1875,-0.25,-1.68,-0.38,9.99
1541003226977555036,185,0,/imu_data_acquisition2,32602.0,-0.00616455078125,-6.103515625e-05,-6.103515625e-05,0.740112304688,-1.5625,-3.8125,0.75,-1.62,-0.08,9.98
1541003226990401983,186,0,/imu_data_acquisition2,32613.0,-0.0528564453125,0.055908203125,-6.103515625e-05,0.740051269531,-0.3125,-5.25,2.375,-1.52,-0.13,9.83
1541003227000610113,187,0,/imu_data_acquisition2,32623.0,-0.005615234375,-6.103515625e-05,-6.103515625e-05,0.739929199219,0.125,-5.6875,2.875,-1.7,0.06,9.85
1541003227009113073,188,0,/imu_data_acquisition2,32634.0,-0.0521850585938,0.0552368164062,0.668518066406,0.739807128906,-0.125,-6.4375,3.0,-1.67,-0.01,9.84
1541003227019175052,189,0,/imu_data_acquisition2,32643.0,-0.0518188476562,0.0548706054688,0.668762207031,0.739624023438,0.125,-6.875,3.25,-1.74,-0.07,9.81
1541003227031375885,190,0,/imu_data_acquisition2,32654.0,-0.0514526367188,0.0545043945312,0.669006347656,0.739501953125,0.125,-6.875,3.5,-1.54,-0.07,9.77
1541003227038079023,191,0,/imu_data_acquisition2,32662.0,-0.0510864257812,0.0540771484375,0.669250488281,0.739318847656,0.125,-8.3125,4.0625,-1.98,0.16,9.82
1541003227050328016,192,0,/imu_data_acquisition2,32673.0,-0.0507202148438,0.0537719726562,-6.103515625e-05,0.739135742188,0.0625,-8.5625,4.375,-1.78,-0.02,10.11
1541003227061047077,193,0,/imu_data_acquisition2,32684.0,-0.05029296875,0.0533447265625,0.669799804688,0.738891601562,0.5625,-10.9375,4.9375,-1.22,0.0,9.91
1541003227068106889,194,0,/imu_data_acquisition2,32692.0,-0.0496215820312,0.052734375,0.670166015625,0.738647460938,0.5625,-10.9375,4.9375,-1.35,0.25,9.89
1541003227078830003,195,0,/imu_data_acquisition2,32703.0,-0.0490112304688,0.05224609375,0.670593261719,0.738403320312,1.375,-8.9375,5.625,-1.31,0.18,9.85
1541003227090471982,196,0,/imu_data_acquisition2,32713.0,-0.0484619140625,0.0518798828125,0.670959472656,0.738098144531,0.25,-7.0625,4.6875,-1.47,0.32,9.74
1541003227098683118,197,0,/imu_data_acquisition2,32723.0,-0.0480346679688,0.051513671875,0.671264648438,0.737854003906,-0.75,-7.8125,3.625,-1.12,0.17,9.49
1541003227110110998,198,0,/imu_data_acquisition2,32734.0,-0.047607421875,0.0509643554688,0.671508789062,0.737670898438,-1.4375,-7.125,2.625,-0.92,-0.21,9.85
1541003227117646932,199,0,/imu_data_acquisition2,32742.0,-0.0473022460938,0.0504760742188,0.671691894531,0.737548828125,-1.4375,-7.125,2.625,-0.92,-0.21,9.85
1541003227128840923,200,0,/imu_data_acquisition2,32753.0,-0.0470581054688,0.050048828125,0.671875,0.737487792969,-1.0,-2.3125,1.6875,-0.98,-0.15,9.94
1541003227140142917,201,0,/imu_data_acquisition2,32764.0,-0.0469970703125,0.0498046875,0.671997070312,0.737365722656,-0.5625,-1.0625,1.375,-1.41,-0.01,9.82
1541003227150748968,202,0,/imu_data_acquisition2,32774.0,-6.103515625e-05,-6.103515625e-05,-6.103515625e-05,0.737182617188,0.5,0.9375,1.625,-1.7,0.0,10.31
1541003227159873962,203,0,/imu_data_acquisition2,32784.0,-0.0469970703125,0.0498046875,0.672180175781,0.737182617188,1.1875,0.3125,2.0,-1.74,0.06,10.38
1541003227168956995,204,0,/imu_data_acquisition2,32793.0,-0.046875,0.0499267578125,0.672302246094,0.737121582031,1.1875,0.3125,2.0,-1.36,-0.1,10.2
1541003227179533004,205,0,/imu_data_acquisition2,32802.0,-0.0468139648438,0.0499877929688,0.672424316406,0.736938476562,1.5625,0.1875,2.4375,-1.3,0.01,10.09
1541003227189023971,206,0,/imu_data_acquisition2,32813.0,-0.015380859375,-6.103515625e-05,-6.103515625e-05,0.73681640625,1.875,-1.3125,2.5,-1.44,0.18,10.12
1541003227199649095,207,0,/imu_data_acquisition2,32824.0,-0.04638671875,0.050048828125,0.672790527344,0.736694335938,1.6875,-0.375,2.0,-1.17,0.2,9.77
1541003227210385084,208,0,/imu_data_acquisition2,32834.0,-0.0462646484375,0.0501708984375,0.672912597656,0.736572265625,0.875,-0.3125,1.4375,-1.34,0.2,9.85
1541003227219126939,209,0,/imu_data_acquisition2,32844.0,-0.0462036132812,0.0502319335938,0.672973632812,0.736511230469,0.25,0.4375,0.625,-1.16,0.1,-0.01
1541003227230062961,210,0,/imu_data_acquisition2,32854.0,-0.0462036132812,0.0502319335938,0.673034667969,0.736450195312,-0.375,0.6875,0.0,-1.43,0.1,9.86
1541003227238912105,211,0,/imu_data_acquisition2,32863.0,-0.0462646484375,0.05029296875,0.673034667969,0.736450195312,-1.0,1.5625,-0.375,-1.57,0.07,9.76
1541003227252857923,212,0,/imu_data_acquisition2,32876.0,-0.0465698242188,0.0504150390625,0.672973632812,0.736511230469,-1.3125,1.8125,-0.9375,-1.48,0.16,9.85
1541003227262681007,213,0,/imu_data_acquisition2,32884.0,-0.0465698242188,0.0504150390625,0.672973632812,0.736511230469,-1.625,1.6875,-1.25,-1.63,0.05,10.1
1541003227270692110,214,0,/imu_data_acquisition2,32893.0,-0.0468139648438,0.0504760742188,0.6728515625,0.736572265625,-1.625,1.6875,-1.25,-1.63,0.05,10.1
1541003227280041933,215,0,/imu_data_acquisition2,32902.0,-0.0469970703125,0.0504150390625,0.672790527344,0.736633300781,-1.9375,1.8125,-1.25,-1.34,0.07,9.73
1541003227293019056,216,0,/imu_data_acquisition2,32915.0,-0.0472412109375,0.0504150390625,0.672729492188,0.736694335938,-1.875,1.875,-1.4375,-1.33,0.04,9.56
1541003227300405025,217,0,/imu_data_acquisition2,32925.0,-0.0474853515625,0.0504760742188,0.672607421875,0.736755371094,-1.625,1.0625,-1.5625,-1.57,0.0,-0.01
1541003227311568975,218,0,/imu_data_acquisition2,32935.0,-6.103515625e-05,-6.103515625e-05,-6.103515625e-05,0.73681640625,-1.875,1.625,-1.5,-1.31,0.0,9.83
1541003227316802024,219,0,/imu_data_acquisition2,32941.0,-0.0478515625,0.0504760742188,0.672424316406,0.736877441406,-1.875,1.625,-1.5,-1.31,0.0,9.83
1541003227331480979,220,0,/imu_data_acquisition2,32952.0,-0.048095703125,0.0504150390625,0.672302246094,0.736938476562,-2.3125,1.375,-1.625,-1.24,-0.02,9.93
1541003227341789960,221,0,/imu_data_acquisition2,32965.0,-0.04833984375,0.0503540039062,0.672241210938,0.737060546875,-2.3125,1.5625,-1.75,-1.16,0.04,9.67
1541003227348959922,222,0,/imu_data_acquisition2,32973.0,-0.048583984375,0.0503540039062,0.672119140625,0.737121582031,-2.375,1.875,-1.9375,-1.18,-0.02,9.9
1541003227364309072,223,0,/imu_data_acquisition2,32984.0,-0.048828125,0.05029296875,0.671997070312,0.737243652344,-1.875,2.625,-2.4375,-1.36,0.01,10.13
1541003227370313882,224,0,/imu_data_acquisition2,32992.0,-0.049072265625,0.0503540039062,0.671813964844,0.737365722656,-1.875,2.625,-2.4375,-1.36,0.01,10.13
1541003227377108097,225,0,/imu_data_acquisition2,33002.0,-0.0493774414062,0.0504150390625,0.671630859375,0.737487792969,-2.125,3.125,-2.6875,-1.29,-0.06,9.75
1541003227391482114,226,0,/imu_data_acquisition2,33013.0,-0.0497436523438,0.0504760742188,-6.103515625e-05,0.737609863281,-2.0,3.1875,-2.8125,-1.6,0.0,10.22
1541003227400430917,227,0,/imu_data_acquisition2,33024.0,-6.103515625e-05,-6.103515625e-05,-6.103515625e-05,0.73779296875,-2.1875,3.5,-2.875,-1.46,-0.21,10.01
1541003227409442901,228,0,/imu_data_acquisition2,33034.0,-0.0504760742188,0.0507202148438,0.671081542969,0.737915039062,-1.8125,4.4375,-0.0625,-1.19,0.17,9.86
1541003227420566082,229,0,/imu_data_acquisition2,33042.0,-0.0508422851562,0.0509033203125,0.6708984375,0.738037109375,-1.5,4.6875,-2.75,-1.19,-0.01,-0.01
1541003227429147958,230,0,/imu_data_acquisition2,33052.0,-0.05126953125,0.0511474609375,0.670776367188,0.738098144531,-1.5,5.6875,-1.75,0.35,0.7,9.03
1541003227439475059,231,0,/imu_data_acquisition2,33064.0,-0.0516967773438,0.0514526367188,0.670654296875,0.738159179688,-1.5,5.6875,-1.75,2.73,-0.01,-0.01
1541003227453460931,232,0,/imu_data_acquisition2,33076.0,-0.0526123046875,0.0523071289062,0.670043945312,0.738586425781,1.625,1.9375,-5.5,-2.27,0.46,9.99
1541003227462680101,233,0,/imu_data_acquisition2,33085.0,-0.0526123046875,0.0523071289062,0.670043945312,0.738586425781,-1.9375,9.75,-1.75,-0.58,-0.19,11.61
1541003227468381881,234,0,/imu_data_acquisition2,33092.0,-0.0532836914062,0.0528564453125,0.669860839844,0.738647460938,-1.9375,9.75,-1.75,-0.58,-0.19,11.61
1541003227480237007,235,0,/imu_data_acquisition2,33104.0,-0.0537109375,0.0535888671875,0.669494628906,0.738891601562,2.6875,10.1875,-4.9375,-1.24,0.01,8.76
1541003227491898059,236,0,/imu_data_acquisition2,33114.0,-0.0541381835938,0.0543823242188,-6.103515625e-05,0.739135742188,2.6875,10.1875,-4.9375,-2.38,-0.65,10.61
1541003227500057935,237,0,/imu_data_acquisition2,33124.0,-0.0546875,0.0551147460938,0.668762207031,0.739379882812,1.6875,11.25,-0.0625,-0.69,0.04,10.05
1541003227514400005,238,0,/imu_data_acquisition2,33134.0,-0.0551147460938,0.0560302734375,-6.103515625e-05,0.739624023438,3.6875,11.125,-4.625,-1.34,0.22,9.28
1541003227517954111,239,0,/imu_data_acquisition2,33142.0,-0.0557250976562,0.0570678710938,0.668029785156,0.739868164062,3.375,14.0,-0.0625,-1.34,0.22,9.28
1541003227530060052,240,0,/imu_data_acquisition2,33154.0,-0.056396484375,0.0580444335938,0.667541503906,0.740173339844,2.625,14.125,-6.25,-0.49,-0.19,9.38
1541003227541374921,241,0,/imu_data_acquisition2,33163.0,-0.0571899414062,0.0591430664062,0.667053222656,0.740478515625,2.125,16.0625,-7.0625,-0.49,-0.19,9.38
1541003227552182912,242,0,/imu_data_acquisition2,33174.0,-0.058349609375,0.060546875,0.666381835938,0.740844726562,1.1875,21.25,-8.25,-1.96,-1.09,9.62
1541003227560041904,243,0,/imu_data_acquisition2,33184.0,-0.059814453125,0.0620727539062,-6.103515625e-05,0.741149902344,0.3125,25.25,-8.0625,-1.37,-0.2,10.05
1541003227569052934,244,0,/imu_data_acquisition2,33191.0,-0.061279296875,0.0637817382812,0.665283203125,0.741333007812,0.9375,26.4375,-5.125,-1.37,-0.2,10.05
1541003227578845024,245,0,/imu_data_acquisition2,33203.0,-0.062744140625,0.0654907226562,-6.103515625e-05,0.741394042969,0.6875,27.125,-3.9375,-1.22,0.15,9.8
1541003227590073108,246,0,/imu_data_acquisition2,33214.0,-0.0643920898438,0.0671997070312,0.66455078125,0.741455078125,0.25,28.25,-3.25,-1.32,0.0,9.35
1541003227601300001,247,0,/imu_data_acquisition2,33224.0,-0.0661010742188,0.0690307617188,0.664306640625,0.741333007812,-0.9375,29.6875,-1.5,-2.08,-0.05,9.82
1541003227613729953,248,0,/imu_data_acquisition2,33237.0,-0.0679321289062,0.0712280273438,0.664001464844,0.7412109375,2.0,35.3125,0.125,-1.41,-0.46,9.56
1541003227619805097,249,0,/imu_data_acquisition2,33244.0,-0.06982421875,0.0735473632812,0.663818359375,0.741027832031,2.0,35.3125,0.125,-1.41,-0.46,9.56
1541003227626516103,250,0,/imu_data_acquisition2,33251.0,-0.0717163085938,0.0762939453125,0.663513183594,0.740783691406,5.0,39.1875,0.25,-1.88,-0.06,9.75
1541003227642362117,251,0,/imu_data_acquisition2,33266.0,-0.0758056640625,0.0830688476562,0.662902832031,0.740234375,10.0,49.625,0.5625,-1.81,-0.24,9.43
1541003227651177883,252,0,/imu_data_acquisition2,33275.0,-0.0758056640625,0.0830688476562,0.662902832031,0.740234375,14.9375,56.625,-1.0625,-1.98,-1.07,-0.01
1541003227660398960,253,0,/imu_data_acquisition2,33283.0,-0.0155639648438,-6.103515625e-05,-6.103515625e-05,0.739990234375,14.9375,-0.0625,-0.0625,-1.98,-1.07,-0.01
1541003227668977975,254,0,/imu_data_acquisition2,33292.0,-0.080078125,0.0928344726562,0.661437988281,0.739868164062,25.5625,63.9375,-4.0625,-2.51,-0.9,-0.01
1541003227680860042,255,0,/imu_data_acquisition2,33302.0,-0.0817260742188,0.098876953125,0.660400390625,0.739868164062,33.625,66.625,-5.625,-2.35,0.02,9.71
1541003227689042091,256,0,/imu_data_acquisition2,33313.0,-0.0834350585938,0.105102539062,0.659362792969,0.73974609375,35.0,69.125,-3.5,-2.45,0.04,9.64
1541003227702871084,257,0,/imu_data_acquisition2,33327.0,-0.0852661132812,0.111633300781,0.658569335938,0.7392578125,35.125,72.8125,0.6875,-1.67,1.35,-0.01
1541003227712841033,258,0,/imu_data_acquisition2,33335.0,-0.0877075195312,0.118347167969,0.658142089844,0.738342285156,30.8125,80.0,7.0,-1.25,1.13,9.84
1541003227718534946,259,0,/imu_data_acquisition2,33343.0,-0.0910034179688,0.125366210938,0.658142089844,0.73681640625,24.375,88.375,14.6875,-1.25,1.13,-0.01
1541003227730629920,260,0,/imu_data_acquisition2,33353.0,-0.0947265625,0.13232421875,0.65869140625,0.734619140625,18.375,92.5625,23.625,0.4,0.31,11.07
1541003227739696025,261,0,/imu_data_acquisition2,33363.0,-0.0982055664062,0.139099121094,0.659851074219,0.731811523438,17.4375,89.4375,34.5,1.48,-0.75,11.67
1541003227750735044,262,0,/imu_data_acquisition2,33374.0,-0.0068359375,-6.103515625e-05,-6.103515625e-05,0.728515625,24.25,-0.0625,-0.0625,2.29,-0.01,-0.01
1541003227763772964,263,0,/imu_data_acquisition2,33385.0,-0.102233886719,0.150817871094,0.665100097656,0.724182128906,15.0,-0.0625,-0.0625,6.6,3.95,13.16
1541003227769066095,264,0,/imu_data_acquisition2,33393.0,-0.1025390625,0.154418945312,0.669799804688,0.718994140625,10.4375,36.8125,85.1875,6.6,-0.01,-0.01
1541003227778672933,265,0,/imu_data_acquisition2,33403.0,-0.102294921875,0.156616210938,0.676452636719,0.712341308594,-0.3125,20.875,112.9375,5.52,3.38,14.25
1541003227789402961,266,0,/imu_data_acquisition2,33412.0,-6.103515625e-05,-6.103515625e-05,-6.103515625e-05,0.704406738281,-3.9375,-0.5625,136.875,3.94,2.53,15.73
1541003227802719116,267,0,/imu_data_acquisition2,33426.0,-0.09716796875,0.1572265625,0.694213867188,0.695617675781,-2.125,-26.375,156.375,3.13,2.16,13.32
1541003227810848951,268,0,/imu_data_acquisition2,33435.0,-0.0138549804688,-6.103515625e-05,-6.103515625e-05,0.686096191406,2.8125,-47.1875,172.1875,1.73,1.99,12.81
1541003227819082021,269,0,/imu_data_acquisition2,33442.0,-0.0858764648438,0.154235839844,0.715576171875,0.675842285156,3.25,-58.0,184.125,1.73,1.99,12.81
1541003227829140901,270,0,/imu_data_acquisition2,33452.0,-0.0792846679688,0.152099609375,0.726806640625,0.665100097656,3.1875,-64.8125,190.5,-0.53,0.45,11.87
1541003227840466022,271,0,/imu_data_acquisition2,33465.0,-0.0725708007812,0.149597167969,0.737731933594,0.654296875,1.9375,-68.0,189.25,-1.38,-0.07,10.68
1541003227852961063,272,0,/imu_data_acquisition2,33474.0,-0.0040283203125,-6.103515625e-05,-6.103515625e-05,0.643676757812,-3.3125,-63.125,180.875,-2.31,-1.52,9.65
1541003227861150979,273,0,/imu_data_acquisition2,33485.0,-0.06103515625,0.14453125,0.757202148438,0.634094238281,-3.6875,-58.0625,162.1875,-5.82,-7.15,9.38
1541003227869061946,274,0,/imu_data_acquisition2,33492.0,-0.0557250976562,0.142578125,0.764343261719,0.626403808594,4.375,-0.0625,-0.0625,-0.7,-0.01,-0.01
1541003227877650022,275,0,/imu_data_acquisition2,33501.0,-0.0507202148438,0.141052246094,0.769104003906,0.621276855469,11.6875,-51.3125,89.25,-6.12,-7.09,10.61
1541003227895564079,276,0,/imu_data_acquisition2,33513.0,-0.0458374023438,0.139526367188,0.771667480469,0.618835449219,16.375,-53.0625,48.0,-5.26,-5.11,10.97
1541003227905193090,277,0,/imu_data_acquisition2,33529.0,-0.0410766601562,0.137817382812,0.772155761719,0.618896484375,21.125,-60.0,-22.625,-4.46,-3.61,10.2
1541003227911137104,278,0,/imu_data_acquisition2,33536.0,-0.0363159179688,0.135925292969,0.770935058594,0.621154785156,21.125,-60.0,-22.625,-3.99,-1.14,9.74
1541003227918633937,279,0,/imu_data_acquisition2,33543.0,-0.031494140625,0.134033203125,0.768188476562,0.625244140625,23.9375,-63.75,-50.75,-3.99,-1.14,9.74
1541003227928529977,280,0,/imu_data_acquisition2,33552.0,-0.0265502929688,0.131958007812,0.764221191406,0.630737304688,26.0,-67.5625,-72.25,-3.64,-0.19,9.25
1541003227938813924,281,0,/imu_data_acquisition2,33562.0,-0.0217895507812,0.129699707031,0.759399414062,0.63720703125,24.875,-68.625,-87.25,-3.25,1.16,9.03
1541003227951704978,282,0,/imu_data_acquisition2,33574.0,-0.0174560546875,0.127197265625,0.754150390625,0.64404296875,19.875,-66.75,-95.5625,-2.66,2.24,8.61
1541003227963500022,283,0,/imu_data_acquisition2,33586.0,-0.0137939453125,0.124450683594,0.748840332031,0.650817871094,12.5625,-62.625,-95.9375,-0.26,5.86,7.91
1541003227969538927,284,0,/imu_data_acquisition2,33593.0,-0.010986328125,0.121398925781,0.744018554688,0.656982421875,3.375,-56.75,-87.8125,-0.26,5.86,7.91
1541003227977611064,285,0,/imu_data_acquisition2,33601.0,-0.0087890625,0.118286132812,0.740112304688,0.661987304688,-4.3125,-50.125,-71.875,0.27,-0.01,-0.01
1541003227990101099,286,0,/imu_data_acquisition2,33613.0,-0.007080078125,0.115173339844,0.737365722656,0.665588378906,-9.875,-44.0,-50.875,0.71,7.57,7.87
1541003228001118898,287,0,/imu_data_acquisition2,33625.0,-0.005615234375,0.112121582031,0.735961914062,0.667663574219,-12.6875,-39.5625,-27.5625,0.73,7.53,7.66
1541003228010618925,288,0,/imu_data_acquisition2,33633.0,-0.00408935546875,0.109252929688,0.73583984375,0.668273925781,-13.0,-37.0625,-4.3125,0.7,7.24,7.71
1541003228020509958,289,0,/imu_data_acquisition2,33644.0,-0.0023193359375,0.106628417969,0.736877441406,0.667541503906,-10.1875,-35.25,16.4375,0.46,6.69,8.13
1541003228029819011,290,0,/imu_data_acquisition2,33654.0,-0.00018310546875,0.104187011719,0.738891601562,0.665710449219,-6.8125,-35.875,35.0625,0.11,6.57,8.35
1541003228038557052,291,0,/imu_data_acquisition2,33661.0,0.0023193359375,0.101745605469,0.741821289062,0.662780761719,-4.8125,-37.375,51.4375,-0.32,5.86,8.13
1541003228049593925,292,0,/imu_data_acquisition2,33674.0,0.00506591796875,0.099365234375,0.745422363281,0.659118652344,-3.875,-6.375,-0.0625,-1.02,5.1,8.03
1541003228061548948,293,0,/imu_data_acquisition2,33686.0,0.00811767578125,0.0970458984375,0.749267578125,0.655090332031,-1.25,-39.6875,69.5625,-2.42,3.27,7.35
1541003228071813106,294,0,/imu_data_acquisition2,33693.0,0.0108032226562,0.0949096679688,0.752868652344,0.651184082031,-1.25,-35.4375,66.25,-4.49,1.79,7.8
1541003228079533100,295,0,/imu_data_acquisition2,33703.0,0.0127563476562,0.0925903320312,0.755798339844,0.648071289062,-8.5625,-31.3125,52.6875,-5.5,0.81,8.35
1541003228092128038,296,0,/imu_data_acquisition2,33715.0,0.0137329101562,0.0899658203125,0.757568359375,0.646423339844,-17.875,-26.875,29.6875,-7.92,-1.09,7.59
1541003228100514888,297,0,/imu_data_acquisition2,33723.0,0.0137329101562,0.0872192382812,0.757629394531,0.646667480469,-24.375,-21.25,-1.125,-9.14,-1.57,7.37
1541003228111746072,298,0,/imu_data_acquisition2,33735.0,0.0121459960938,0.0846557617188,0.755859375,0.649169921875,-33.8125,-8.4375,-5.375,-9.33,0.01,6.93
1541003228120158910,299,0,/imu_data_acquisition2,33743.0,0.00421142578125,0.0812377929688,0.752075195312,0.654052734375,-88.4375,39.0,-80.4375,-16.9,-2.11,8.18
1541003228128470897,300,0,/imu_data_acquisition2,33753.0,-6.103515625e-05,-6.103515625e-05,-6.103515625e-05,0.662048339844,-102.5,40.0625,-130.375,-16.31,0.64,5.97
1541003228139194011,301,0,/imu_data_acquisition2,33763.0,-0.0145874023438,0.0736694335938,0.736938476562,0.671752929688,-97.0,51.3125,-0.0625,-17.5,7.43,7.67
1541003228147079944,302,0,/imu_data_acquisition2,33771.0,-0.0247192382812,0.0692749023438,0.728149414062,0.681457519531,-109.5,46.875,-164.375,-5.11,17.82,-0.01
1541003228323713064,303,0,/imu_data_acquisition2,33785.0,-0.035400390625,0.06201171875,0.721313476562,0.688903808594,-140.75,28.9375,-130.25,-1.99,8.13,13.76
1541003228332662105,304,0,/imu_data_acquisition2,33792.0,-0.0435180664062,0.0543212890625,0.716979980469,0.693603515625,-127.375,5.25,-84.25,-0.8,-5.64,8.72
1541003228336096048,305,0,/imu_data_acquisition2,33804.0,-0.0491333007812,0.0494995117188,0.71484375,0.69580078125,-84.25,7.9375,-42.8125,-4.78,-13.21,10.34
1541003228338152885,306,0,/imu_data_acquisition2,33812.0,-0.0526123046875,0.0479125976562,0.713684082031,0.696838378906,-40.6875,16.4375,-21.125,-1.32,0.2,10.97
1541003228339627027,307,0,/imu_data_acquisition2,33824.0,-0.0555419921875,0.0467529296875,0.712951660156,0.697448730469,-32.6875,15.0625,-13.75,-2.13,-0.89,-0.01
1541003228340815067,308,0,/imu_data_acquisition2,33831.0,-0.0571899414062,0.0472412109375,0.71240234375,0.697814941406,-9.5,18.0625,-7.9375,-1.76,-2.07,9.73
1541003228342042922,309,0,/imu_data_acquisition2,33841.0,-0.0578002929688,0.0482788085938,0.71240234375,0.697692871094,3.75,14.125,1.5625,-2.13,-1.96,10.91
1541003228343331098,310,0,/imu_data_acquisition2,33851.0,-0.0575561523438,0.0491943359375,-6.103515625e-05,0.697204589844,8.6875,5.0,8.5625,-2.22,-0.7,9.89
1541003228350425004,311,0,/imu_data_acquisition2,33861.0,-0.0569458007812,0.0498046875,0.713562011719,0.696472167969,9.8125,-0.125,12.6875,-2.29,0.04,10.65
1541003228351732015,312,0,/imu_data_acquisition2,33871.0,-0.0560913085938,0.050048828125,-6.103515625e-05,0.695739746094,8.0,-5.4375,13.0625,-0.87,0.86,9.86
1541003228354031085,313,0,/imu_data_acquisition2,33881.0,-0.0554809570312,0.0499877929688,0.714965820312,0.695129394531,3.9375,-5.8125,10.6875,-1.01,0.99,10.17
1541003228357645988,314,0,/imu_data_acquisition2,33891.0,-0.0550537109375,0.0496826171875,0.715454101562,0.694763183594,0.0625,-5.75,7.0625,-1.01,0.98,9.97
1541003228359002113,315,0,/imu_data_acquisition2,33901.0,-0.0548706054688,0.0491943359375,0.715698242188,0.694519042969,-2.625,-5.75,4.0,-1.15,0.45,10.02
1541003228360573053,316,0,/imu_data_acquisition2,33911.0,-0.0548706054688,0.048583984375,0.7158203125,0.694396972656,-5.0625,-5.125,1.6875,-1.47,0.04,9.98
1541003228370038032,317,0,/imu_data_acquisition2,33921.0,-0.0548095703125,0.0480346679688,0.715881347656,0.694396972656,-4.6875,-4.8125,0.125,-1.59,0.07,9.91
1541003228372883081,318,0,/imu_data_acquisition2,33931.0,-0.0547485351562,0.0474853515625,0.715942382812,0.694396972656,-4.3125,-5.1875,0.1875,-1.58,-0.08,9.7
1541003228376174926,319,0,/imu_data_acquisition2,33941.0,-0.0546264648438,0.0469360351562,0.716003417969,0.6943359375,-3.3125,-5.8125,0.875,-1.62,-0.43,9.67
1541003228383838891,320,0,/imu_data_acquisition2,33951.0,-0.0543823242188,0.0464477539062,0.716186523438,0.694213867188,-2.0625,-5.875,2.125,-1.94,-0.01,-0.01
1541003228385886907,321,0,/imu_data_acquisition2,33961.0,-0.053955078125,0.0459594726562,0.716430664062,0.694030761719,-0.9375,-7.1875,3.75,-1.89,-0.42,9.79
1541003228390393972,322,0,/imu_data_acquisition2,33974.0,-0.0535278320312,0.0455932617188,0.716796875,0.693725585938,0.5625,-7.3125,5.1875,-1.43,0.42,9.77
1541003228392501115,323,0,/imu_data_acquisition2,33981.0,-0.0530395507812,0.045166015625,0.717163085938,0.693420410156,-0.3125,-7.25,5.6875,-1.45,0.58,9.6
1541003228394114971,324,0,/imu_data_acquisition2,33992.0,-0.0527954101562,0.044677734375,0.717468261719,0.693176269531,-2.5625,-6.5,4.375,-0.9,0.39,9.73
1541003228398089885,325,0,/imu_data_acquisition2,34002.0,-0.0526123046875,0.0442504882812,0.717590332031,0.693115234375,-2.0,-4.75,1.5625,-1.34,-0.37,10.1
1541003228400449991,326,0,/imu_data_acquisition2,34013.0,-0.0523681640625,0.0438842773438,0.717651367188,0.693054199219,-1.3125,-4.875,1.0,-1.25,-0.37,9.49
1541003228408672094,327,0,/imu_data_acquisition2,34029.0,-0.0521850585938,0.043701171875,0.7177734375,0.692932128906,0.25,-3.375,1.5625,-1.13,-0.54,9.99
1541003228413783073,328,0,/imu_data_acquisition2,34038.0,-0.0519409179688,0.0435791015625,-6.103515625e-05,0.692810058594,0.6875,-3.25,2.25,-1.61,-0.15,10.34
1541003228420263051,329,0,/imu_data_acquisition2,34043.0,-0.0516357421875,0.0435791015625,0.718078613281,0.692687988281,2.1875,-2.8125,3.1875,-1.61,-0.15,10.34
1541003228431004047,330,0,/imu_data_acquisition2,34054.0,-0.00439453125,-6.103515625e-05,-6.103515625e-05,0.692443847656,2.625,-0.0625,-0.0625,-1.08,0.06,9.85
1541003228439825057,331,0,/imu_data_acquisition2,34063.0,-0.0509033203125,0.0436401367188,0.718566894531,0.692199707031,3.1875,-2.6875,4.3125,-1.26,-0.16,10.24
1541003228451432943,332,0,/imu_data_acquisition2,34075.0,-0.050537109375,0.043701171875,0.718811035156,0.691955566406,3.125,-2.6875,4.3125,-1.22,-0.04,10.17
1541003228460165977,333,0,/imu_data_acquisition2,34084.0,-0.0501708984375,0.0436401367188,0.719055175781,0.691711425781,2.5,-3.4375,4.0625,-1.07,-0.17,9.99
1541003228469897985,334,0,/imu_data_acquisition2,34094.0,-0.0498657226562,0.0436401367188,0.719299316406,0.691528320312,2.25,-0.0625,-0.0625,-1.36,0.33,9.99
1541003228480597019,335,0,/imu_data_acquisition2,34102.0,-0.0494995117188,0.0435791015625,0.719543457031,0.691345214844,1.6875,-3.3125,3.5625,-1.15,0.2,10.12
1541003228490668058,336,0,/imu_data_acquisition2,34113.0,-0.0491943359375,0.04345703125,0.7197265625,0.691101074219,1.625,-3.8125,3.4375,-1.1,-0.01,-0.01
1541003228501030921,337,0,/imu_data_acquisition2,34125.0,-0.0488891601562,0.0433959960938,0.719909667969,0.690979003906,1.9375,-3.0625,3.125,-1.47,0.17,-0.01
1541003228507661104,338,0,/imu_data_acquisition2,34131.0,-6.103515625e-05,-6.103515625e-05,-6.103515625e-05,0.690795898438,1.5625,-3.6875,2.75,-1.35,0.2,9.92
1541003228520478963,339,0,/imu_data_acquisition2,34145.0,-0.0482177734375,0.0432739257812,0.720275878906,0.690673828125,1.75,-2.4375,2.4375,-1.05,0.0,10.05
1541003228530677080,340,0,/imu_data_acquisition2,34152.0,-0.0479125976562,0.043212890625,0.720397949219,0.690551757812,1.1875,-2.5,2.0,-1.2,0.19,9.75
1541003228541157007,341,0,/imu_data_acquisition2,34161.0,-6.103515625e-05,-6.103515625e-05,-6.103515625e-05,0.690490722656,0.6875,-1.375,1.4375,-1.28,0.02,-0.01
1541003228552280902,342,0,/imu_data_acquisition2,34176.0,-0.0476684570312,0.0432739257812,0.720520019531,0.6904296875,0.8125,-1.0,0.9375,-1.59,0.09,9.87
1541003228559523105,343,0,/imu_data_acquisition2,34184.0,-0.0476684570312,0.0432739257812,0.720520019531,0.6904296875,0.375,-0.3125,0.375,-1.28,0.07,9.79
1541003228566612958,344,0,/imu_data_acquisition2,34191.0,-0.0476684570312,0.0433349609375,0.720520019531,0.6904296875,0.0,0.0,0.1875,-1.46,0.14,9.76
1541003228579551935,345,0,/imu_data_acquisition2,34202.0,-0.0476684570312,0.0433349609375,0.720520019531,0.6904296875,-0.375,0.25,-0.0625,-1.64,0.21,9.96
1541003228590358972,346,0,/imu_data_acquisition2,34212.0,-0.0477294921875,0.0432739257812,0.720520019531,0.6904296875,-1.0625,0.1875,-0.3125,-1.58,0.12,9.76
1541003228598113059,347,0,/imu_data_acquisition2,34222.0,-0.0477905273438,0.043212890625,0.720520019531,0.6904296875,-1.3125,0.0625,-0.5625,-1.5,0.01,9.9
1541003228608725070,348,0,/imu_data_acquisition2,34233.0,-0.0479125976562,0.043212890625,0.720520019531,0.6904296875,-1.4375,-0.125,-0.8125,-1.41,0.01,9.83
1541003228620400905,349,0,/imu_data_acquisition2,34242.0,-0.0480346679688,0.043212890625,0.720458984375,0.690490722656,-1.8125,0.3125,-1.0625,-1.59,0.12,9.9
1541003228628348112,350,0,/imu_data_acquisition2,34252.0,-0.0482177734375,0.0430908203125,0.720397949219,0.690551757812,-2.0625,0.5,-1.0625,-1.19,-0.06,9.72
1541003228639436960,351,0,/imu_data_acquisition2,34262.0,-0.0484008789062,0.0430908203125,0.720275878906,0.690612792969,-2.25,1.3125,-1.375,-1.49,0.01,10.06
1541003228649827957,352,0,/imu_data_acquisition2,34272.0,-0.048583984375,0.04296875,0.72021484375,0.690734863281,-2.0625,0.875,-1.5625,-1.17,0.01,9.72
1541003228656636953,353,0,/imu_data_acquisition2,34281.0,-0.048828125,0.0429077148438,0.720092773438,0.690795898438,-2.3125,1.0625,-1.6875,-1.37,-0.12,10.04
1541003228668786048,354,0,/imu_data_acquisition2,34292.0,-0.049072265625,0.0428466796875,0.720031738281,0.69091796875,-2.25,1.5625,-1.8125,-1.36,0.11,9.65
1541003228682714939,355,0,/imu_data_acquisition2,34302.0,-0.04931640625,0.0428466796875,0.719909667969,0.690979003906,-2.75,1.625,-1.9375,-1.38,0.05,9.73
1541003228687711954,356,0,/imu_data_acquisition2,34312.0,-0.049560546875,0.0427856445312,0.719787597656,0.691101074219,-2.375,1.75,-2.0625,-1.53,-0.02,9.97
1541003228698837041,357,0,/imu_data_acquisition2,34323.0,-0.0498657226562,0.0429077148438,0.719665527344,0.691223144531,-1.875,2.375,-2.25,-1.54,0.01,9.94
1541003228708889007,358,0,/imu_data_acquisition2,34332.0,-0.0501098632812,0.04296875,0.719543457031,0.691345214844,-1.4375,2.375,-2.125,-1.45,-0.02,9.86
1541003228717782020,359,0,/imu_data_acquisition2,34342.0,-6.103515625e-05,-6.103515625e-05,-6.103515625e-05,0.691467285156,-1.25,3.125,-2.25,-1.54,0.0,9.97
1541003228729594945,360,0,/imu_data_acquisition2,34353.0,-0.0507202148438,0.043212890625,0.71923828125,0.691589355469,-1.4375,3.1875,-2.3125,-1.23,-0.07,9.84
1541003228743660926,361,0,/imu_data_acquisition2,34365.0,-0.051025390625,0.0433959960938,0.719055175781,0.691711425781,-1.25,3.8125,-2.5,-1.29,-0.17,9.99
1541003228750982999,362,0,/imu_data_acquisition2,34374.0,-0.0513305664062,0.0435180664062,0.718933105469,0.691833496094,-1.25,3.6875,-0.0625,-1.1,-0.08,9.7
1541003228760550975,363,0,/imu_data_acquisition2,34383.0,-0.0516357421875,0.0437622070312,0.71875,0.691955566406,-0.4375,4.375,-2.5,-1.06,-0.13,9.84
1541003228767023086,364,0,/imu_data_acquisition2,34391.0,-0.052001953125,0.0439453125,0.718566894531,0.692077636719,-0.875,5.0625,-2.5625,-1.1,-0.01,-0.01
1541003228779324054,365,0,/imu_data_acquisition2,34404.0,-0.0524291992188,0.044189453125,-6.103515625e-05,0.692260742188,-1.3125,5.4375,-2.75,0.46,0.12,8.81
1541003228789251089,366,0,/imu_data_acquisition2,34413.0,-0.0528564453125,0.0444946289062,0.718200683594,0.6923828125,-0.9375,6.375,-3.0625,-3.74,0.26,12.42
1541003228797496080,367,0,/imu_data_acquisition2,34421.0,-0.0535278320312,0.0447998046875,0.717956542969,0.692626953125,-2.875,8.4375,-3.8125,-2.0,-0.76,10.91
1541003228809098005,368,0,/imu_data_acquisition2,34433.0,-0.0538940429688,0.0452270507812,0.717651367188,0.69287109375,1.1875,5.9375,-4.375,-1.7,-0.35,11.57
1541003228819159030,369,0,/imu_data_acquisition2,34441.0,-0.00762939453125,-6.103515625e-05,-6.103515625e-05,0.692993164062,-1.5,9.0625,-2.8125,-0.62,-0.4,10.89
1541003228830148935,370,0,/imu_data_acquisition2,34453.0,-0.0550537109375,0.0463256835938,0.717163085938,0.693176269531,1.75,10.0,-3.5,-1.31,0.31,10.01
1541003228838646888,371,0,/imu_data_acquisition2,34463.0,-0.0556030273438,0.047119140625,0.716857910156,0.693420410156,2.125,11.625,-4.875,-1.2,-0.38,9.72
1541003228850840091,372,0,/imu_data_acquisition2,34474.0,-0.0562744140625,0.0479736328125,0.716430664062,0.693725585938,2.3125,12.5625,-5.3125,-0.97,-0.13,9.93
1541003228861087083,373,0,/imu_data_acquisition2,34483.0,-0.0570068359375,0.048828125,0.716064453125,0.694030761719,2.1875,13.4375,-0.0625,-0.68,-0.01,-0.01
1541003228869853019,374,0,/imu_data_acquisition2,34494.0,-0.0578002929688,0.0498046875,0.715576171875,0.6943359375,2.0625,15.0,-6.625,-1.16,0.15,9.67
1541003228881361961,375,0,/imu_data_acquisition2,34503.0,-0.0587768554688,0.0508422851562,0.715026855469,0.694763183594,1.375,16.375,-7.9375,-1.04,-0.19,9.86
1541003228888003110,376,0,/imu_data_acquisition2,34512.0,-0.0598754882812,0.0518188476562,0.71435546875,0.695251464844,-0.4375,17.625,-9.375,-0.55,-0.41,9.54
1541003228901892900,377,0,/imu_data_acquisition2,34523.0,-0.0612182617188,0.0529174804688,0.713623046875,0.695861816406,-1.375,20.875,-11.3125,-0.62,-0.37,9.57
1541003228910120010,378,0,/imu_data_acquisition2,34532.0,-0.0628051757812,0.0542602539062,0.712768554688,0.696472167969,-0.75,24.5625,-12.4375,-1.24,-0.01,-0.01
1541003228918729066,379,0,/imu_data_acquisition2,34543.0,-0.0645751953125,0.0557250976562,0.7119140625,0.697082519531,-1.1875,27.0,-11.5,-1.3,-0.59,9.65
1541003228929904937,380,0,/imu_data_acquisition2,34552.0,-0.0664672851562,0.0574951171875,0.711181640625,0.697509765625,0.5,30.9375,-10.125,-1.54,-0.21,9.78
1541003228936866044,381,0,/imu_data_acquisition2,34561.0,-0.068603515625,0.0593872070312,0.71044921875,0.697875976562,0.125,33.875,-9.1875,-3.18,0.45,10.16
1541003228950469970,382,0,/imu_data_acquisition2,34575.0,-0.070556640625,0.0611572265625,0.709899902344,0.698120117188,-0.8125,31.4375,-6.0,-0.49,-1.21,9.21
1541003228959227085,383,0,/imu_data_acquisition2,34582.0,-0.070556640625,0.0611572265625,0.709899902344,0.698120117188,0.3125,-0.0625,-0.0625,-2.5,0.34,10.26
