%time,field.header.seq,field.header.stamp,field.header.frame_id,field.time_stamp,field.quat_x,field.quat_y,field.quat_z,field.quat_w,field.gyro_x,field.gyro_y,field.gyro_z,field.accel_x,field.accel_y,field.accel_z
1542210294474065065,1,0,/imu_data_acquisition2,95550.0,0.0292358398438,0.0896606445312,0.840698242188,0.533203125,7.875,24.5,2.75,-0.23,1.08,9.72
1542210294484014034,2,0,/imu_data_acquisition2,95560.0,-6.103515625e-05,-6.103515625e-05,-6.103515625e-05,0.532836914062,7.9375,26.4375,2.1875,-0.37,0.92,9.55
1542210294494610071,3,0,/imu_data_acquisition2,95571.0,0.026123046875,0.0932006835938,0.840881347656,0.532470703125,8.1875,28.0,1.625,-1.19,1.4,9.84
1542210294507405042,4,0,/imu_data_acquisition2,95584.0,0.0245361328125,0.094970703125,-6.103515625e-05,0.532104492188,7.25,27.375,2.3125,-1.96,1.83,-0.01
1542210294517261981,5,0,/imu_data_acquisition2,95593.0,0.0230102539062,0.0965576171875,0.841125488281,0.531616210938,6.3125,25.75,3.4375,-1.59,2.11,10.23
1542210294523960113,6,0,/imu_data_acquisition2,95600.0,0.0214233398438,0.0977172851562,0.841491699219,0.530944824219,1.0,23.875,6.5,-1.59,2.11,10.23
1542210294535073995,7,0,/imu_data_acquisition2,95611.0,0.0198364257812,0.09912109375,0.841735839844,0.530395507812,4.0,25.4375,5.1875,-0.71,1.14,9.07
1542210294543936967,8,0,/imu_data_acquisition2,95620.0,0.0182495117188,0.1005859375,0.841918945312,0.52978515625,4.625,25.8125,4.875,0.18,1.7,10.04
1542210294557321071,9,0,/imu_data_acquisition2,95634.0,0.0166625976562,0.10205078125,0.842163085938,0.529174804688,4.0,25.5,5.25,-0.98,2.05,10.3
1542210294568731069,10,0,/imu_data_acquisition2,95644.0,0.0151977539062,0.103149414062,0.842468261719,0.528503417969,1.6875,22.0625,6.5,-0.57,1.07,10.0
1542210294573952913,11,0,/imu_data_acquisition2,95650.0,0.0137329101562,-6.103515625e-05,-6.103515625e-05,0.527709960938,-5.4375,18.25,9.625,-0.57,1.07,10.0
1542210294584012985,12,0,/imu_data_acquisition2,95660.0,0.0123901367188,0.104064941406,-6.103515625e-05,0.526916503906,-3.5,17.9375,8.9375,-0.56,1.35,9.62
1542210294593853950,13,0,/imu_data_acquisition2,95670.0,0.0110473632812,0.105224609375,0.84375,0.526245117188,2.6875,21.625,6.375,-0.77,1.42,9.61
1542210294608253002,14,0,/imu_data_acquisition2,95684.0,0.0096435546875,0.106506347656,0.843933105469,0.525634765625,3.875,23.0,5.1875,-0.01,0.95,9.7
1542210294616664886,15,0,/imu_data_acquisition2,95693.0,0.008056640625,-6.103515625e-05,-6.103515625e-05,0.525085449219,7.4375,27.3125,4.1875,-0.77,1.3,9.74
1542210294624069929,16,0,/imu_data_acquisition2,95700.0,0.00628662109375,0.1103515625,0.844116210938,0.524597167969,10.1875,30.875,3.0625,-0.81,1.17,10.08
1542210294634001970,17,0,/imu_data_acquisition2,95710.0,0.0045166015625,0.112670898438,0.844177246094,0.524047851562,11.8125,32.6875,3.0,-0.51,1.16,9.9
1542210294643954038,18,0,/imu_data_acquisition2,95720.0,0.00262451171875,0.115356445312,0.844116210938,0.523620605469,15.4375,36.5,1.6875,-1.21,1.24,10.14
1542210294660567998,19,0,/imu_data_acquisition2,95733.0,0.0006103515625,-6.103515625e-05,-6.103515625e-05,0.523193359375,18.4375,39.5,0.0625,-0.69,1.29,9.79
1542210294669214963,20,0,/imu_data_acquisition2,95744.0,-6.103515625e-05,-6.103515625e-05,-6.103515625e-05,0.522888183594,24.0,44.625,-2.0625,-0.42,1.36,9.77
1542210294674943923,21,0,/imu_data_acquisition2,95751.0,-0.00372314453125,0.124816894531,0.843383789062,0.522583007812,27.75,49.5,-1.75,-0.9,1.08,9.87
1542210294687328100,22,0,/imu_data_acquisition2,95762.0,-0.00616455078125,0.1279296875,0.843139648438,0.522216796875,31.5625,55.25,-1.375,-0.72,1.14,9.87
1542210294696296930,23,0,/imu_data_acquisition2,95770.0,-0.00885009765625,0.131591796875,0.842895507812,0.521667480469,35.0625,60.75,-0.125,-0.94,-0.01,-0.01
1542210294708539962,24,0,/imu_data_acquisition2,95784.0,-0.0117797851562,0.137390136719,0.842407226562,0.520874023438,40.5625,66.5625,1.0,-0.39,0.49,9.67
1542210294716661930,25,0,/imu_data_acquisition2,95792.0,-0.0150146484375,0.143920898438,-6.103515625e-05,0.519836425781,46.1875,-0.0625,-0.0625,-0.39,0.49,9.67
1542210294726027011,26,0,/imu_data_acquisition2,95802.0,-0.0184326171875,0.151916503906,0.841125488281,0.518798828125,59.3125,85.0625,1.4375,-1.09,1.18,9.65
1542210294735424995,27,0,/imu_data_acquisition2,95811.0,-0.0220336914062,0.1611328125,0.840026855469,0.517578125,71.3125,95.0,0.6875,-1.29,1.54,-0.01
1542210294744254112,28,0,/imu_data_acquisition2,95820.0,-0.02587890625,0.17138671875,0.838684082031,0.516296386719,80.6875,103.625,0.1875,-1.57,1.37,9.75
1542210294759236097,29,0,/imu_data_acquisition2,95835.0,-0.02978515625,0.182495117188,0.837097167969,0.514892578125,89.0,110.0625,-0.125,-1.83,2.35,9.51
1542210294768409013,30,0,/imu_data_acquisition2,95843.0,-6.103515625e-05,-6.103515625e-05,-6.103515625e-05,0.51318359375,94.5625,117.0,1.25,-2.08,2.45,9.31
1542210294775619983,31,0,/imu_data_acquisition2,95852.0,-0.038330078125,0.206359863281,0.83349609375,0.511047363281,96.625,122.9375,4.5625,-2.67,2.34,9.41
1542210294784183979,32,0,/imu_data_acquisition2,95860.0,-0.0428466796875,0.218994140625,0.83154296875,0.508666992188,100.5625,127.625,6.6875,-2.69,2.21,9.37
1542210294797763109,33,0,/imu_data_acquisition2,95873.0,-0.0474853515625,0.232177734375,0.829284667969,0.506103515625,106.875,132.8125,5.625,-2.67,2.9,9.23
1542210294808834075,34,0,/imu_data_acquisition2,95883.0,-0.0523071289062,0.245910644531,0.82666015625,0.50341796875,111.0625,138.4375,5.375,-2.77,3.32,8.84
1542210294817182064,35,0,/imu_data_acquisition2,95893.0,-0.0578002929688,0.259582519531,0.824035644531,0.500244140625,107.3125,146.3125,7.8125,-2.99,4.13,8.5
1542210294830769062,36,0,/imu_data_acquisition2,95900.0,-0.0645751953125,0.272766113281,0.821716308594,0.496215820312,92.75,158.375,13.375,-3.1,4.2,8.56
1542210294835321903,37,0,/imu_data_acquisition2,95911.0,-0.0731811523438,0.28515625,0.819885253906,0.491027832031,72.125,174.3125,21.3125,-3.38,4.39,8.24
1542210294845741033,38,0,/imu_data_acquisition2,95921.0,-0.00457763671875,-6.103515625e-05,-6.103515625e-05,0.485046386719,60.0625,183.25,27.5,-3.15,5.11,8.26
1542210294861104011,39,0,/imu_data_acquisition2,95931.0,-0.093505859375,0.308471679688,0.816955566406,0.478271484375,46.4375,195.1875,30.6875,-4.27,5.24,7.85
1542210294868190050,40,0,/imu_data_acquisition2,95944.0,-0.104797363281,0.319641113281,0.815490722656,0.470947265625,41.1875,200.6875,33.625,-3.51,5.56,8.18
1542210294875065088,41,0,/imu_data_acquisition2,95951.0,-0.116455078125,0.330322265625,0.814025878906,0.463317871094,34.375,203.375,35.1875,-3.67,5.5,8.71
1542210294884854078,42,0,/imu_data_acquisition2,95961.0,-0.127990722656,0.339721679688,0.813049316406,0.455078125,19.625,196.3125,41.375,-0.51,1.45,19.09
1542210294894877910,43,0,/imu_data_acquisition2,95971.0,-0.136840820312,0.346557617188,0.812683105469,0.447998046875,8.875,150.9375,40.875,1.48,-8.89,23.09
1542210294908030033,44,0,/imu_data_acquisition2,95983.0,-0.140563964844,0.348022460938,0.812927246094,0.4453125,-11.1875,53.875,13.8125,1.76,-15.38,25.35
1542210294920442104,45,0,/imu_data_acquisition2,95994.0,-0.135986328125,0.343322753906,0.812805175781,0.450500488281,-11.75,-90.125,-39.1875,4.25,-14.31,21.25
1542210294924137115,46,0,/imu_data_acquisition2,96000.0,-0.127258300781,0.335144042969,0.811584472656,0.461364746094,-9.8125,-169.1875,-88.4375,1.12,1.73,12.76
1542210294936211109,47,0,/imu_data_acquisition2,96012.0,-0.118225097656,0.326354980469,0.808898925781,0.474548339844,-4.375,-183.6875,-118.5625,-1.64,15.95,6.95
1542210294957380056,49,0,/imu_data_acquisition2,96033.0,-0.10498046875,0.312622070312,0.807006835938,0.489929199219,-11.6875,-103.0,-42.4375,-6.19,11.78,4.64
1542210294967401981,50,0,/imu_data_acquisition2,96042.0,-0.101806640625,0.308349609375,0.807922363281,0.49169921875,-23.5625,-62.4375,-4.875,-4.02,4.38,10.75
1542210294975182056,51,0,/imu_data_acquisition2,96051.0,-0.0988159179688,0.303649902344,0.809631347656,0.492492675781,-32.8125,-60.6875,7.0625,-0.74,-2.8,16.94
1542210294986428976,52,0,/imu_data_acquisition2,96062.0,-0.0944213867188,0.296447753906,-6.103515625e-05,0.495666503906,-44.0,-97.1875,-14.9375,0.84,-0.97,-0.01
1542210294994029045,53,0,/imu_data_acquisition2,96070.0,-0.0884399414062,0.285949707031,0.810852050781,0.5029296875,-57.375,-144.1875,-61.3125,1.72,-0.01,-0.01
1542210295008209943,54,0,/imu_data_acquisition2,96084.0,-0.0040283203125,-6.103515625e-05,-6.103515625e-05,0.514465332031,-54.3125,-166.5,-116.0625,0.39,-8.47,11.94
1542210295017719984,55,0,/imu_data_acquisition2,96093.0,-0.076416015625,0.263244628906,0.802856445312,0.529418945312,-38.1875,-165.6875,-168.5,-1.43,-0.02,11.64
1542210295024882078,56,0,/imu_data_acquisition2,96101.0,-0.0707397460938,0.252868652344,0.795227050781,0.546508789062,-23.875,-165.0625,-202.3125,-1.84,3.81,11.55
1542210295036772966,57,0,/imu_data_acquisition2,96112.0,-0.0650634765625,0.2421875,0.786743164062,0.564025878906,-23.8125,-167.625,-212.125,-2.1,5.16,11.99
1542210295045036077,58,0,/imu_data_acquisition2,96121.0,-0.0595703125,0.231323242188,0.778381347656,0.580627441406,-27.5625,-165.125,-202.875,-2.45,-0.01,-0.01
1542210295057588100,59,0,/imu_data_acquisition2,96133.0,-0.0545043945312,0.218200683594,0.771484375,0.595153808594,-56.5,-171.8125,-176.5625,-1.54,5.41,11.27
1542210295064037084,60,0,/imu_data_acquisition2,96140.0,-0.0494384765625,0.203979492188,0.765930175781,0.607727050781,-72.125,-175.75,-150.1875,-1.32,3.82,10.53
1542210295076159954,61,0,/imu_data_acquisition2,96152.0,-0.0443725585938,0.189208984375,0.761108398438,0.618835449219,-79.0,-175.8125,-131.375,-1.36,4.52,10.2
1542210295086105108,62,0,/imu_data_acquisition2,96161.0,-0.00750732421875,-6.103515625e-05,-6.103515625e-05,0.628540039062,-71.0625,-173.3125,-113.875,-1.02,4.39,4.92
1542210295094110012,63,0,/imu_data_acquisition2,96170.0,-0.0327758789062,0.163269042969,0.752502441406,0.63720703125,-49.1875,-158.0,-103.125,-0.27,6.22,4.88
1542210295108119010,64,0,/imu_data_acquisition2,96184.0,-0.0267944335938,0.154357910156,0.748229980469,0.644653320312,-22.75,-133.0,-89.8125,-0.93,8.5,7.39
1542210295114821910,65,0,/imu_data_acquisition2,96191.0,-0.0205078125,0.148132324219,0.744995117188,0.650085449219,0.4375,-112.5,-63.875,-1.13,-0.01,-0.01
1542210295124751091,66,0,/imu_data_acquisition2,96201.0,-0.0130004882812,-6.103515625e-05,-6.103515625e-05,0.652893066406,9.5,-114.6875,-21.8125,-0.89,10.13,10.9
1542210295140122890,67,0,/imu_data_acquisition2,96212.0,-0.0050048828125,0.136291503906,-6.103515625e-05,0.652648925781,6.0625,-117.5625,26.4375,-0.82,8.04,10.32
1542210295145420074,68,0,/imu_data_acquisition2,96222.0,0.0032958984375,0.130493164062,0.748657226562,0.649963378906,7.5,-113.8125,62.375,-0.92,5.7,10.34
1542210295157090902,69,0,/imu_data_acquisition2,96233.0,-6.103515625e-05,-6.103515625e-05,-6.103515625e-05,0.645812988281,14.0625,-109.125,83.625,-1.25,2.61,11.99
1542210295165837049,70,0,/imu_data_acquisition2,96240.0,0.0208129882812,0.120422363281,0.757751464844,0.640991210938,17.625,-109.5625,93.3125,-1.17,1.49,12.25
1542210295175484895,71,0,/imu_data_acquisition2,96251.0,0.0298461914062,0.114990234375,0.762451171875,0.636047363281,14.25,-113.5,94.3125,-0.86,0.14,11.74
1542210295187151908,72,0,/imu_data_acquisition2,96261.0,0.0384521484375,0.108947753906,0.766784667969,0.631469726562,6.0625,-115.75,87.6875,-0.74,-1.07,-0.01
1542210295195514917,73,0,/imu_data_acquisition2,96271.0,0.0464477539062,0.102294921875,0.770324707031,0.627685546875,-3.375,-115.8125,74.1875,-0.49,-1.11,11.08
1542210295224575996,76,0,/imu_data_acquisition2,96301.0,0.0676879882812,0.0789794921875,0.7763671875,0.621643066406,-24.5,-6.6875,-0.0625,-0.1,1.33,10.38
1542210295236114025,77,0,/imu_data_acquisition2,96312.0,0.0741577148438,0.0707397460938,0.777160644531,0.620910644531,-28.4375,-118.25,25.5,0.01,2.25,10.37
1542210295246269941,78,0,/imu_data_acquisition2,96322.0,0.0803833007812,0.0623168945312,0.777770996094,0.620300292969,-31.8125,-118.5,22.375,0.04,2.77,10.5
1542210295257550001,79,0,/imu_data_acquisition2,96332.0,0.086669921875,0.0537719726562,0.778259277344,0.619567871094,-32.3125,-119.4375,23.0625,0.05,4.14,10.42
1542210295269459009,80,0,/imu_data_acquisition2,96342.0,0.0931396484375,0.0452270507812,0.778869628906,0.618591308594,-14.625,-0.0625,-0.0625,-0.02,4.57,10.58
1542210295275959968,81,0,/imu_data_acquisition2,96352.0,0.099853515625,0.0365600585938,0.779663085938,0.617065429688,-29.0,-123.5,33.125,-0.03,4.84,10.35
1542210295287882089,82,0,/imu_data_acquisition2,96363.0,0.106811523438,0.0279541015625,0.780822753906,0.614868164062,-26.375,-125.125,41.75,-0.14,4.71,9.73
1542210295300558090,83,0,/imu_data_acquisition2,96371.0,0.114013671875,0.0194702148438,0.782348632812,0.611999511719,-23.25,-125.125,50.6875,-0.17,4.25,9.16
1542210295306113004,84,0,/imu_data_acquisition2,96381.0,0.121276855469,0.01123046875,0.784118652344,0.608520507812,-18.875,-123.9375,57.875,-0.1,3.87,8.44
1542210295318398952,85,0,/imu_data_acquisition2,96394.0,0.128662109375,0.003662109375,0.786071777344,0.604614257812,-12.5,-119.8125,62.125,-0.3,3.74,9.33
1542210295328088998,86,0,/imu_data_acquisition2,96402.0,0.135925292969,-0.00347900390625,0.7880859375,0.600402832031,-7.5,-115.3125,64.875,-0.43,3.19,9.31
1542210295335179090,87,0,/imu_data_acquisition2,96411.0,0.143127441406,-0.0103149414062,0.790100097656,0.595947265625,-5.5625,-112.5,66.625,-0.58,2.52,9.03
1542210295346163988,88,0,/imu_data_acquisition2,96422.0,0.150085449219,-0.0167846679688,0.792053222656,0.591491699219,-3.0625,-108.375,65.125,-1.32,2.11,10.09
1542210295356872081,89,0,/imu_data_acquisition2,96432.0,0.156982421875,-0.0228271484375,0.793640136719,0.587341308594,-0.9375,-104.625,59.4375,-1.57,1.77,9.79
1542210295366377115,90,0,/imu_data_acquisition2,96441.0,0.163818359375,-0.0288696289062,0.794799804688,0.583618164062,-2.375,-105.125,52.9375,-1.84,1.32,-0.01
1542210295376739978,91,0,/imu_data_acquisition2,96452.0,0.170349121094,-0.0350341796875,0.795532226562,0.580444335938,-6.0,-103.6875,44.0625,-2.07,0.85,8.72
1542210295385766983,92,0,/imu_data_acquisition2,96462.0,0.176330566406,-0.041015625,0.795593261719,0.578186035156,-11.125,-98.5,31.6875,-2.61,0.4,8.89
1542210295398071050,93,0,/imu_data_acquisition2,96473.0,0.181640625,-0.0468139648438,0.794921875,0.576965332031,-15.75,-91.75,16.125,-3.05,0.58,9.1
1542210295406536102,94,0,/imu_data_acquisition2,96481.0,0.186462402344,-0.0521850585938,0.79345703125,0.576965332031,-18.625,-85.1875,-1.0625,-3.44,0.79,8.41
1542210295414733886,95,0,/imu_data_acquisition2,96491.0,0.190856933594,-0.0570678710938,0.791259765625,0.578125,-19.4375,-78.75,-18.0625,-4.05,1.93,7.31
1542210295427081108,96,0,/imu_data_acquisition2,96503.0,0.19482421875,-0.06103515625,0.788391113281,0.580322265625,-17.1875,-69.0,-33.5625,-4.4,2.81,7.29
1542210295437783956,97,0,/imu_data_acquisition2,96512.0,0.198303222656,-0.0640869140625,0.78515625,0.583251953125,-13.1875,-58.5625,-44.9375,-4.51,3.68,7.32
1542210295454821109,98,0,/imu_data_acquisition2,96521.0,0.201416015625,-0.066162109375,0.781799316406,0.58642578125,-7.75,-49.25,-50.25,-4.18,4.96,7.66
1542210295460024118,99,0,/imu_data_acquisition2,96535.0,0.204345703125,-0.0673217773438,0.778564453125,0.589477539062,-0.3125,-40.375,-50.4375,-3.8,5.1,7.13
1542210295468632936,100,0,/imu_data_acquisition2,96544.0,0.207214355469,-0.0675659179688,0.775756835938,0.592224121094,8.625,-32.4375,-46.125,-3.52,5.14,6.95
1542210295474443912,101,0,/imu_data_acquisition2,96551.0,0.209899902344,-6.103515625e-05,-6.103515625e-05,0.594360351562,18.125,-23.5625,-39.625,-3.21,4.95,7.14
1542210295487452983,102,0,/imu_data_acquisition2,96562.0,-6.103515625e-05,-6.103515625e-05,-6.103515625e-05,0.595886230469,25.875,-15.5625,-32.0625,-3.56,8.49,5.4
1542210295496495962,103,0,/imu_data_acquisition2,96572.0,0.21435546875,-0.0634765625,0.770812988281,0.596557617188,28.875,-6.375,-18.8125,-4.59,9.36,-0.01
1542210295512602090,104,0,/imu_data_acquisition2,96582.0,0.213073730469,-0.0154418945312,-6.103515625e-05,0.595581054688,4.625,22.25,15.1875,-5.89,5.95,6.95
1542210295517348051,105,0,/imu_data_acquisition2,96592.0,0.209350585938,-0.0625,0.775329589844,0.592529296875,-17.6875,38.4375,54.625,-9.13,1.66,10.93
1542210295525110006,106,0,/imu_data_acquisition2,96601.0,0.199829101562,-0.061279296875,0.782653808594,0.586364746094,-35.0,109.75,112.375,1.16,-4.53,11.55
1542210295537791013,107,0,/imu_data_acquisition2,96613.0,0.190795898438,-0.0611572265625,0.789855957031,0.579650878906,-40.0625,96.5625,118.25,4.41,-1.68,13.35
1542210295550451993,108,0,/imu_data_acquisition2,96624.0,0.183898925781,-0.0587768554688,0.797424316406,0.571716308594,-1.9375,92.3125,125.8125,3.62,-8.03,9.54
1542210295554971933,109,0,/imu_data_acquisition2,96631.0,0.1767578125,-0.0541381835938,0.805114746094,0.563537597656,18.4375,-0.0625,-0.0625,0.56,-10.39,13.46
1542210295567841053,110,0,/imu_data_acquisition2,96643.0,0.169616699219,-0.0469970703125,0.812072753906,0.556335449219,39.875,125.75,104.5625,-1.54,-15.53,16.16
1542210295580157995,111,0,/imu_data_acquisition2,96651.0,0.161376953125,-0.0397338867188,0.817260742188,0.5517578125,28.0625,134.375,68.25,1.3,-21.54,19.16
1542210295584310054,112,0,/imu_data_acquisition2,96661.0,0.154052734375,-0.0333862304688,0.8193359375,0.551208496094,15.3125,116.3125,10.4375,1.22,-11.62,17.81
1542210295597002983,113,0,/imu_data_acquisition2,96671.0,-6.103515625e-05,-6.103515625e-05,-6.103515625e-05,0.554077148438,40.1875,99.5,-13.375,1.46,2.2,16.02
1542210295606389045,114,0,/imu_data_acquisition2,96681.0,0.147033691406,-0.01513671875,0.816955566406,0.557434082031,79.125,85.625,-61.125,0.28,12.25,14.3
1542210295614425897,115,0,/imu_data_acquisition2,96690.0,0.146301269531,-0.00531005859375,0.816162109375,0.558959960938,87.0625,71.0,-4.9375,1.74,6.03,12.01
1542210295626346111,116,0,/imu_data_acquisition2,96702.0,0.14501953125,0.00238037109375,0.81640625,0.558898925781,66.1875,63.5625,-10.875,1.87,1.97,11.17
1542210295636188030,117,0,/imu_data_acquisition2,96711.0,0.143127441406,0.00701904296875,0.816711425781,0.558959960938,32.1875,50.0625,-6.6875,1.67,3.2,10.7
1542210295646161079,118,0,/imu_data_acquisition2,96722.0,0.141174316406,-6.103515625e-05,-6.103515625e-05,0.559020996094,32.1875,50.0625,-6.6875,2.63,7.23,8.36
1542210295659347057,119,0,/imu_data_acquisition2,96734.0,0.138366699219,0.0150146484375,0.8173828125,0.558959960938,13.5625,49.5625,-2.5625,2.32,5.65,8.89
1542210295666892051,120,0,/imu_data_acquisition2,96742.0,0.134033203125,0.016845703125,0.818237304688,0.558776855469,-11.375,55.625,3.4375,1.84,3.47,9.71
1542210295676338911,121,0,/imu_data_acquisition2,96752.0,0.128051757812,0.0171508789062,0.819213867188,0.558776855469,-36.25,61.6875,4.625,1.57,1.5,11.09
1542210295690041065,122,0,/imu_data_acquisition2,96764.0,0.122131347656,0.0174560546875,0.820068359375,0.558837890625,-4.5625,-0.0625,-0.0625,1.79,-0.11,10.81
1542210295698935985,123,0,/imu_data_acquisition2,96774.0,0.116516113281,0.0186157226562,0.820739746094,0.559020996094,-26.0,62.5,0.1875,1.76,-0.67,10.45
1542210295706450939,124,0,/imu_data_acquisition2,96783.0,0.111267089844,0.0205688476562,0.8212890625,0.559143066406,-16.4375,65.1875,-1.4375,1.0,-0.59,10.42
1542210295719537973,125,0,/imu_data_acquisition2,96794.0,0.106201171875,0.0231323242188,0.821899414062,0.559143066406,-8.5625,66.875,-0.8125,1.09,-0.83,10.3
1542210295726670026,126,0,/imu_data_acquisition2,96802.0,0.101623535156,0.0267333984375,0.822448730469,0.55908203125,4.1875,69.0,-1.4375,0.88,-0.77,11.04
1542210295736676931,127,0,/imu_data_acquisition2,96813.0,0.0977783203125,0.0307006835938,0.822814941406,0.558959960938,14.0625,64.0625,-2.5,0.78,0.4,11.06
1542210295750427007,128,0,/imu_data_acquisition2,96824.0,0.0950927734375,0.0346069335938,0.822998046875,0.558898925781,20.1875,52.125,-3.6875,0.85,1.4,11.09
1542210295758306980,129,0,/imu_data_acquisition2,96833.0,0.09326171875,0.0381469726562,0.823059082031,0.558959960938,22.0625,41.5625,-4.5,0.99,1.45,10.15
1542210295766382932,130,0,/imu_data_acquisition2,96842.0,0.0917358398438,0.0413208007812,0.823059082031,0.559020996094,20.3125,35.5,-5.125,1.0,1.68,10.07
1542210295778316020,131,0,/imu_data_acquisition2,96854.0,-6.103515625e-05,-6.103515625e-05,-6.103515625e-05,0.559204101562,18.75,33.5,-6.5,0.92,1.86,9.68
1542210295786464929,132,0,/imu_data_acquisition2,96862.0,0.0902709960938,0.0442504882812,0.822937011719,0.559204101562,16.9375,32.75,-7.5625,0.9,2.03,10.21
1542210295796539068,133,0,/imu_data_acquisition2,96873.0,0.0872802734375,0.0492553710938,0.822570800781,0.559753417969,11.9375,29.0,-7.0625,0.67,1.73,10.4
1542210295810796976,134,0,/imu_data_acquisition2,96884.0,0.0858764648438,0.051025390625,0.822387695312,0.56005859375,7.3125,24.75,-6.3125,0.63,1.72,9.74
1542210295815936088,135,0,/imu_data_acquisition2,96892.0,0.08447265625,0.0524291992188,0.822265625,0.560302734375,4.3125,22.875,-5.6875,0.63,-0.01,-0.01
1542210295827014923,136,0,/imu_data_acquisition2,96903.0,0.083251953125,0.0536499023438,0.822143554688,0.560607910156,3.5,19.375,-5.4375,0.8,1.34,9.93
1542210295841161966,137,0,/imu_data_acquisition2,96914.0,0.083251953125,0.0536499023438,0.822143554688,0.560607910156,3.1875,18.25,-5.5,0.68,-0.01,-0.01
1542210295846306085,138,0,/imu_data_acquisition2,96922.0,0.0820922851562,0.0547485351562,0.822021484375,0.560852050781,3.625,15.9375,-5.4375,0.36,1.37,10.4
1542210295857285976,139,0,/imu_data_acquisition2,96933.0,0.0803833007812,0.0567626953125,0.821655273438,0.561401367188,4.1875,13.25,-4.9375,0.64,1.46,10.34
1542210295870857000,140,0,/imu_data_acquisition2,96944.0,0.0803833007812,0.0567626953125,0.821655273438,0.561401367188,3.5625,11.9375,-4.3125,0.92,1.29,9.97
1542210295877502918,141,0,/imu_data_acquisition2,96953.0,0.078857421875,-6.103515625e-05,-6.103515625e-05,0.561828613281,3.5625,11.375,-4.375,0.33,1.5,9.99
1542210295887536048,142,0,/imu_data_acquisition2,96964.0,0.078857421875,0.0582275390625,0.821411132812,0.561828613281,3.8125,10.3125,-3.9375,0.29,1.49,10.04
1542210295897924900,143,0,/imu_data_acquisition2,96973.0,0.0780639648438,0.0588989257812,0.8212890625,0.562072753906,3.8125,10.3125,-3.9375,0.7,1.57,10.62
1542210295906594991,144,0,/imu_data_acquisition2,96982.0,0.0770263671875,0.0599975585938,0.821105957031,0.562377929688,3.1875,8.3125,-3.0,0.4,1.56,10.46
1542210295919369935,145,0,/imu_data_acquisition2,96994.0,0.0770263671875,0.0599975585938,0.821105957031,0.562377929688,3.5625,8.125,-2.625,0.51,1.38,9.41
1542210295928216934,146,0,/imu_data_acquisition2,97003.0,0.0765991210938,0.0606079101562,0.820983886719,0.5625,2.8125,8.5625,-2.75,0.48,1.64,10.17
1542210295936006069,147,0,/imu_data_acquisition2,97012.0,0.0761108398438,0.061279296875,0.820922851562,0.562622070312,0.875,7.9375,-2.5625,0.51,1.5,9.86
1542210295947299957,148,0,/imu_data_acquisition2,97021.0,0.0756225585938,0.0617065429688,0.82080078125,0.562805175781,-0.3125,7.75,-0.0625,0.39,1.73,9.71
1542210295954865932,149,0,/imu_data_acquisition2,97031.0,0.0750732421875,0.0620727539062,0.820739746094,0.562927246094,-1.5,8.6875,-2.9375,0.32,1.53,9.84
1542210295966347932,150,0,/imu_data_acquisition2,97042.0,0.0743408203125,0.0624389648438,0.820678710938,0.563110351562,-2.5625,8.0,-2.8125,0.53,1.51,9.83
1542210295977900981,151,0,/imu_data_acquisition2,97053.0,0.0736694335938,0.0626220703125,0.820617675781,0.563293457031,-3.375,8.0,-2.6875,0.02,1.53,10.05
1542210295984457015,152,0,/imu_data_acquisition2,97061.0,0.0726928710938,0.062744140625,0.820556640625,0.5634765625,-4.25,7.0625,-2.0,0.31,1.55,-0.01
1542210295995136976,153,0,/imu_data_acquisition2,97071.0,0.0718383789062,0.0626831054688,0.820556640625,0.563598632812,-4.375,6.1875,-0.0625,0.46,1.35,10.01
1542210296007384061,154,0,/imu_data_acquisition2,97081.0,0.071044921875,0.0625610351562,0.820495605469,0.563720703125,-5.0625,6.4375,-1.9375,0.36,1.41,9.77
1542210296016365051,155,0,/imu_data_acquisition2,97092.0,0.0701904296875,-6.103515625e-05,-6.103515625e-05,0.563842773438,-5.0625,6.3125,-2.375,0.21,-0.01,-0.01
1542210296027944087,156,0,/imu_data_acquisition2,97104.0,0.0693359375,0.062255859375,0.820495605469,0.564025878906,-5.0625,6.5,-2.75,0.03,1.38,10.03
1542210296048934936,157,0,/imu_data_acquisition2,97119.0,0.0675048828125,0.0618286132812,0.820373535156,0.564453125,-5.0,5.25,-2.75,0.38,1.21,9.84
1542210296061391115,159,0,/imu_data_acquisition2,97137.0,0.0657958984375,0.0614013671875,0.820251464844,0.564819335938,-3.75,4.25,-2.25,0.09,1.38,9.84
1542210296082176923,160,0,/imu_data_acquisition2,97152.0,0.0657958984375,0.0614013671875,0.820251464844,0.564819335938,-3.9375,2.75,-1.625,0.05,1.3,10.08
1542210296084609031,161,0,/imu_data_acquisition2,97158.0,0.064453125,0.060791015625,0.820251464844,0.565124511719,-3.1875,3.5625,-1.3125,0.05,1.3,10.08
1542210296087753057,162,0,/imu_data_acquisition2,97163.0,0.064453125,0.060791015625,0.820251464844,0.565124511719,-3.0625,3.5625,-1.25,0.18,1.36,9.86
1542210296096864938,163,0,/imu_data_acquisition2,97172.0,0.0637817382812,0.0606079101562,0.820251464844,0.565185546875,-3.0625,3.375,-1.0,0.37,1.25,10.0
1542210296105204105,164,0,/imu_data_acquisition2,97181.0,0.063232421875,0.0604248046875,0.820251464844,0.565307617188,-3.0625,3.375,-0.0625,0.29,1.25,9.93
1542210296116645097,165,0,/imu_data_acquisition2,97192.0,0.0625610351562,-6.103515625e-05,-6.103515625e-05,0.565368652344,-3.25,4.0,-0.5625,0.22,1.33,9.67
1542210296127151966,166,0,/imu_data_acquisition2,97202.0,0.0619506835938,0.0599975585938,0.8203125,0.565368652344,-2.8125,4.875,-0.5625,0.17,1.31,10.04
1542210296135749101,167,0,/imu_data_acquisition2,97211.0,0.0613403320312,0.0598754882812,0.820373535156,0.565368652344,-2.8125,4.875,-0.5625,0.33,1.31,9.87
1542210296149578094,168,0,/imu_data_acquisition2,97224.0,0.0607299804688,-6.103515625e-05,-6.103515625e-05,0.565368652344,-2.8125,5.25,-1.125,0.33,1.26,9.84
1542210296166419029,170,0,/imu_data_acquisition2,97243.0,0.0594482421875,0.0596313476562,0.820373535156,0.565551757812,-2.9375,5.9375,-1.5625,0.42,1.2,9.8
1542210296178261041,171,0,/imu_data_acquisition2,97254.0,0.0587768554688,0.0595092773438,0.820373535156,0.565673828125,-2.75,6.6875,-2.125,0.36,1.18,9.79
1542210296185849905,172,0,/imu_data_acquisition2,97261.0,0.0580444335938,0.0593872070312,0.820373535156,0.565795898438,-2.75,6.6875,-2.125,0.36,1.18,9.79
1542210296196914911,173,0,/imu_data_acquisition2,97273.0,0.0571899414062,0.0593872070312,0.8203125,0.565979003906,-2.4375,8.3125,-2.5,0.0,1.41,10.07
1542210296207437992,174,0,/imu_data_acquisition2,97281.0,0.056396484375,0.0595092773438,0.820251464844,0.566101074219,-2.4375,8.3125,-2.5,0.0,1.41,10.07
1542210296217561960,175,0,/imu_data_acquisition2,97293.0,0.0556030273438,-6.103515625e-05,-6.103515625e-05,0.566284179688,-1.9375,8.6875,-2.4375,0.27,1.3,9.81
1542210296227523088,176,0,/imu_data_acquisition2,97303.0,0.0538940429688,0.0599365234375,0.820068359375,0.566528320312,-2.0,9.0625,-2.625,0.31,1.05,9.85
1542210296236494064,177,0,/imu_data_acquisition2,97312.0,0.0538940429688,0.0599365234375,0.820068359375,0.566528320312,-2.0,9.0625,-2.625,0.31,1.05,9.85
1542210296247534036,178,0,/imu_data_acquisition2,97323.0,0.052978515625,0.06005859375,0.820007324219,0.566711425781,-1.625,9.75,-2.8125,0.09,1.26,-0.01
1542210296257137060,179,0,/imu_data_acquisition2,97332.0,0.0520629882812,0.0602416992188,0.819946289062,0.56689453125,-1.625,9.75,-2.8125,0.16,1.24,9.82
1542210296267024993,180,0,/imu_data_acquisition2,97342.0,0.0511474609375,-6.103515625e-05,-6.103515625e-05,0.567077636719,-0.8125,11.3125,-3.1875,0.09,1.11,9.87
1542210296276818037,181,0,/imu_data_acquisition2,97352.0,0.0501708984375,0.060791015625,0.819763183594,0.567260742188,-0.5,12.1875,-3.375,0.08,1.06,10.01
1542210296286107063,182,0,/imu_data_acquisition2,97362.0,0.0491333007812,0.0611572265625,0.819702148438,0.567443847656,-0.5,12.1875,-3.375,-0.03,1.15,10.09
1542210296295983076,183,0,/imu_data_acquisition2,97371.0,0.0479736328125,0.0615844726562,0.819580078125,0.567626953125,0.375,13.375,-3.6875,-0.03,1.15,10.09
1542210296305524110,184,0,/imu_data_acquisition2,97382.0,0.046875,0.0620727539062,0.819458007812,0.567810058594,0.875,13.1875,-3.6875,0.14,0.82,10.04
1542210296318134069,185,0,/imu_data_acquisition2,97392.0,-6.103515625e-05,-6.103515625e-05,-6.103515625e-05,0.568054199219,2.0,13.625,-3.625,0.14,0.47,9.03
1542210296326508045,186,0,/imu_data_acquisition2,97402.0,0.0447998046875,0.0631713867188,0.819274902344,0.568176269531,3.25,16.0625,-2.375,-0.44,0.66,9.86
1542210296338218927,187,0,/imu_data_acquisition2,97411.0,0.0438842773438,0.0641479492188,0.819213867188,0.568237304688,3.25,16.0625,-2.375,-0.44,0.66,9.86
1542210296346640110,188,0,/imu_data_acquisition2,97422.0,0.0430297851562,0.0651245117188,0.819213867188,0.568176269531,3.5625,14.8125,0.375,-0.02,1.6,10.27
1542210296356157064,189,0,/imu_data_acquisition2,97432.0,0.042236328125,0.0662841796875,0.819274902344,0.567993164062,6.875,16.8125,1.375,0.51,-0.01,-0.01
1542210296369956970,190,0,/imu_data_acquisition2,97443.0,0.0413818359375,0.0675659179688,0.8193359375,0.567749023438,6.75,17.875,2.3125,0.01,2.12,10.51
1542210296381279945,191,0,/imu_data_acquisition2,97453.0,0.04052734375,0.06884765625,0.819519042969,0.567504882812,6.375,18.6875,1.5,0.03,1.45,9.9
1542210296384632110,192,0,/imu_data_acquisition2,97461.0,0.03955078125,0.0701904296875,0.819580078125,0.567260742188,6.375,18.6875,1.5,0.03,1.45,9.9
1542210296398319959,193,0,/imu_data_acquisition2,97471.0,0.0384521484375,0.0715942382812,0.819641113281,0.567077636719,6.1875,19.875,0.5625,-0.27,1.35,9.89
1542210296407819032,194,0,/imu_data_acquisition2,97483.0,0.0372924804688,0.0731201171875,0.819641113281,0.566955566406,7.75,22.6875,1.375,-0.3,1.26,9.85
1542210296416248083,195,0,/imu_data_acquisition2,97492.0,0.0360717773438,0.07470703125,0.819763183594,0.566711425781,7.625,24.125,3.0625,-0.42,1.05,10.1
1542210296428446054,196,0,/imu_data_acquisition2,97503.0,0.0347900390625,0.0763549804688,0.819885253906,0.566284179688,8.6875,24.6875,3.6875,-0.27,1.36,10.1
1542210296441716909,197,0,/imu_data_acquisition2,97511.0,0.0335083007812,0.0781860351562,0.820129394531,0.565856933594,8.6875,24.6875,3.6875,-0.27,1.36,10.1
1542210296446583986,198,0,/imu_data_acquisition2,97523.0,0.0321655273438,0.0800170898438,0.820373535156,0.565307617188,8.6875,26.125,4.875,-0.59,1.11,10.01
1542210296457360982,199,0,/imu_data_acquisition2,97532.0,0.03076171875,0.0819702148438,0.820556640625,0.564819335938,9.5,27.25,4.0625,-0.37,1.1,9.79
1542210296467576026,200,0,/imu_data_acquisition2,97543.0,0.0289916992188,0.08349609375,0.82080078125,0.564331054688,6.5,28.4375,5.5,-0.9,1.72,10.18
1542210296477268934,201,0,/imu_data_acquisition2,97553.0,0.02734375,0.0853271484375,0.821044921875,0.563781738281,4.6875,28.3125,5.875,-1.49,1.19,9.61
1542210296484988927,202,0,/imu_data_acquisition2,97560.0,0.025634765625,0.0869750976562,0.821350097656,0.563110351562,4.6875,28.3125,5.875,-1.49,1.19,9.61
1542210296497198104,203,0,/imu_data_acquisition2,97571.0,-6.103515625e-05,-6.103515625e-05,-6.103515625e-05,0.562438964844,3.75,28.75,6.75,0.25,1.28,9.75
1542210296507369041,204,0,/imu_data_acquisition2,97583.0,0.0220336914062,0.0899658203125,0.822082519531,0.561767578125,1.1875,-0.0625,-0.0625,-1.08,1.77,9.91
1542210296517724037,205,0,/imu_data_acquisition2,97593.0,0.0202026367188,0.0912475585938,0.822509765625,0.56103515625,0.125,26.9375,7.375,-0.99,1.5,9.73
1542210296527451038,206,0,/imu_data_acquisition2,97603.0,0.0183715820312,0.092529296875,-6.103515625e-05,0.560302734375,-0.3125,26.875,7.5,-0.9,1.71,10.34
1542210296537286996,207,0,/imu_data_acquisition2,97611.0,0.0167236328125,0.0933837890625,0.823364257812,0.559509277344,-2.8125,23.1875,8.6875,-0.9,1.71,10.34
1542210296544426918,208,0,/imu_data_acquisition2,97621.0,0.014892578125,0.093505859375,0.824035644531,0.558532714844,-11.4375,19.875,11.9375,-0.86,0.8,9.61
1542210296557653903,209,0,/imu_data_acquisition2,97633.0,0.0132446289062,0.0940551757812,0.824584960938,0.557678222656,-6.0,20.875,10.25,-0.51,1.25,9.49
1542210296569119930,210,0,/imu_data_acquisition2,97643.0,0.01171875,0.0953369140625,0.824951171875,0.556945800781,2.125,23.625,7.3125,-0.99,1.44,10.01
1542210296576961040,211,0,/imu_data_acquisition2,97653.0,0.0101318359375,0.096923828125,0.8251953125,0.556335449219,4.8125,27.0,5.8125,-0.64,0.82,9.86
1542210296586755990,212,0,/imu_data_acquisition2,97662.0,0.00860595703125,0.0986328125,0.825439453125,0.555725097656,6.1875,26.875,5.3125,-0.64,0.82,9.86
1542210296597764015,213,0,/imu_data_acquisition2,97671.0,0.00701904296875,0.100708007812,0.825561523438,0.555236816406,9.75,29.5625,3.375,-1.14,1.15,10.04
1542210296604908943,214,0,/imu_data_acquisition2,97681.0,0.00518798828125,0.102478027344,0.825622558594,0.554870605469,11.0,31.6875,2.125,-0.84,1.37,9.91
1542210296617672920,215,0,/imu_data_acquisition2,97693.0,0.00323486328125,0.104431152344,0.825622558594,0.554443359375,13.1875,35.6875,2.0,-0.8,-0.01,-0.01
1542210296627594947,216,0,/imu_data_acquisition2,97704.0,0.00115966796875,0.106689453125,0.825561523438,0.554138183594,15.875,39.5625,0.125,-0.93,1.1,9.98
1542210296635535001,217,0,/imu_data_acquisition2,97711.0,-0.0010986328125,0.109130859375,0.825500488281,0.553771972656,17.5,43.375,-0.5625,-0.93,1.1,9.98
1542210296647032022,218,0,/imu_data_acquisition2,97722.0,-0.0035400390625,0.111877441406,0.825439453125,0.553344726562,19.0625,46.6875,1.375,-1.09,1.22,10.06
1542210296655234098,219,0,/imu_data_acquisition2,97731.0,-0.00592041015625,0.114562988281,0.825378417969,0.552795410156,22.3125,50.5,2.125,-0.5,0.93,9.71
1542210296667073965,220,0,/imu_data_acquisition2,97743.0,-0.00860595703125,0.1181640625,0.825256347656,0.552185058594,27.875,58.75,1.0,-0.55,0.69,9.72
1542210296679115056,221,0,/imu_data_acquisition2,97754.0,-0.011474609375,0.122009277344,0.825073242188,0.551574707031,32.75,65.875,1.375,-0.97,0.91,9.7
1542210296685606002,222,0,/imu_data_acquisition2,97761.0,-0.0148315429688,0.128295898438,0.824584960938,0.55078125,40.5,74.6875,0.625,-0.97,0.91,9.7
1542210296696549892,223,0,/imu_data_acquisition2,97771.0,-0.018310546875,0.135681152344,0.823913574219,0.549987792969,50.1875,83.4375,-0.75,-1.23,1.41,9.61
1542210296707869052,224,0,/imu_data_acquisition2,97782.0,-0.02197265625,0.143737792969,0.823059082031,0.549011230469,55.6875,90.4375,0.5,-1.41,1.19,9.7
1542210296718369960,225,0,/imu_data_acquisition2,97794.0,-0.02587890625,0.152770996094,0.822143554688,0.547790527344,63.875,99.0,1.0,-1.81,1.61,9.7
1542210296727752923,226,0,/imu_data_acquisition2,97804.0,-0.0300903320312,0.162536621094,0.821044921875,0.54638671875,69.25,107.1875,2.375,-1.87,1.64,9.88
1542210296734263896,227,0,/imu_data_acquisition2,97810.0,-0.0344848632812,0.172912597656,0.81982421875,0.544799804688,74.0,112.6875,2.875,-1.87,1.64,9.88
1542210296745560884,228,0,/imu_data_acquisition2,97821.0,-0.0390625,0.183715820312,0.818359375,0.543090820312,77.875,118.3125,2.0,-2.38,2.33,9.42
1542210296757508039,229,0,/imu_data_acquisition2,97832.0,-0.0439453125,0.194946289062,0.816711425781,0.541320800781,80.1875,124.0,1.4375,-2.61,2.4,9.5
1542210296769188880,230,0,/imu_data_acquisition2,97844.0,-0.049072265625,0.206420898438,0.81494140625,0.539306640625,81.25,129.0,2.0,-2.62,2.94,9.08
1542210296778429031,231,0,/imu_data_acquisition2,97854.0,-0.0547485351562,0.21826171875,0.812927246094,0.537109375,81.1875,137.0625,1.5625,-2.65,3.16,9.0
1542210296786379098,232,0,/imu_data_acquisition2,97861.0,-0.0611572265625,0.230163574219,0.810791015625,0.53466796875,78.1875,144.9375,0.625,-2.65,3.16,9.0
1542210296794142007,233,0,/imu_data_acquisition2,97870.0,-0.068603515625,0.241882324219,0.80859375,0.531982421875,68.875,154.375,0.25,-2.74,3.15,8.88
1542210296807930946,234,0,/imu_data_acquisition2,97883.0,-0.0772094726562,0.253295898438,-6.103515625e-05,0.528747558594,58.5625,165.4375,2.0625,-3.43,3.46,8.86
1542210296818558931,235,0,/imu_data_acquisition2,97894.0,-0.0870971679688,0.264526367188,0.804443359375,0.524719238281,48.25,178.5,6.5625,-3.68,4.19,8.74
1542210296827446937,236,0,/imu_data_acquisition2,97904.0,-0.0977172851562,0.275817871094,0.802368164062,0.520141601562,42.6875,187.4375,9.0,-3.68,4.19,8.74
1542210296836833000,237,0,/imu_data_acquisition2,97912.0,-0.109130859375,0.286987304688,0.800170898438,0.515258789062,37.875,196.0625,8.625,-3.02,4.27,9.28
1542210296845139980,238,0,/imu_data_acquisition2,97921.0,-0.120910644531,0.298095703125,0.797607421875,0.51025390625,35.3125,199.5,5.6875,-3.33,4.77,9.91
1542210296854835033,239,0,/imu_data_acquisition2,97931.0,-0.132568359375,0.308044433594,-6.103515625e-05,0.505004882812,24.1875,192.0,-0.0625,-1.93,2.3,15.52
1542210296869807004,240,0,/imu_data_acquisition2,97944.0,-0.140686035156,0.314331054688,0.7939453125,0.501037597656,9.5625,130.75,9.4375,1.23,-12.45,22.18
1542210296880801916,241,0,/imu_data_acquisition2,97954.0,-0.142578125,0.315368652344,0.79248046875,0.502136230469,5.3125,22.375,-24.1875,6.61,-10.42,15.84
1542210296884960889,242,0,/imu_data_acquisition2,97961.0,-0.136352539062,0.310302734375,0.790771484375,0.509704589844,9.0,-113.6875,-66.25,6.61,-10.42,15.84
1542210296899215936,243,0,/imu_data_acquisition2,97972.0,-0.128295898438,0.302856445312,0.787475585938,0.521240234375,9.5625,-157.75,-110.0625,5.13,-5.8,13.21
1542210296910525083,244,0,/imu_data_acquisition2,97983.0,-0.12158203125,0.294738769531,0.782653808594,0.534606933594,2.75,-153.0,-143.0625,1.36,2.79,11.66
1542210296920515060,245,0,/imu_data_acquisition2,97994.0,-0.115600585938,0.285827636719,0.777404785156,0.548278808594,-6.25,-152.375,-152.0,-2.38,14.38,8.13
1542210296929078102,246,0,/imu_data_acquisition2,98004.0,-0.109191894531,0.276123046875,0.773376464844,0.560119628906,-17.75,-156.5625,-126.9375,-3.74,11.0,7.29
1542210296936407089,247,0,/imu_data_acquisition2,98011.0,-0.103576660156,0.266662597656,0.771423339844,0.568420410156,-32.125,-138.6875,-82.625,-3.74,11.0,7.29
1542210296945528030,248,0,/imu_data_acquisition2,98020.0,-0.0991821289062,0.258056640625,0.770935058594,0.573791503906,-41.1875,-114.5625,-48.75,-3.14,4.87,9.44
1542210296956084966,249,0,/imu_data_acquisition2,98032.0,-0.09521484375,0.249389648438,0.771423339844,0.57763671875,-48.75,-106.75,-13.625,-1.54,0.32,-0.01
1542210296967977046,250,0,/imu_data_acquisition2,98044.0,-0.0123291015625,-6.103515625e-05,-6.103515625e-05,0.582397460938,-42.3125,-117.875,-40.75,-0.9,-3.73,14.39
1542210296977627038,251,0,/imu_data_acquisition2,98053.0,-6.103515625e-05,-6.103515625e-05,-6.103515625e-05,0.589172363281,-29.625,-135.0625,-66.6875,-0.75,-4.57,12.26
1542210296985831975,252,0,/imu_data_acquisition2,98061.0,-0.0776977539062,0.222595214844,0.765869140625,0.598205566406,-14.75,-144.4375,-97.5,-1.14,-3.35,11.22
1542210296997747898,253,0,/imu_data_acquisition2,98071.0,-0.0709838867188,0.214416503906,0.760375976562,0.60888671875,-2.1875,-141.5625,-126.0,-1.96,-1.34,9.9
1542210297004726886,254,0,/imu_data_acquisition2,98081.0,-0.0648193359375,0.20703125,0.753845214844,0.620239257812,4.0625,-132.4375,-139.9375,-2.47,4.46,-0.01
1542210297017821073,255,0,/imu_data_acquisition2,98093.0,-0.0596923828125,0.199462890625,0.747497558594,0.630737304688,-6.3125,-0.0625,-0.0625,-2.26,6.19,11.07
1542210297028536081,256,0,/imu_data_acquisition2,98104.0,-0.0555419921875,0.191040039062,0.742553710938,0.639587402344,-25.5625,-117.0,-111.625,-2.52,6.17,12.35
1542210297033894062,257,0,/imu_data_acquisition2,98110.0,-0.0511474609375,0.181335449219,0.739135742188,0.646667480469,-39.3125,-125.8125,-84.375,-2.48,6.0,11.59
1542210297045413017,258,0,/imu_data_acquisition2,98121.0,-0.045166015625,0.171813964844,0.736389160156,0.65283203125,-28.125,-137.25,-68.0,-1.85,3.15,11.25
1542210297056354045,259,0,/imu_data_acquisition2,98131.0,-0.0391235351562,0.161071777344,0.73486328125,0.657592773438,-41.6875,-144.375,-46.625,-1.5,4.25,10.67
1542210297066770076,260,0,/imu_data_acquisition2,98143.0,-6.103515625e-05,-6.103515625e-05,-6.103515625e-05,0.661376953125,-37.25,-143.375,-15.5625,-1.38,4.45,8.48
1542210297083342075,261,0,/imu_data_acquisition2,98154.0,-0.0267333984375,0.140747070312,0.733825683594,0.6640625,-37.4375,-134.9375,-18.4375,-0.8,3.37,6.58
1542210297086422920,262,0,/imu_data_acquisition2,98161.0,-0.0054931640625,-6.103515625e-05,-6.103515625e-05,0.665710449219,-35.375,-123.25,-5.0625,-0.42,2.95,5.17
1542210297095865011,263,0,/imu_data_acquisition2,98171.0,-0.0159912109375,0.12451171875,0.734741210938,0.666625976562,-21.625,-101.8125,2.8125,-0.29,2.92,6.42
1542210297106929063,264,0,/imu_data_acquisition2,98182.0,-0.0106811523438,0.119445800781,0.735534667969,0.666809082031,-3.25,-86.4375,11.125,-1.12,4.95,11.95
1542210297118048906,265,0,/imu_data_acquisition2,98193.0,-6.103515625e-05,-6.103515625e-05,-6.103515625e-05,0.665954589844,0.6875,-89.125,27.75,-0.54,4.14,11.72
1542210297127679109,266,0,/imu_data_acquisition2,98204.0,0.00164794921875,0.109008789062,0.739685058594,0.6640625,-0.6875,-97.5,45.25,-0.3,2.67,11.03
1542210297136698007,267,0,/imu_data_acquisition2,98211.0,0.00860595703125,0.103393554688,0.742614746094,0.66162109375,1.8125,-101.9375,53.3125,-0.26,0.95,11.2
1542210297147253036,268,0,/imu_data_acquisition2,98222.0,0.0159301757812,0.0977172851562,0.745483398438,0.6591796875,4.125,-104.9375,53.5,-0.34,0.17,11.34
1542210297155886888,269,0,/imu_data_acquisition2,98232.0,0.0234985351562,0.0921020507812,0.747924804688,0.656921386719,7.375,-107.9375,48.5,-0.28,0.75,10.96
1542210297167964935,270,0,/imu_data_acquisition2,98243.0,0.0309448242188,0.0859985351562,0.750061035156,0.655029296875,2.1875,-110.625,43.6875,-0.18,1.07,10.62
1542210297179275989,271,0,/imu_data_acquisition2,98255.0,0.037841796875,0.0791625976562,0.752014160156,0.653259277344,-8.875,-112.1875,40.25,-0.11,1.72,10.49
1542210297186259031,272,0,/imu_data_acquisition2,98262.0,0.04443359375,0.0717163085938,0.753784179688,0.651672363281,-16.0625,-113.75,37.0625,-0.12,2.17,10.4
1542210297197788000,273,0,/imu_data_acquisition2,98270.0,0.0506591796875,0.0636596679688,0.755493164062,0.650085449219,-24.5625,-115.3125,36.75,-0.14,2.24,10.25
1542210297206229925,274,0,/imu_data_acquisition2,98281.0,0.056884765625,0.0554809570312,0.757080078125,0.648498535156,-25.5625,-116.875,36.125,-0.15,3.26,9.97
1542210297218259096,275,0,/imu_data_acquisition2,98294.0,0.0631713867188,0.0469360351562,0.758605957031,0.646789550781,-27.625,-119.4375,37.1875,0.04,3.28,9.56
1542210297224313974,276,0,/imu_data_acquisition2,98300.0,0.0696411132812,0.0382690429688,0.760192871094,0.644836425781,-28.125,-122.1875,39.75,0.1,3.68,9.71
1542210297235626935,277,0,/imu_data_acquisition2,98311.0,0.076171875,0.0296630859375,-6.103515625e-05,0.642639160156,-26.1875,-122.0,42.25,0.06,3.88,10.17
1542210297246887922,278,0,/imu_data_acquisition2,98322.0,0.0829467773438,0.0213623046875,0.763427734375,0.64013671875,-22.125,-122.0625,44.625,-0.01,4.09,10.38
1542210297254446029,279,0,/imu_data_acquisition2,98331.0,0.0899658203125,0.01318359375,0.76513671875,0.637390136719,-18.4375,-122.875,47.75,0.0,4.02,10.18
1542210297266442060,280,0,/imu_data_acquisition2,98342.0,0.09716796875,0.005126953125,0.766967773438,0.634216308594,-15.1875,-123.3125,51.875,-0.21,3.87,9.52
1542210297277333021,281,0,/imu_data_acquisition2,98352.0,0.104431152344,-0.00262451171875,0.768859863281,0.630798339844,-12.3125,-122.0,54.875,-0.3,3.68,9.76
1542210297284524917,282,0,/imu_data_acquisition2,98361.0,0.111694335938,-0.0101928710938,0.770812988281,0.627136230469,-10.125,-120.1875,57.0625,-0.52,3.46,9.94
1542210297297400951,283,0,/imu_data_acquisition2,98371.0,0.118957519531,-0.0176391601562,0.772705078125,0.623291015625,-8.375,-119.5625,57.625,-0.85,2.72,9.1
1542210297307379961,284,0,/imu_data_acquisition2,98381.0,0.126220703125,-0.0247802734375,0.7744140625,0.619506835938,-6.0,-117.375,55.875,-1.05,2.46,8.84
1542210297315748929,285,0,/imu_data_acquisition2,98392.0,0.13330078125,-0.031494140625,0.775817871094,0.615905761719,-3.9375,-113.5625,51.375,-1.29,2.33,8.59
1542210297327353954,286,0,/imu_data_acquisition2,98403.0,0.140197753906,-0.037841796875,0.776916503906,0.612609863281,-2.625,-108.75,45.75,-1.49,2.16,8.44
1542210297335901021,287,0,/imu_data_acquisition2,98411.0,0.146667480469,-0.0438842773438,0.777709960938,0.609680175781,-2.9375,-103.3125,39.3125,-2.13,2.02,8.76
1542210297344537019,288,0,/imu_data_acquisition2,98421.0,0.152770996094,-0.0496826171875,0.778076171875,0.607299804688,-5.375,-99.0,31.625,-2.45,1.73,8.61
1542210297356091022,289,0,/imu_data_acquisition2,98432.0,0.158386230469,-0.0554809570312,0.777954101562,0.60546875,-9.5625,-94.75,23.0625,-2.69,1.32,8.34
1542210297365506887,290,0,/imu_data_acquisition2,98441.0,0.163452148438,-0.06103515625,0.777282714844,0.6044921875,-13.625,-88.25,11.25,-3.21,1.1,9.89
1542210297374516010,291,0,/imu_data_acquisition2,98451.0,0.16796875,-0.0662231445312,0.775817871094,0.604553222656,-16.5625,-81.1875,-3.6875,-0.98,-0.01,-0.01
1542210297387001991,292,0,/imu_data_acquisition2,98461.0,0.17236328125,-0.0709838867188,0.773681640625,0.605529785156,-15.875,-77.9375,-18.5,-3.75,1.25,8.98
1542210297397558927,293,0,/imu_data_acquisition2,98471.0,0.1767578125,-0.0750122070312,0.770874023438,0.607421875,-11.375,-73.125,-32.9375,-4.15,2.69,7.92
1542210297404668092,294,0,/imu_data_acquisition2,98481.0,0.180908203125,-0.077880859375,0.767578125,0.609985351562,-4.375,-63.0625,-44.9375,-4.29,3.46,7.87
1542210297417406082,295,0,/imu_data_acquisition2,98492.0,0.184814453125,-0.0797729492188,0.764038085938,0.612976074219,1.375,-53.875,-51.875,-4.29,3.93,7.4
1542210297425827026,296,0,/imu_data_acquisition2,98501.0,0.1884765625,-0.0807495117188,0.760620117188,0.615966796875,7.875,-45.1875,-53.375,-4.19,4.1,7.0
1542210297435097932,297,0,/imu_data_acquisition2,98511.0,0.191955566406,-0.0806884765625,0.757446289062,0.618774414062,16.4375,-35.3125,-51.75,-3.97,4.23,6.61
1542210297446772098,298,0,/imu_data_acquisition2,98522.0,0.195190429688,-0.0795288085938,0.754699707031,0.621276855469,25.625,-24.375,-47.875,-4.49,9.2,4.57
1542210297456115961,299,0,/imu_data_acquisition2,98531.0,0.196838378906,-0.0152587890625,-6.103515625e-05,0.62255859375,23.8125,-3.4375,-27.0,-5.15,10.99,4.38
1542210297465271949,300,0,/imu_data_acquisition2,98541.0,0.194152832031,-0.0771484375,0.754699707031,0.621948242188,-12.0,30.875,15.8125,-4.13,19.72,-8.37
1542210297476933002,301,0,/imu_data_acquisition2,98552.0,0.187438964844,-0.0767822265625,0.760498046875,0.616943359375,-28.75,71.25,92.75,-16.21,2.03,15.61
1542210297486571073,302,0,/imu_data_acquisition2,98562.0,0.174438476562,-0.0773315429688,0.769409179688,0.609619140625,-76.125,126.375,144.1875,-2.39,-5.2,7.25
1542210297496056079,303,0,/imu_data_acquisition2,98571.0,0.163818359375,-0.0758666992188,0.779174804688,0.600219726562,-34.125,118.75,162.8125,5.39,-7.54,8.94
1542210297506824016,304,0,/imu_data_acquisition2,98582.0,0.155944824219,-0.0740356445312,0.789184570312,0.589416503906,-9.4375,95.875,174.125,3.05,-11.57,8.31
1542210297516683101,305,0,/imu_data_acquisition2,98591.0,0.148742675781,-0.06884765625,0.799072265625,0.578430175781,27.1875,111.3125,168.9375,1.52,-14.68,11.99
1542210297525486946,306,0,/imu_data_acquisition2,98602.0,0.140869140625,-0.0618286132812,0.807678222656,0.569213867188,35.5,130.5625,139.375,-1.19,-29.24,19.51
1542210297537029027,307,0,/imu_data_acquisition2,98612.0,0.132507324219,-0.0550537109375,0.812744140625,0.564636230469,19.8125,130.5625,72.9375,0.34,-26.46,20.19
1542210297546202898,308,0,/imu_data_acquisition2,98622.0,0.125854492188,-0.0480346679688,0.8134765625,0.565795898438,21.8125,112.625,-12.4375,0.25,-11.2,19.54
1542210297555910110,309,0,/imu_data_acquisition2,98632.0,0.123168945312,-0.0382690429688,0.811584472656,0.56982421875,68.6875,91.3125,-65.0625,1.16,8.62,15.9
1542210297573905944,310,0,/imu_data_acquisition2,98647.0,0.123474121094,-0.0269165039062,0.810302734375,0.572204589844,107.125,72.9375,-47.6875,0.92,8.68,12.49
1542210297576586961,311,0,/imu_data_acquisition2,98652.0,0.12353515625,-0.01806640625,0.810852050781,0.57177734375,86.3125,59.3125,-4.9375,1.5,-0.88,12.08
1542210297586004972,312,0,/imu_data_acquisition2,98662.0,0.122924804688,-0.011474609375,0.811645507812,0.570922851562,60.6875,51.5625,3.9375,2.07,-0.45,9.95
1542210297597268104,313,0,/imu_data_acquisition2,98673.0,0.12255859375,-6.103515625e-05,-6.103515625e-05,0.570922851562,58.5625,46.5625,-8.1875,1.76,8.63,10.33
1542210297606199026,314,0,/imu_data_acquisition2,98681.0,0.121643066406,0.00030517578125,0.811889648438,0.570983886719,46.0625,45.75,-7.75,2.29,-0.01,-0.01
1542210297617110013,315,0,/imu_data_acquisition2,98693.0,0.118957519531,0.00323486328125,0.8125,0.570678710938,10.25,46.5,2.375,2.35,3.61,8.71
1542210297629975080,316,0,/imu_data_acquisition2,98706.0,0.11474609375,0.0050048828125,0.813171386719,0.570556640625,-11.875,53.4375,3.1875,1.46,2.15,9.84
1542210297636404037,317,0,/imu_data_acquisition2,98711.0,0.109313964844,0.006591796875,0.813781738281,0.570739746094,-21.5,63.5625,0.5,1.62,1.06,10.5
1542210297646238088,318,0,/imu_data_acquisition2,98722.0,0.103271484375,0.008056640625,0.814331054688,0.571105957031,-26.875,68.8125,-1.9375,1.07,0.38,10.81
1542210297659581899,319,0,/imu_data_acquisition2,98734.0,0.0971069335938,0.00994873046875,0.814819335938,0.571472167969,-24.0,72.9375,-3.1875,1.2,-1.19,10.58
1542210297665712118,320,0,/imu_data_acquisition2,98741.0,-6.103515625e-05,-6.103515625e-05,-6.103515625e-05,0.571838378906,-12.875,-0.0625,-0.0625,0.66,-0.63,11.36
1542210297684533119,322,0,/imu_data_acquisition2,98761.0,0.082275390625,0.0203857421875,0.815551757812,0.572448730469,9.875,63.1875,-5.9375,0.27,-0.25,11.46
1542210297697442054,323,0,/imu_data_acquisition2,98772.0,0.0797729492188,0.0241088867188,0.815612792969,0.572570800781,18.8125,49.125,-4.9375,0.37,0.7,11.01
1542210297708842992,324,0,/imu_data_acquisition2,98782.0,0.0781860351562,-6.103515625e-05,-6.103515625e-05,0.572631835938,24.25,39.5,-3.8125,0.88,0.88,10.22
1542210297715400934,325,0,/imu_data_acquisition2,98791.0,0.0771484375,0.0310668945312,0.815612792969,0.572570800781,25.1875,32.625,-3.1875,-0.04,1.41,10.93
1542210297730133056,326,0,/imu_data_acquisition2,98806.0,0.0765991210938,0.0340576171875,0.815551757812,0.572570800781,24.9375,26.0,-3.125,0.89,1.79,9.82
1542210297736593008,327,0,/imu_data_acquisition2,98812.0,0.0762939453125,0.0364990234375,0.8154296875,0.572631835938,22.125,19.25,-0.0625,0.92,1.99,9.56
1542210297745856046,328,0,/imu_data_acquisition2,98822.0,0.0759887695312,0.0386962890625,0.815246582031,0.57275390625,18.5625,17.8125,-4.5,0.48,-0.01,-0.01
1542210297759584903,329,0,/imu_data_acquisition2,98833.0,0.0755615234375,0.0404663085938,0.815063476562,0.572998046875,13.9375,15.8125,-5.5625,0.92,1.59,9.69
1542210297767198085,330,0,/imu_data_acquisition2,98842.0,-6.103515625e-05,-6.103515625e-05,-6.103515625e-05,0.573303222656,10.5625,15.4375,-6.3125,0.43,1.45,10.21
1542210297779233932,331,0,/imu_data_acquisition2,98854.0,0.0743408203125,0.0432739257812,0.814575195312,0.573669433594,8.1875,14.1875,-6.3125,0.48,1.14,10.2
1542210297791390895,332,0,/imu_data_acquisition2,98861.0,0.0738525390625,0.0443725585938,0.814270019531,0.574035644531,6.9375,12.0,-6.4375,0.51,1.02,10.24
1542210297796829938,333,0,/imu_data_acquisition2,98872.0,0.073486328125,0.0454711914062,0.814025878906,0.574340820312,8.125,10.6875,-6.0625,0.46,1.07,10.24
1542210297808325052,334,0,/imu_data_acquisition2,98882.0,0.0731811523438,0.0465698242188,0.813842773438,0.574584960938,8.125,9.5,-0.0625,0.23,1.18,10.14
1542210297821651935,335,0,/imu_data_acquisition2,98892.0,0.072998046875,0.047607421875,0.813598632812,0.574829101562,8.6875,-0.0625,-0.0625,0.4,1.25,10.38
1542210297829626083,336,0,/imu_data_acquisition2,98904.0,0.0728759765625,0.048583984375,0.8134765625,0.574951171875,8.375,7.5625,-3.5,0.27,1.4,10.28
1542210297852741003,338,0,/imu_data_acquisition2,98923.0,0.07275390625,0.05029296875,0.813232421875,0.5751953125,7.875,5.625,-2.25,0.88,0.97,10.08
1542210297872396945,339,0,/imu_data_acquisition2,98942.0,0.0728149414062,0.0508422851562,0.813171386719,0.575256347656,5.5,6.0625,-1.5,0.51,1.74,9.49
1542210297874794960,340,0,/imu_data_acquisition2,98949.0,0.0726318359375,0.051513671875,0.813110351562,0.575256347656,5.5,6.0625,-1.5,0.61,1.43,9.68
1542210297883198976,341,0,/imu_data_acquisition2,98955.0,0.072509765625,0.052001953125,0.813049316406,0.575317382812,3.9375,4.3125,-1.5625,0.61,1.43,9.68
1542210297886466026,342,0,/imu_data_acquisition2,98962.0,0.0723266601562,0.0523681640625,0.81298828125,0.575439453125,2.0625,4.125,-1.5625,0.51,1.63,9.86
1542210297897365093,343,0,/imu_data_acquisition2,98974.0,0.0719604492188,0.0525512695312,0.812927246094,0.575561523438,-0.875,4.75,-2.0625,0.46,1.65,9.89
1542210297907824039,344,0,/imu_data_acquisition2,98984.0,0.0715942382812,0.052734375,0.812866210938,0.57568359375,-0.875,4.75,-2.0625,0.61,1.26,9.58
1542210297915690898,345,0,/imu_data_acquisition2,98991.0,-6.103515625e-05,-6.103515625e-05,-6.103515625e-05,0.575805664062,-2.125,5.125,-0.0625,0.25,-0.01,-0.01
1542210297925232887,346,0,/imu_data_acquisition2,99002.0,0.0703125,0.0529174804688,0.812683105469,0.575988769531,-2.75,6.0625,-2.5625,0.19,1.41,10.09
1542210297936541080,347,0,/imu_data_acquisition2,99012.0,0.069580078125,0.0529174804688,0.812683105469,0.576171875,-3.0625,5.875,-2.3125,0.32,1.27,9.79
1542210297944884061,348,0,/imu_data_acquisition2,99021.0,0.0689697265625,0.0530395507812,0.812622070312,0.576293945312,-3.0,6.0,-2.1875,0.2,1.43,10.3
1542210297956020116,349,0,/imu_data_acquisition2,99032.0,0.0684204101562,0.0531005859375,0.8125,0.576477050781,-2.875,5.75,-2.375,0.22,-0.01,-0.01
1542210297966226100,350,0,/imu_data_acquisition2,99042.0,0.0679321289062,0.05322265625,0.812438964844,0.576599121094,-2.4375,5.625,-2.6875,0.37,1.37,-0.01
1542210297974977970,351,0,/imu_data_acquisition2,99051.0,0.0671997070312,0.0532836914062,0.812377929688,0.576843261719,-2.6875,5.6875,-2.8125,0.18,-0.01,-0.01
1542210297985752105,352,0,/imu_data_acquisition2,99062.0,0.0664672851562,0.0532836914062,0.812255859375,0.577026367188,-3.0625,5.0625,-2.8125,0.2,1.4,9.93
1542210298000017881,353,0,/imu_data_acquisition2,99075.0,0.065673828125,0.0534057617188,0.812194824219,0.577209472656,-2.125,5.1875,-2.625,0.01,1.36,10.25
1542210298005348920,354,0,/imu_data_acquisition2,99081.0,0.0650024414062,0.0533447265625,0.812133789062,0.577392578125,-2.0625,4.125,-2.3125,0.29,1.13,9.73
1542210298025039911,355,0,/imu_data_acquisition2,99100.0,0.0643920898438,0.0534057617188,0.812072753906,0.577514648438,-1.3125,4.375,-1.9375,0.39,1.08,9.91
1542210298031059026,356,0,/imu_data_acquisition2,99107.0,0.0638427734375,0.0533447265625,0.81201171875,0.57763671875,-1.375,4.125,-1.8125,0.39,1.08,9.91
1542210298034559965,357,0,/imu_data_acquisition2,99111.0,0.063232421875,0.0533447265625,0.81201171875,0.577758789062,-1.0,4.3125,-1.625,0.11,1.3,9.9
1542210298046173095,358,0,/imu_data_acquisition2,99122.0,0.0626831054688,0.0534057617188,0.811950683594,0.577880859375,-1.3125,4.0625,-1.375,0.23,1.28,-0.01
1542210298057674884,359,0,/imu_data_acquisition2,99132.0,0.0621948242188,0.053466796875,0.811950683594,0.577941894531,-1.3125,4.4375,-1.3125,0.27,1.34,9.79
1542210298064359903,360,0,/imu_data_acquisition2,99141.0,0.0616455078125,0.053466796875,0.811950683594,0.578002929688,-2.0,4.5625,-0.9375,0.33,1.26,9.99
1542210298076066970,361,0,/imu_data_acquisition2,99152.0,0.0611572265625,0.0535278320312,0.811950683594,0.578063964844,-1.9375,5.0625,-0.875,0.37,1.32,9.68
1542210298086637973,362,0,/imu_data_acquisition2,99162.0,0.0611572265625,0.0535278320312,0.811950683594,0.578063964844,-2.125,5.875,-1.3125,0.26,1.35,9.75
1542210298096611976,363,0,/imu_data_acquisition2,99173.0,0.0599365234375,0.0537719726562,0.811889648438,0.578247070312,-2.375,6.625,-1.6875,0.17,1.4,10.2
1542210298106895923,364,0,/imu_data_acquisition2,99183.0,0.0592041015625,0.0537719726562,0.811828613281,0.578369140625,-3.125,6.875,-2.0,0.45,1.23,9.83
1542210298115751981,365,0,/imu_data_acquisition2,99191.0,0.0592041015625,0.0537719726562,0.811828613281,0.578369140625,-2.4375,8.5,-2.6875,0.14,1.24,9.93
1542210298125432968,366,0,/imu_data_acquisition2,99202.0,0.0576171875,0.0541381835938,0.811645507812,0.578735351562,-2.25,8.625,-3.0625,0.25,1.17,9.82
1542210298136392116,367,0,/imu_data_acquisition2,99212.0,0.0567016601562,0.054443359375,0.811584472656,0.578918457031,-1.8125,9.8125,-3.25,0.08,1.21,9.94
1542210298146349906,368,0,/imu_data_acquisition2,99221.0,0.0567016601562,0.054443359375,0.811584472656,0.578918457031,-1.375,9.6875,-3.375,0.28,1.12,10.04
1542210298155071020,369,0,/imu_data_acquisition2,99231.0,0.0548706054688,0.0550537109375,0.811401367188,0.579345703125,-0.6875,10.5,-3.125,0.0,1.19,10.19
1542210298166299104,370,0,/imu_data_acquisition2,99242.0,0.0548706054688,0.0550537109375,0.811401367188,0.579345703125,-0.5,10.3125,-3.1875,0.06,1.24,9.49
1542210298177490949,371,0,/imu_data_acquisition2,99252.0,0.0540161132812,0.0555419921875,0.811279296875,0.579528808594,-0.3125,11.0,-3.0,0.05,1.23,10.16
1542210298187305927,372,0,/imu_data_acquisition2,99263.0,0.0520629882812,0.056396484375,0.811157226562,0.579833984375,-1.1875,11.5,-2.5625,-0.08,1.23,10.14
1542210298198540925,373,0,/imu_data_acquisition2,99271.0,0.0520629882812,0.056396484375,0.811157226562,0.579833984375,-1.3125,12.0,-2.6875,-0.01,1.28,9.76
1542210298204335927,374,0,/imu_data_acquisition2,99281.0,0.051025390625,0.056884765625,0.81103515625,0.579956054688,-0.9375,11.875,-2.8125,0.2,1.23,10.07
1542210298216248989,375,0,/imu_data_acquisition2,99291.0,0.050048828125,0.0573120117188,0.810974121094,0.580078125,-0.875,13.25,-3.0,0.13,1.16,9.75
1542210298227818965,376,0,/imu_data_acquisition2,99304.0,0.0490112304688,0.0578002929688,0.810913085938,0.580261230469,-0.1875,13.1875,-3.0,-0.02,1.0,9.77
1542210298235852956,377,0,/imu_data_acquisition2,99312.0,0.0479736328125,0.058349609375,0.810791015625,0.580383300781,0.75,13.1875,-2.75,-0.16,1.4,10.03
1542210298247096061,378,0,/imu_data_acquisition2,99323.0,0.0469360351562,0.0589599609375,0.810729980469,0.580505371094,1.25,12.0625,-1.3125,0.25,0.77,10.01
1542210298257170915,379,0,/imu_data_acquisition2,99332.0,0.0460205078125,0.059326171875,0.810729980469,0.58056640625,2.0625,13.4375,-1.1875,-0.04,0.29,9.61
1542210298265353918,380,0,/imu_data_acquisition2,99341.0,-6.103515625e-05,-6.103515625e-05,-6.103515625e-05,0.58056640625,3.125,15.5,-0.0625,-0.48,0.46,-0.01
1542210298276801109,381,0,/imu_data_acquisition2,99352.0,-6.103515625e-05,-6.103515625e-05,-6.103515625e-05,0.58056640625,4.875,15.5625,-0.875,-0.37,1.11,10.19
1542210298286783933,382,0,/imu_data_acquisition2,99362.0,0.0433959960938,0.062255859375,0.810668945312,0.58056640625,5.875,16.0,0.75,0.3,1.76,9.74
1542210298296420097,383,0,/imu_data_acquisition2,99372.0,0.0426025390625,0.0634155273438,0.810729980469,0.580383300781,7.125,18.875,2.5,-0.07,2.25,10.16
1542210298306145906,384,0,/imu_data_acquisition2,99381.0,0.0416870117188,0.0648193359375,0.810913085938,0.580078125,7.125,18.875,2.5,0.02,2.19,10.68
1542210298317054986,385,0,/imu_data_acquisition2,99392.0,0.0396728515625,0.0678100585938,-6.103515625e-05,0.579406738281,6.5625,20.5,2.75,0.04,1.71,10.04
1542210298326570034,386,0,/imu_data_acquisition2,99402.0,0.0396728515625,0.0678100585938,0.811218261719,0.579406738281,5.6875,22.1875,1.5625,-0.2,1.13,9.97
1542210298337131023,387,0,/imu_data_acquisition2,99412.0,0.0383911132812,0.0692749023438,0.811340332031,0.579162597656,5.625,24.375,1.4375,-0.51,0.98,10.28
1542210298347806930,388,0,/imu_data_acquisition2,99423.0,0.0357055664062,0.072509765625,0.811584472656,0.57861328125,6.4375,24.375,1.3125,-0.65,1.28,10.17
1542210298356888055,389,0,/imu_data_acquisition2,99431.0,0.0357055664062,0.072509765625,-6.103515625e-05,0.57861328125,5.8125,26.0625,3.5625,-0.25,1.12,9.73
1542210298368973970,390,0,/imu_data_acquisition2,99443.0,0.0341796875,0.0741577148438,0.811767578125,0.578186035156,7.6875,28.5625,4.75,-0.86,1.15,9.97
1542210298376744985,391,0,/imu_data_acquisition2,99452.0,0.0326538085938,0.0760498046875,0.812072753906,0.577697753906,8.25,29.0,5.375,-0.42,1.47,9.7
