%time,field.header.seq,field.header.stamp,field.header.frame_id,field.time_stamp,field.quat_x,field.quat_y,field.quat_z,field.quat_w,field.gyro_x,field.gyro_y,field.gyro_z,field.accel_x,field.accel_y,field.accel_z
1542211874103179931,81,0,/imu_data_acquisition2,92384.0,-0.0582275390625,-0.0509643554688,0.816162109375,0.572570800781,-5.3125,7.6875,-0.5,-1.17,-1.64,9.94
1542211874109316110,82,0,/imu_data_acquisition2,92390.0,-0.0589599609375,-0.0509643554688,0.816101074219,0.572570800781,-4.75,7.0625,-0.1875,-1.02,-1.7,9.75
1542211874119999885,83,0,/imu_data_acquisition2,92401.0,-0.0595703125,-0.0509643554688,0.816101074219,0.572631835938,-4.3125,6.3125,0.125,-1.34,-1.54,10.0
1542211874130074977,84,0,/imu_data_acquisition2,92411.0,-0.0609130859375,-0.0505981445312,0.816040039062,0.572509765625,-4.3125,5.5625,0.125,-0.99,-1.63,10.03
1542211874140494108,85,0,/imu_data_acquisition2,92421.0,-0.06201171875,-0.0503540039062,0.816040039062,0.572509765625,-4.0625,4.75,0.125,-0.94,-1.47,9.6
1542211874150207996,86,0,/imu_data_acquisition2,92431.0,-0.0631713867188,-0.0499877929688,0.815979003906,0.572448730469,-4.875,5.0625,-0.0625,-1.27,-1.48,10.14
1542211874159982919,87,0,/imu_data_acquisition2,92441.0,-0.064208984375,-0.0496826171875,0.815979003906,0.572387695312,-5.25,4.5625,-0.25,-1.02,-1.36,9.44
1542211874170356988,88,0,/imu_data_acquisition2,92451.0,-0.0648193359375,-0.0499267578125,0.815856933594,0.572387695312,-5.8125,4.5,-0.625,-0.81,-1.44,9.65
1542211874182444095,89,0,/imu_data_acquisition2,92461.0,-0.0654296875,-0.050048828125,0.815795898438,0.572448730469,-6.0625,5.125,-1.0,-1.13,-1.52,9.85
1542211874192012071,90,0,/imu_data_acquisition2,92472.0,-0.066162109375,-0.05029296875,0.815673828125,0.572570800781,-6.5625,5.5,-1.375,-1.26,-1.34,9.59
1542211874202666044,91,0,/imu_data_acquisition2,92481.0,-0.0668334960938,-0.0504760742188,0.815490722656,0.572631835938,-6.75,5.6875,-1.5625,-0.99,-1.6,9.72
1542211874236639976,94,0,/imu_data_acquisition2,92515.0,-0.0701904296875,-0.0501708984375,0.815124511719,0.572814941406,-6.0,6.25,-1.125,-1.23,-1.77,9.85
1542211874261903047,95,0,/imu_data_acquisition2,92525.0,-0.0714721679688,-0.0499267578125,0.815002441406,0.572814941406,-5.25,6.25,-1.1875,-1.23,-1.76,9.92
1542211874271502971,96,0,/imu_data_acquisition2,92536.0,-0.0725708007812,-0.0497436523438,0.814880371094,0.572875976562,-4.875,6.4375,-1.3125,-1.05,-1.73,9.82
1542211874272789955,97,0,/imu_data_acquisition2,92540.0,-0.0736694335938,-0.0494995117188,0.814819335938,0.572875976562,-4.4375,6.3125,-0.9375,-1.22,-1.57,9.72
1542211874273741006,98,0,/imu_data_acquisition2,92551.0,-0.0746459960938,-0.0491943359375,0.814697265625,0.572937011719,-4.4375,6.1875,-1.3125,-1.17,-1.51,9.72
1542211874281883001,99,0,/imu_data_acquisition2,92560.0,-0.0755615234375,-0.0490112304688,0.814575195312,0.572998046875,-4.5,6.6875,-1.375,-1.07,-1.64,9.72
1542211874293267965,100,0,/imu_data_acquisition2,92571.0,-0.0765991210938,-0.0487060546875,0.814453125,0.573120117188,-5.1875,6.8125,-1.75,-1.33,-1.5,9.71
1542211874302475929,101,0,/imu_data_acquisition2,92583.0,-0.0777587890625,-0.0484619140625,0.814331054688,0.573181152344,-5.125,7.3125,-1.5625,-1.21,-1.79,9.7
1542211874308461904,102,0,/imu_data_acquisition2,92590.0,-0.078857421875,-0.0482788085938,0.814147949219,0.5732421875,-4.9375,7.3125,-1.8125,-1.18,-1.9,9.64
1542211874323043107,103,0,/imu_data_acquisition2,92603.0,-0.0799560546875,-0.0480346679688,0.814025878906,0.573303222656,-4.125,7.6875,-1.5,-1.25,-1.67,9.7
1542211874332859039,104,0,/imu_data_acquisition2,92614.0,-0.0811157226562,-0.047607421875,0.813903808594,0.573364257812,-3.625,8.25,-1.25,-1.46,-1.74,9.88
1542211874338547945,105,0,/imu_data_acquisition2,92620.0,-0.0823364257812,-0.0471801757812,0.813720703125,0.573425292969,-3.5,8.4375,-1.375,-1.36,-1.83,9.79
1542211874351855039,106,0,/imu_data_acquisition2,92632.0,-0.08349609375,-0.046875,0.813598632812,0.573486328125,-2.8125,8.8125,-1.125,-1.18,-1.99,9.91
1542211874362147092,107,0,/imu_data_acquisition2,92641.0,-0.0846557617188,-0.0464477539062,0.8134765625,0.573486328125,-2.8125,9.4375,-0.8125,-1.45,-1.81,9.84
1542211874368695974,108,0,/imu_data_acquisition2,92649.0,-0.0858154296875,-0.0458984375,0.813415527344,0.573486328125,-2.0,9.8125,-0.0625,-1.31,-1.8,9.66
1542211874380218982,109,0,/imu_data_acquisition2,92661.0,-0.0869140625,-0.0454711914062,0.813354492188,0.573486328125,-1.875,10.25,-0.5,-1.2,-1.84,9.8
1542211874390923976,110,0,/imu_data_acquisition2,92671.0,-0.087890625,-0.044921875,0.813171386719,0.573547363281,-1.75,11.3125,-1.0625,-1.19,-1.63,9.81
1542211874398192882,111,0,/imu_data_acquisition2,92679.0,-0.087890625,-0.044921875,0.813171386719,0.573547363281,-1.375,11.75,-0.0625,-1.45,-1.72,9.74
1542211874409997940,112,0,/imu_data_acquisition2,92690.0,-0.0901489257812,-0.043701171875,0.81298828125,0.573608398438,-0.875,11.875,0.125,-1.37,-1.94,9.43
1542211874421890974,113,0,/imu_data_acquisition2,92702.0,-0.0909423828125,-0.0430908203125,0.812927246094,0.573547363281,0.0,11.6875,0.6875,-1.89,-1.81,9.46
1542211874428617000,114,0,/imu_data_acquisition2,92710.0,-0.091796875,-0.0425415039062,0.812866210938,0.573547363281,0.4375,12.1875,0.875,-1.44,-2.3,8.45
1542211874441292047,115,0,/imu_data_acquisition2,92721.0,-0.091796875,-0.0425415039062,0.812866210938,0.573547363281,1.875,13.5,1.375,-1.71,-1.96,10.12
1542211874452611923,116,0,/imu_data_acquisition2,92733.0,-0.0933227539062,-0.0408325195312,0.812866210938,0.573486328125,3.625,-0.0625,-0.0625,-1.11,-1.14,10.32
1542211874458265066,117,0,/imu_data_acquisition2,92740.0,-0.0938720703125,-0.0398559570312,0.812683105469,0.57373046875,6.375,12.0,-2.625,-1.21,-1.23,10.3
1542211874471818923,118,0,/imu_data_acquisition2,92751.0,-0.0946044921875,-0.0387573242188,0.812622070312,0.57373046875,5.375,14.25,1.1875,-1.48,-0.97,9.93
1542211874482139110,119,0,/imu_data_acquisition2,92761.0,-0.0953979492188,-0.03759765625,0.812561035156,0.573791503906,5.5,15.5,0.625,-1.8,-1.43,10.23
1542211874488485097,120,0,/imu_data_acquisition2,92770.0,-0.0960083007812,-0.0364379882812,0.812255859375,0.574157714844,7.625,14.625,-4.0,-0.1,-1.57,9.36
1542211874501585960,121,0,/imu_data_acquisition2,92781.0,-0.096923828125,-0.0352783203125,0.812072753906,0.574401855469,4.875,16.75,-1.75,-2.44,-1.82,9.69
1542211874512092113,122,0,/imu_data_acquisition2,92791.0,-0.0975952148438,-0.0339965820312,0.811767578125,0.57470703125,7.8125,15.8125,-3.25,-0.6,-1.61,9.62
1542211874518692970,123,0,/imu_data_acquisition2,92800.0,-0.0985107421875,-0.03271484375,0.811767578125,0.57470703125,6.0,17.375,1.6875,-2.48,-2.16,10.28
1542211874531143903,124,0,/imu_data_acquisition2,92811.0,-0.099365234375,-0.0314331054688,0.811706542969,0.57470703125,6.625,17.125,1.9375,-1.83,-1.68,9.61
1542211874541924953,125,0,/imu_data_acquisition2,92821.0,-0.100463867188,-0.0303955078125,0.811645507812,0.574645996094,2.4375,17.5,1.375,-2.14,-1.81,9.5
1542211874553803920,126,0,/imu_data_acquisition2,92831.0,-0.1015625,-0.0291748046875,0.811584472656,0.574584960938,3.875,18.6875,2.0625,-1.39,-2.45,9.73
1542211874561562061,127,0,/imu_data_acquisition2,92841.0,-0.102600097656,-0.027587890625,0.811645507812,0.574401855469,7.75,21.0625,4.375,-2.03,-1.74,9.48
1542211874571898937,128,0,/imu_data_acquisition2,92851.0,-0.102600097656,-0.027587890625,0.811645507812,0.574401855469,0.25,21.5625,4.5625,-1.89,-1.97,9.86
1542211874579262018,129,0,/imu_data_acquisition2,92860.0,-0.105407714844,-0.025146484375,0.811706542969,0.573913574219,4.3125,21.5625,4.875,-1.86,-1.52,10.06
1542211874592432022,130,0,/imu_data_acquisition2,92872.0,-0.105407714844,-0.025146484375,0.811706542969,0.573913574219,0.3125,20.375,5.6875,-1.48,-1.66,9.45
1542211874604980945,131,0,/imu_data_acquisition2,92886.0,-0.108276367188,-0.02294921875,0.81201171875,0.572998046875,-0.1875,21.375,8.1875,-1.68,-1.69,9.36
1542211874610032081,132,0,/imu_data_acquisition2,92891.0,-0.109802246094,-0.0216674804688,0.812194824219,0.572509765625,1.6875,22.875,8.0625,-2.05,-0.01,-0.01
1542211874623467922,133,0,/imu_data_acquisition2,92904.0,-0.109802246094,-0.0216674804688,0.812194824219,0.572509765625,1.875,23.9375,7.125,-2.01,-1.55,9.7
1542211874633583068,134,0,/imu_data_acquisition2,92915.0,-0.112915039062,-0.01904296875,0.8125,0.571655273438,1.3125,23.25,7.375,-2.0,-1.68,9.9
1542211874638901948,135,0,/imu_data_acquisition2,92920.0,-0.112915039062,-0.01904296875,0.8125,0.571655273438,1.1875,23.9375,8.8125,-2.28,-1.51,9.79
1542211874654690980,136,0,/imu_data_acquisition2,92935.0,-0.116149902344,-0.0164794921875,0.812927246094,0.570434570312,0.5,24.0,9.625,-2.25,-1.49,9.68
1542211874662003040,137,0,/imu_data_acquisition2,92943.0,-0.117858886719,-0.0151977539062,0.813171386719,0.569763183594,0.375,24.5,10.75,-1.64,-1.69,9.33
1542211874670702934,138,0,/imu_data_acquisition2,92950.0,-0.117858886719,-0.0151977539062,0.813171386719,0.569763183594,-0.3125,26.25,12.4375,-2.3,-1.94,9.64
1542211874680833101,139,0,/imu_data_acquisition2,92961.0,-0.119689941406,-0.0137939453125,0.813537597656,0.568908691406,0.125,27.75,13.25,-2.48,-1.63,9.63
1542211874690270900,140,0,/imu_data_acquisition2,92971.0,-0.121948242188,-0.01220703125,0.813842773438,0.567993164062,0.375,28.375,13.75,-2.14,-1.88,9.61
1542211874700723886,141,0,/imu_data_acquisition2,92980.0,-0.124145507812,-0.0106811523438,0.814208984375,0.567077636719,1.25,30.3125,14.625,-2.02,-1.79,9.4
1542211874710838079,142,0,/imu_data_acquisition2,92991.0,-0.128540039062,-0.00726318359375,0.81494140625,0.565063476562,2.125,32.4375,15.4375,-1.98,-1.93,9.55
1542211874720628023,143,0,/imu_data_acquisition2,93001.0,-0.130859375,-0.00518798828125,0.815307617188,0.564025878906,3.75,34.5625,16.0625,-2.35,-1.69,9.55
1542211874734703063,144,0,/imu_data_acquisition2,93015.0,-0.133422851562,-0.0030517578125,0.815673828125,0.562927246094,4.3125,35.875,16.4375,-2.77,-1.96,9.62
1542211874743613958,145,0,/imu_data_acquisition2,93021.0,-0.133422851562,-0.0030517578125,0.815673828125,0.562927246094,9.125,36.625,16.0625,-1.92,-1.35,9.54
1542211874752008914,146,0,/imu_data_acquisition2,93033.0,-0.137939453125,0.002197265625,0.816467285156,0.560729980469,8.8125,40.6875,19.0625,-2.38,-1.9,9.66
1542211874763698101,147,0,/imu_data_acquisition2,93045.0,-0.140502929688,0.00518798828125,0.81689453125,0.559387207031,11.625,44.5625,21.3125,-2.08,-1.86,9.46
1542211874773694038,148,0,/imu_data_acquisition2,93055.0,-0.143127441406,0.0086669921875,0.817443847656,0.557922363281,14.4375,47.8125,23.5,-2.76,-1.58,9.52
1542211874783339977,149,0,/imu_data_acquisition2,93061.0,-0.143127441406,0.0086669921875,0.817443847656,0.557922363281,16.3125,50.25,26.25,-2.72,-1.53,9.31
1542211874794096946,150,0,/imu_data_acquisition2,93074.0,-0.148620605469,0.0166625976562,0.818664550781,0.554443359375,19.25,53.5625,28.8125,-2.55,-2.13,9.57
1542211874803203105,151,0,/imu_data_acquisition2,93084.0,-0.1513671875,0.0215454101562,0.819274902344,0.552612304688,25.6875,58.3125,29.625,-2.98,-1.62,9.55
1542211874814207077,152,0,/imu_data_acquisition2,93091.0,-0.1513671875,0.0215454101562,0.819274902344,0.552612304688,29.75,61.3125,31.0625,-2.79,-1.47,9.29
1542211874825851917,153,0,/imu_data_acquisition2,93106.0,-0.157165527344,0.0325927734375,0.820495605469,0.548645019531,32.25,65.8125,33.25,-2.85,-1.53,9.39
1542211874833770990,154,0,/imu_data_acquisition2,93115.0,-0.160278320312,0.0387573242188,0.821044921875,0.546508789062,35.0625,70.1875,34.8125,-3.18,-1.38,9.39
1542211874843400001,155,0,/imu_data_acquisition2,93121.0,-0.160278320312,0.0387573242188,0.821044921875,0.546508789062,35.0625,70.1875,34.8125,-3.28,-1.25,9.46
1542211874854285955,156,0,/imu_data_acquisition2,93134.0,-0.167053222656,0.05224609375,0.822082519531,0.541748046875,40.375,79.0625,38.5625,-3.31,-1.24,9.47
1542211874862993001,157,0,/imu_data_acquisition2,93144.0,-0.170715332031,0.0596923828125,0.822509765625,0.539245605469,44.1875,83.9375,39.375,-3.5,-1.03,9.17
1542211874875705957,158,0,/imu_data_acquisition2,93156.0,-0.170715332031,0.0596923828125,0.822509765625,0.539245605469,46.125,87.875,40.875,-3.6,-0.71,9.13
1542211874884227991,159,0,/imu_data_acquisition2,93164.0,-0.178527832031,0.0755615234375,0.823120117188,0.53369140625,46.3125,91.9375,43.625,-3.71,-0.48,9.37
1542211874890207052,160,0,/imu_data_acquisition2,93171.0,-0.178527832031,0.0755615234375,0.823120117188,0.53369140625,43.5625,95.625,48.375,-4.36,-0.35,9.13
1542211874901982069,161,0,/imu_data_acquisition2,93181.0,-0.182922363281,0.0836181640625,0.823547363281,0.530395507812,43.5625,95.625,48.375,-4.1,-0.69,-0.01
1542211874911551952,162,0,/imu_data_acquisition2,93192.0,-0.192687988281,0.100402832031,0.824523925781,0.5224609375,43.1875,106.5,56.25,-4.05,-0.82,9.27
1542211874920228004,163,0,/imu_data_acquisition2,93201.0,-0.192687988281,0.100402832031,0.824523925781,0.5224609375,48.375,114.5,57.0625,-4.05,-0.24,8.89
1542211874931859970,164,0,/imu_data_acquisition2,93212.0,-0.198059082031,0.109741210938,0.82470703125,0.518310546875,52.125,123.75,56.4375,-4.49,0.22,8.63
1542211874942745923,165,0,/imu_data_acquisition2,93223.0,-0.210144042969,0.130004882812,0.82421875,0.509582519531,51.4375,131.0,57.375,-4.28,0.36,8.8
1542211874949346065,166,0,/imu_data_acquisition2,93231.0,-0.210144042969,0.130004882812,0.82421875,0.509582519531,51.4375,131.0,57.375,-4.71,-0.12,8.89
1542211874961698055,167,0,/imu_data_acquisition2,93242.0,-0.216979980469,0.140563964844,0.823608398438,0.504821777344,53.4375,147.625,58.6875,-5.11,-0.12,8.7
1542211874971440076,168,0,/imu_data_acquisition2,93251.0,-6.103515625e-05,-6.103515625e-05,-6.103515625e-05,0.499877929688,56.5,153.625,60.0,-4.4,0.52,8.59
1542211874980362892,169,0,/imu_data_acquisition2,93261.0,-0.231750488281,0.163208007812,0.821533203125,0.494750976562,59.875,162.5625,60.75,-4.99,0.91,8.83
1542211874990675926,170,0,/imu_data_acquisition2,93271.0,-0.239685058594,0.17529296875,0.819946289062,0.489440917969,59.875,162.5625,60.75,-5.63,1.49,8.55
1542211875000566959,171,0,/imu_data_acquisition2,93281.0,-0.247802734375,0.187438964844,0.818237304688,0.483703613281,57.875,166.25,62.875,-6.43,1.03,8.78
1542211875010497093,172,0,/imu_data_acquisition2,93291.0,-0.256286621094,0.199096679688,0.816528320312,0.477478027344,35.125,154.0,63.9375,-5.86,-0.03,11.93
1542211875022798061,173,0,/imu_data_acquisition2,93303.0,-0.271423339844,0.215454101562,0.813415527344,0.467224121094,13.5,118.0,31.4375,-1.05,-17.37,20.96
1542211875035646915,174,0,/imu_data_acquisition2,93315.0,-0.271423339844,0.215454101562,0.813415527344,0.467224121094,6.1875,41.6875,-41.25,-0.81,-17.75,17.82
1542211875041049957,175,0,/imu_data_acquisition2,93321.0,-0.274780273438,0.216552734375,0.810729980469,0.469421386719,6.1875,41.6875,-41.25,2.55,-15.17,13.3
1542211875061491012,177,0,/imu_data_acquisition2,93342.0,-0.267639160156,0.206481933594,0.802673339844,0.491333007812,27.6875,-82.0625,-183.9375,-1.5,1.48,10.08
1542211875070925951,178,0,/imu_data_acquisition2,93352.0,-0.264099121094,0.200744628906,0.796325683594,0.505798339844,18.125,-75.375,-175.25,-11.19,15.07,11.34
1542211875084053039,179,0,/imu_data_acquisition2,93363.0,-0.261169433594,0.19482421875,0.790100097656,0.519226074219,3.4375,-72.6875,-98.5625,-8.65,20.19,5.44
1542211875089750051,180,0,/imu_data_acquisition2,93371.0,-0.2578125,0.189697265625,0.787292480469,0.527038574219,3.4375,-72.6875,-98.5625,-8.65,20.19,5.44
1542211875100013017,181,0,/imu_data_acquisition2,93381.0,-0.256469726562,0.187744140625,0.786926269531,0.528869628906,-3.5,-27.625,-22.1875,-12.1,11.98,4.36
1542211875113529920,182,0,/imu_data_acquisition2,93392.0,-0.257629394531,0.186401367188,0.788696289062,0.526123046875,-31.75,3.3125,29.8125,-4.83,-8.95,15.82
1542211875121304988,183,0,/imu_data_acquisition2,93402.0,-0.259582519531,0.184753417969,0.790893554688,0.5224609375,-24.3125,-36.5625,-15.625,-1.64,-20.19,20.43
1542211875131311893,184,0,/imu_data_acquisition2,93412.0,-0.258483886719,0.18115234375,0.791381835938,0.523559570312,19.0,-114.0,-88.25,1.7,-16.24,12.13
1542211875140146970,185,0,/imu_data_acquisition2,93420.0,-0.251342773438,0.175476074219,0.789611816406,0.531555175781,19.0,-114.0,-88.25,1.7,-16.24,12.13
1542211875149630069,186,0,/imu_data_acquisition2,93431.0,-0.242919921875,0.170654296875,0.784790039062,0.544006347656,55.0,-120.4375,-142.9375,1.63,-12.18,7.23
1542211875161612987,187,0,/imu_data_acquisition2,93442.0,-6.103515625e-05,-6.103515625e-05,-6.103515625e-05,0.558837890625,48.5625,-65.1875,-209.0625,-2.79,-1.65,9.13
1542211875172688961,188,0,/imu_data_acquisition2,93452.0,-0.233032226562,0.1630859375,0.767578125,0.574340820312,48.5625,-65.1875,-209.0625,-3.74,0.95,11.13
1542211875181472063,189,0,/imu_data_acquisition2,93462.0,-0.2314453125,0.157043457031,0.758239746094,0.588928222656,-29.6875,-66.125,-192.625,-5.0,1.51,12.6
1542211875189317941,190,0,/imu_data_acquisition2,93470.0,-0.231201171875,0.148071289062,0.750244140625,0.601440429688,-29.6875,-66.125,-192.625,-5.0,1.51,12.6
1542211875198549985,191,0,/imu_data_acquisition2,93480.0,-0.23095703125,0.136962890625,0.743835449219,0.612060546875,-57.125,-82.4375,-170.0,-4.36,0.35,11.33
1542211875216260910,192,0,/imu_data_acquisition2,93492.0,-0.230102539062,0.124816894531,0.738464355469,0.621398925781,-66.125,-96.375,-152.875,-4.15,0.42,8.14
1542211875221975088,193,0,/imu_data_acquisition2,93502.0,-0.228210449219,0.113464355469,0.733642578125,0.629943847656,-54.875,-99.5625,-137.6875,-3.73,2.61,7.21
1542211875230918884,194,0,/imu_data_acquisition2,93512.0,-0.225341796875,0.104064941406,0.729309082031,0.637573242188,-16.0625,-84.1875,-101.1875,-3.1,4.11,8.4
1542211875241141080,195,0,/imu_data_acquisition2,93521.0,-0.221923828125,0.0966186523438,0.725524902344,0.644226074219,-16.0625,-84.1875,-101.1875,-3.1,4.11,8.4
1542211875248997926,196,0,/imu_data_acquisition2,93530.0,-0.218383789062,0.090576171875,0.722839355469,0.649291992188,-8.75,-74.8125,-75.875,-5.05,5.05,11.27
1542211875261006116,197,0,/imu_data_acquisition2,93542.0,-0.214294433594,0.084716796875,0.72216796875,0.652160644531,-10.25,-81.3125,-40.375,-3.99,2.3,11.8
1542211875271990060,198,0,/imu_data_acquisition2,93553.0,-0.0062255859375,-6.103515625e-05,-6.103515625e-05,0.653076171875,-13.1875,-93.9375,-7.9375,-3.5,0.3,11.01
1542211875282839059,199,0,/imu_data_acquisition2,93563.0,-0.203552246094,0.0723266601562,0.726379394531,0.652465820312,-12.9375,-104.625,17.375,-3.38,-1.32,10.83
1542211875289959907,200,0,/imu_data_acquisition2,93571.0,-0.197021484375,0.0663452148438,0.72998046875,0.651062011719,-7.5625,-110.1875,30.5625,-3.38,-1.32,10.83
1542211875300822973,201,0,/imu_data_acquisition2,93581.0,-0.190002441406,0.0603637695312,0.733703613281,0.649597167969,-3.6875,-114.0,33.125,-2.78,-3.32,10.69
1542211875312218904,202,0,/imu_data_acquisition2,93593.0,-0.182861328125,0.0540161132812,0.737121582031,0.648315429688,-5.75,-117.3125,27.875,-2.28,-4.31,9.98
1542211875321086883,203,0,/imu_data_acquisition2,93602.0,-0.176147460938,0.0470581054688,0.739929199219,0.6474609375,-12.3125,-117.6875,18.375,-1.89,-4.37,10.0
1542211875338282108,204,0,/imu_data_acquisition2,93613.0,-0.169921875,0.0396118164062,0.742065429688,0.647277832031,-19.5625,-115.8125,5.875,-2.85,-3.48,10.72
1542211875340954065,205,0,/imu_data_acquisition2,93620.0,-0.164245605469,0.0318603515625,0.743225097656,0.647766113281,-23.9375,-111.6875,-8.5625,-2.85,-3.48,10.72
1542211875349076986,206,0,/imu_data_acquisition2,93630.0,-0.158874511719,0.0237426757812,0.743774414062,0.648803710938,-28.25,-111.0625,-18.5,-2.54,-0.01,-0.01
1542211875362118005,207,0,/imu_data_acquisition2,93642.0,-0.153625488281,0.015380859375,0.743835449219,0.650268554688,-30.8125,-111.3125,-26.8125,-2.89,-0.52,11.41
1542211875372252941,208,0,/imu_data_acquisition2,93652.0,-6.103515625e-05,-6.103515625e-05,-6.103515625e-05,0.651977539062,-30.4375,-113.0,-31.0625,-2.89,0.09,11.38
1542211875381517887,209,0,/imu_data_acquisition2,93663.0,-0.142456054688,-0.00177001953125,0.743286132812,0.653625488281,-28.3125,-116.5,-31.5625,-2.58,0.77,9.99
1542211875389914989,210,0,/imu_data_acquisition2,93671.0,-0.13623046875,-0.0103759765625,0.743103027344,0.655090332031,-25.1875,-120.8125,-29.0,-2.58,0.77,9.99
1542211875398612976,211,0,/imu_data_acquisition2,93679.0,-0.129577636719,-0.0187377929688,0.743103027344,0.65625,-19.8125,-123.25,-24.8125,-2.48,-0.01,-0.01
1542211875410909891,212,0,/imu_data_acquisition2,93692.0,-0.12255859375,-0.026611328125,0.743286132812,0.657104492188,-13.125,-123.125,-19.4375,-2.23,1.21,9.75
1542211875421991109,213,0,/imu_data_acquisition2,93703.0,-0.115173339844,-0.0341186523438,0.743774414062,0.657592773438,-8.125,-123.75,-13.5,-1.91,0.91,10.17
1542211875432607889,214,0,/imu_data_acquisition2,93713.0,-0.107543945312,-0.0414428710938,0.744506835938,0.657531738281,-4.625,-125.5625,-6.875,-1.67,0.63,10.27
1542211875439323902,215,0,/imu_data_acquisition2,93721.0,-0.0996704101562,-0.0487670898438,0.745666503906,0.657043457031,-3.25,-128.25,-0.5,-1.67,0.63,10.27
1542211875450207948,216,0,/imu_data_acquisition2,93730.0,-0.0916748046875,-0.0562133789062,0.746948242188,0.656127929688,-4.0,-130.625,5.1875,-1.52,0.36,10.28
1542211875461713075,217,0,/imu_data_acquisition2,93742.0,-0.083740234375,-0.0638427734375,0.748474121094,0.65478515625,-6.25,-131.6875,9.9375,-1.47,-0.3,10.27
1542211875471566915,218,0,/imu_data_acquisition2,93753.0,-0.0758666992188,-0.0716552734375,0.750061035156,0.653137207031,-8.25,-133.0625,12.9375,-1.53,-0.32,10.05
1542211875482075929,219,0,/imu_data_acquisition2,93763.0,-0.06787109375,-0.07958984375,0.751586914062,0.651306152344,-9.3125,-135.625,14.4375,-1.77,-0.3,9.95
1542211875489188909,220,0,/imu_data_acquisition2,93770.0,-0.059814453125,-0.0877075195312,0.753112792969,0.649291992188,-10.0,-137.25,15.1875,-1.77,-0.3,9.95
1542211875502924919,221,0,/imu_data_acquisition2,93783.0,-0.0515747070312,-0.0958251953125,0.754516601562,0.647155761719,-9.6875,-138.8125,15.4375,-2.06,-0.01,-0.01
1542211875512963056,222,0,/imu_data_acquisition2,93791.0,-0.0432739257812,-0.103881835938,0.755859375,0.64501953125,-8.125,-139.1875,15.25,-2.06,0.0,-0.01
1542211875524528980,223,0,/imu_data_acquisition2,93805.0,-0.0349731445312,-0.111694335938,0.757080078125,0.642761230469,-2.5625,-134.5,14.8125,-2.97,0.2,9.13
1542211875534148931,224,0,/imu_data_acquisition2,93815.0,-0.026611328125,-0.119140625,0.758178710938,0.640502929688,1.5,-129.625,14.75,-3.33,0.24,9.28
1542211875540177106,225,0,/imu_data_acquisition2,93820.0,-0.0183715820312,-0.126037597656,0.759216308594,0.638244628906,1.5,-129.625,14.75,-3.33,0.24,9.28
1542211875553708076,226,0,/imu_data_acquisition2,93833.0,-0.0103759765625,-0.00738525390625,-6.103515625e-05,0.635986328125,4.1875,-123.375,14.0625,-3.67,0.05,9.38
1542211875563626050,227,0,/imu_data_acquisition2,93845.0,-0.002685546875,-0.138366699219,0.760986328125,0.633850097656,4.9375,-15.8125,-0.0625,-4.2,-1.49,8.72
1542211875575035095,228,0,/imu_data_acquisition2,93856.0,0.00469970703125,-0.14404296875,0.761413574219,0.632080078125,4.9375,-111.8125,7.1875,-4.4,-1.96,8.65
1542211875583693981,229,0,/imu_data_acquisition2,93864.0,0.0117797851562,-0.149230957031,0.761352539062,0.630859375,5.9375,-104.375,-1.25,-4.47,-1.91,7.67
1542211875591052055,230,0,/imu_data_acquisition2,93870.0,0.0185546875,-0.15380859375,0.760620117188,0.630432128906,7.9375,-96.625,-12.625,-4.47,-1.91,7.67
1542211875599092006,231,0,/imu_data_acquisition2,93880.0,0.0250244140625,-0.157836914062,0.75927734375,0.630859375,9.875,-87.75,-25.375,-4.56,-1.63,7.54
1542211875612720012,232,0,/imu_data_acquisition2,93893.0,0.031005859375,-0.161071777344,0.757263183594,0.632202148438,11.125,-76.3125,-36.875,-4.81,-1.18,7.62
1542211875622885942,233,0,/imu_data_acquisition2,93904.0,0.0365600585938,-0.163696289062,0.754760742188,0.634155273438,12.5625,-65.875,-46.0,-5.08,0.71,8.4
1542211875632119894,234,0,/imu_data_acquisition2,93914.0,0.0415649414062,-0.16552734375,0.752075195312,0.636535644531,14.75,-55.5,-50.5,-5.22,1.3,8.92
1542211875644716978,235,0,/imu_data_acquisition2,93925.0,-6.103515625e-05,-6.103515625e-05,-6.103515625e-05,0.639038085938,22.5,-38.625,-46.0625,-5.09,1.83,8.79
1542211875651328086,236,0,/imu_data_acquisition2,93932.0,0.0504760742188,-0.167114257812,0.747131347656,0.641357421875,22.5,-38.625,-46.0625,-5.09,1.83,8.79
1542211875661636114,237,0,/imu_data_acquisition2,93943.0,0.0545654296875,-0.166931152344,0.745361328125,0.643127441406,28.3125,-32.375,-37.1875,-4.94,1.76,7.93
1542211875673476934,238,0,/imu_data_acquisition2,93954.0,0.0585327148438,-0.166076660156,0.744262695312,0.644226074219,34.875,-27.125,-26.5625,-5.0,0.98,7.9
1542211875683804988,239,0,/imu_data_acquisition2,93963.0,0.0623168945312,-0.164733886719,0.743835449219,0.644775390625,39.5625,-22.3125,-16.5625,-5.0,0.98,7.9
1542211875690535068,240,0,/imu_data_acquisition2,93972.0,0.06591796875,-0.162902832031,0.743835449219,0.644836425781,43.0,-17.3125,-9.0625,-5.1,-0.19,6.83
1542211875700675010,241,0,/imu_data_acquisition2,93981.0,0.0689697265625,-0.16064453125,0.744140625,0.644775390625,44.1875,-9.25,-4.5,-7.82,6.26,5.14
1542211875709825038,242,0,/imu_data_acquisition2,93991.0,0.0704345703125,-0.158447265625,0.745666503906,0.643371582031,34.375,2.0,19.4375,-8.08,9.4,3.7
1542211875722035884,243,0,/imu_data_acquisition2,94003.0,0.0667114257812,-0.158935546875,0.749450683594,0.639221191406,-21.75,24.3125,72.75,-3.06,-12.51,13.82
1542211875731646060,244,0,/imu_data_acquisition2,94012.0,0.0576171875,-0.161010742188,0.757507324219,0.630004882812,-65.125,54.0,161.375,-3.06,-12.51,13.82
1542211875739275932,245,0,/imu_data_acquisition2,94021.0,0.0484008789062,-0.163330078125,0.765014648438,0.62109375,-68.75,53.5,155.1875,4.53,-7.42,10.02
1542211875750226974,246,0,/imu_data_acquisition2,94031.0,0.0413818359375,-0.162048339844,0.774169921875,0.610473632812,-16.5625,58.0625,176.875,5.02,-7.5,7.67
1542211875773905992,248,0,/imu_data_acquisition2,94055.0,0.0258178710938,-0.152587890625,0.792236328125,0.590270996094,11.3125,103.0,90.75,-0.32,-31.96,12.97
1542211875782936096,249,0,/imu_data_acquisition2,94064.0,0.018310546875,-0.146850585938,0.797058105469,0.58544921875,11.3125,103.0,90.75,-0.32,-1.24,-0.01
1542211875788430929,250,0,/imu_data_acquisition2,94070.0,0.0130004882812,-0.139709472656,0.798278808594,0.585693359375,32.5,100.9375,13.625,-1.12,-12.66,15.94
1542211875798564910,251,0,/imu_data_acquisition2,94080.0,0.0110473632812,-0.1298828125,0.7978515625,0.588562011719,78.3125,90.9375,-28.6875,-1.91,1.6,16.71
1542211875809910058,252,0,/imu_data_acquisition2,94091.0,0.0123291015625,-0.118408203125,0.797912597656,0.590881347656,117.0625,71.6875,-24.4375,-1.48,7.5,15.51
1542211875822784900,253,0,/imu_data_acquisition2,94103.0,0.0139770507812,-0.107788085938,0.798889160156,0.591552734375,112.6875,59.5625,-3.3125,-0.49,3.71,12.08
1542211875832601070,254,0,/imu_data_acquisition2,94114.0,0.0147094726562,-0.0994873046875,0.800048828125,0.591491699219,85.5625,51.6875,5.9375,0.3,2.56,10.65
1542211875840248107,255,0,/imu_data_acquisition2,94121.0,0.0145263671875,-0.09326171875,0.800903320312,0.59130859375,58.5,44.625,6.5,0.27,4.55,10.18
1542211875850121974,256,0,/imu_data_acquisition2,94130.0,0.0132446289062,-0.0890502929688,0.801574707031,0.591125488281,31.75,41.25,7.5625,0.66,5.53,10.51
1542211875859098911,257,0,/imu_data_acquisition2,94140.0,0.0103759765625,-0.087158203125,0.802062988281,0.590759277344,-1.3125,40.875,10.0,0.46,2.27,9.97
1542211875873117923,258,0,/imu_data_acquisition2,94154.0,0.005859375,-0.0868530273438,0.802490234375,0.590270996094,-28.25,44.6875,11.8125,0.35,0.61,9.99
1542211875883080005,259,0,/imu_data_acquisition2,94164.0,0.00048828125,-0.087158203125,0.802856445312,0.589782714844,-39.875,48.1875,12.25,0.08,-0.9,10.57
1542211875890480995,260,0,/imu_data_acquisition2,94170.0,-0.0052490234375,-0.0875854492188,0.803100585938,0.58935546875,-43.9375,50.5,11.875,0.95,-4.28,10.27
1542211875899101972,261,0,/imu_data_acquisition2,94180.0,-0.0108032226562,-0.0877685546875,0.80322265625,0.589111328125,-40.625,51.625,9.0625,-1.07,-4.54,10.75
1542211875910940885,262,0,/imu_data_acquisition2,94190.0,-0.0159301757812,-0.0870971679688,0.803283691406,0.588989257812,-29.25,53.0625,7.4375,-0.09,-4.38,10.38
1542211875936187028,264,0,/imu_data_acquisition2,94216.0,-0.0238037109375,-0.0830078125,0.803833007812,0.588562011719,-0.0625,50.25,8.0625,-0.27,-2.46,10.42
1542211875939969062,265,0,/imu_data_acquisition2,94221.0,-0.0265502929688,-0.079833984375,0.80419921875,0.58837890625,11.25,47.9375,8.3125,-0.27,-2.46,10.42
1542211875965032100,267,0,/imu_data_acquisition2,94246.0,-0.031005859375,-0.0733032226562,0.804992675781,0.587951660156,16.3125,42.3125,7.1875,0.05,-0.44,9.4
1542211875971817016,268,0,/imu_data_acquisition2,94253.0,-0.0330200195312,-0.070556640625,0.805236816406,0.587768554688,12.0625,38.125,6.0,0.05,-0.44,9.4
1542211875992943048,270,0,/imu_data_acquisition2,94272.0,-0.0372924804688,-0.066650390625,0.805480957031,0.587646484375,0.0625,33.875,3.375,-0.61,-0.78,10.03
1542211875998325109,271,0,/imu_data_acquisition2,94280.0,-0.039794921875,-0.0653686523438,0.805480957031,0.587646484375,-5.3125,32.0625,2.4375,-0.33,-1.08,9.69
1542211876010396957,272,0,/imu_data_acquisition2,94291.0,-0.0422973632812,-0.064453125,0.805419921875,0.587646484375,-9.0,30.875,1.8125,-0.61,-1.64,10.27
1542211876023576974,273,0,/imu_data_acquisition2,94302.0,-0.044921875,-0.063720703125,0.805297851562,0.587707519531,-10.625,29.9375,1.3125,-0.82,-2.14,10.15
1542211876029062032,274,0,/imu_data_acquisition2,94310.0,-0.0471801757812,-0.0629272460938,0.805236816406,0.587768554688,-8.625,27.0,1.125,-0.89,-0.01,-0.01
1542211876040209054,275,0,/imu_data_acquisition2,94321.0,-0.0491943359375,-0.0621337890625,0.805114746094,0.587768554688,-6.3125,25.3125,1.25,-0.94,-2.12,10.28
1542211876049808025,276,0,/imu_data_acquisition2,94330.0,-0.0509643554688,-0.0612182617188,0.805114746094,0.587768554688,-4.0,22.75,1.5625,-0.71,-1.97,10.26
1542211876059544086,277,0,/imu_data_acquisition2,94341.0,-0.0525512695312,-0.0603637695312,0.805114746094,0.587707519531,-2.4375,21.25,2.0625,-0.75,-1.82,10.17
1542211876074440956,278,0,/imu_data_acquisition2,94355.0,-0.0540161132812,-0.0594482421875,0.805114746094,0.587646484375,-1.6875,19.75,2.0625,-1.11,-1.58,10.17
1542211876079858064,279,0,/imu_data_acquisition2,94360.0,-0.0552978515625,-0.0586547851562,0.805114746094,0.587646484375,-1.1875,18.3125,1.75,-0.91,-1.55,9.91
1542211876088788032,280,0,/imu_data_acquisition2,94370.0,-0.0565185546875,-0.057861328125,0.805114746094,0.587585449219,-1.125,17.125,1.4375,-0.66,-2.05,10.13
1542211876101317882,281,0,/imu_data_acquisition2,94381.0,-0.0575561523438,-0.0571899414062,0.805053710938,0.587585449219,-0.6875,14.5625,0.9375,-1.16,-1.49,9.5
1542211876109719038,282,0,/imu_data_acquisition2,94390.0,-0.0585327148438,-0.0564575195312,0.805053710938,0.587646484375,-0.1875,13.75,0.8125,-1.34,-1.98,10.66
1542211876118580102,283,0,/imu_data_acquisition2,94400.0,-0.0592041015625,-0.0559692382812,0.804992675781,0.587646484375,0.4375,10.25,0.0,-1.05,-1.69,10.01
1542211876130388021,284,0,/imu_data_acquisition2,94410.0,-0.0604858398438,-0.0550537109375,0.804931640625,0.587646484375,0.6875,9.9375,0.25,-0.81,-1.58,9.72
1542211876139775037,285,0,/imu_data_acquisition2,94420.0,-0.0618286132812,-0.0542602539062,0.804931640625,0.587646484375,0.5,8.6875,-0.375,-1.18,-1.89,10.22
1542211876154788970,286,0,/imu_data_acquisition2,94434.0,-0.0630493164062,-0.0537109375,0.804992675781,0.587524414062,0.125,7.8125,-0.5625,-0.94,-1.91,9.92
1542211876163431882,287,0,/imu_data_acquisition2,94442.0,-0.0635375976562,-0.0534057617188,0.804870605469,0.587585449219,-0.9375,6.5,-0.875,-0.83,-1.33,9.44
1542211876168632030,288,0,/imu_data_acquisition2,94450.0,-0.0640869140625,-0.0532836914062,0.804809570312,0.587646484375,-1.9375,6.0625,-0.875,-1.02,-1.83,9.62
1542211876180152893,289,0,/imu_data_acquisition2,94461.0,-6.103515625e-05,-6.103515625e-05,-6.103515625e-05,0.587768554688,-3.25,6.125,-1.0,-1.13,-1.16,9.38
1542211876190867900,290,0,/imu_data_acquisition2,94471.0,-0.0653076171875,-0.0531616210938,0.804565429688,0.587829589844,-4.5625,6.75,-1.0625,-1.12,-1.44,9.66
1542211876198585033,291,0,/imu_data_acquisition2,94480.0,-0.0660400390625,-0.0531616210938,0.804443359375,0.587951660156,-4.9375,6.6875,-1.375,-1.09,-1.72,9.92
1542211876210154056,292,0,/imu_data_acquisition2,94491.0,-0.0667114257812,-0.05322265625,0.804260253906,0.588073730469,-5.3125,-0.0625,-0.0625,-1.03,-0.01,-0.01
1542211876221343040,293,0,/imu_data_acquisition2,94500.0,-0.0673828125,-0.05322265625,0.804138183594,0.588195800781,-4.5,6.5,-1.4375,-1.28,-1.81,9.71
1542211876228872060,294,0,/imu_data_acquisition2,94510.0,-0.0679321289062,-0.0531616210938,0.804016113281,0.588256835938,-3.5625,6.0625,-1.25,-1.35,-1.79,9.84
1542211876240402936,295,0,/imu_data_acquisition2,94521.0,-0.0684814453125,-0.0531005859375,0.803955078125,0.58837890625,-2.875,5.4375,-1.25,-1.23,-1.82,9.85
1542211876252767086,296,0,/imu_data_acquisition2,94530.0,-0.0689086914062,-0.0530395507812,0.803833007812,0.588439941406,-2.375,4.9375,-0.9375,-1.1,-1.75,9.89
1542211876261085987,297,0,/imu_data_acquisition2,94540.0,-0.0700073242188,-0.0524291992188,0.803771972656,0.588439941406,-1.625,4.3125,-0.8125,-1.27,-1.62,9.65
1542211876271261930,298,0,/imu_data_acquisition2,94551.0,-0.0711669921875,-0.0518798828125,0.8037109375,0.588439941406,-1.5,4.125,-1.0,-1.34,-1.76,9.83
1542211876280653953,299,0,/imu_data_acquisition2,94560.0,-0.0722045898438,-0.0513916015625,0.803649902344,0.588439941406,-1.9375,4.1875,-1.0,-1.19,-1.67,9.93
1542211876289216041,300,0,/imu_data_acquisition2,94571.0,-0.072998046875,-0.051025390625,0.803588867188,0.588439941406,-1.875,3.9375,-1.0,-1.0,-1.72,9.71
1542211876304136037,301,0,/imu_data_acquisition2,94586.0,-0.0739135742188,-0.0506591796875,0.8037109375,0.588256835938,-2.0,3.75,-0.75,-1.31,-1.74,9.99
1542211876308720111,302,0,/imu_data_acquisition2,94590.0,-0.07470703125,-0.05029296875,0.803649902344,0.588256835938,-1.9375,4.0,-0.6875,-1.11,-1.75,9.76
1542211876323767900,303,0,/imu_data_acquisition2,94605.0,-0.0755615234375,-0.0498657226562,0.803649902344,0.588195800781,-1.6875,3.5,-0.5625,-1.33,-1.62,9.65
1542211876332679986,304,0,/imu_data_acquisition2,94613.0,-0.0763549804688,-0.0494995117188,0.803588867188,0.588134765625,-1.4375,3.625,-0.125,-1.23,-1.8,9.81
1542211876339507102,305,0,/imu_data_acquisition2,94621.0,-0.0771484375,-0.0491333007812,0.803588867188,0.588134765625,-1.6875,3.4375,0.1875,-1.24,-1.69,9.7
1542211876355209112,306,0,/imu_data_acquisition2,94636.0,-0.0154418945312,-6.103515625e-05,-6.103515625e-05,0.588012695312,-1.6875,3.75,0.125,-1.11,-1.91,9.77
1542211876360150098,307,0,/imu_data_acquisition2,94641.0,-0.0787963867188,-0.0484619140625,0.803588867188,0.587951660156,-2.1875,3.6875,-0.1875,-1.41,-1.61,9.89
1542211876370845079,308,0,/imu_data_acquisition2,94652.0,-0.07958984375,-0.0482177734375,0.803527832031,0.587951660156,-2.25,4.1875,-0.25,-1.14,-1.75,9.61
1542211876384481906,309,0,/imu_data_acquisition2,94665.0,-0.080322265625,-0.0478515625,0.803527832031,0.587890625,-2.25,4.25,-0.4375,-1.28,-1.58,9.7
1542211876390505075,310,0,/imu_data_acquisition2,94671.0,-0.0809936523438,-0.0476684570312,0.803466796875,0.587890625,-2.1875,4.9375,-0.625,-0.96,-1.9,9.85
1542211876401216983,311,0,/imu_data_acquisition2,94682.0,-0.0817260742188,-0.0473022460938,0.803344726562,0.587951660156,-2.25,4.875,-0.6875,-1.43,-1.56,9.78
1542211876415859937,312,0,/imu_data_acquisition2,94691.0,-0.08251953125,-0.0469360351562,0.803283691406,0.588012695312,-2.1875,5.375,-1.0,-1.26,-1.79,9.9
1542211876420820951,313,0,/imu_data_acquisition2,94702.0,-6.103515625e-05,-6.103515625e-05,-6.103515625e-05,0.588012695312,-2.125,5.25,-0.75,-1.4,-1.84,9.71
1542211876433099985,314,0,/imu_data_acquisition2,94715.0,-0.084228515625,-0.0462036132812,0.803100585938,0.588012695312,-1.9375,6.0,-1.0,-1.24,-1.78,9.77
1542211876448013067,315,0,/imu_data_acquisition2,94721.0,-6.103515625e-05,-6.103515625e-05,-6.103515625e-05,0.588073730469,-2.25,6.0625,-1.0,-1.15,-1.8,9.64
1542211876450508117,316,0,/imu_data_acquisition2,94731.0,-0.0858764648438,-0.0455322265625,0.802856445312,0.588195800781,-1.875,6.0625,-0.875,-1.44,-1.72,9.78
1542211876460227966,317,0,/imu_data_acquisition2,94741.0,-0.0867919921875,-0.045166015625,0.802734375,0.588256835938,-2.125,6.375,-1.25,-1.42,-1.75,9.7
1542211876472708940,318,0,/imu_data_acquisition2,94750.0,-0.0877075195312,-0.0447998046875,0.802612304688,0.588317871094,-1.9375,7.25,-0.6875,-1.21,-1.89,9.57
1542211876480020046,319,0,/imu_data_acquisition2,94760.0,-0.088623046875,-0.04443359375,0.802490234375,0.58837890625,-2.0625,7.3125,-1.25,-1.35,-1.87,9.69
1542211876488950967,320,0,/imu_data_acquisition2,94770.0,-0.0894775390625,-0.0440063476562,0.802429199219,0.58837890625,-1.9375,7.5625,-0.875,-1.41,-1.71,9.75
1542211876500844955,321,0,/imu_data_acquisition2,94781.0,-0.0905151367188,-0.04345703125,0.80224609375,0.588500976562,-1.375,9.25,-0.6875,-1.4,-1.83,9.56
1542211876509879112,322,0,/imu_data_acquisition2,94790.0,-0.0133666992188,-6.103515625e-05,-6.103515625e-05,0.588562011719,-1.375,9.25,-0.6875,-1.29,-1.9,9.66
1542211876518749952,323,0,/imu_data_acquisition2,94800.0,-0.0924682617188,-0.0425415039062,0.802001953125,0.588562011719,-0.8125,9.375,-0.625,-1.37,-1.97,9.67
1542211876530455112,324,0,/imu_data_acquisition2,94811.0,-0.0934448242188,-0.0418701171875,0.801879882812,0.588623046875,-0.375,10.625,-0.6875,-1.42,-1.75,9.7
1542211876539343118,325,0,/imu_data_acquisition2,94820.0,-0.0943603515625,-0.0413208007812,0.8017578125,0.588684082031,0.5625,10.6875,0.3125,-1.22,-1.99,9.61
1542211876549599885,326,0,/imu_data_acquisition2,94831.0,-0.0950317382812,-0.0406494140625,0.801513671875,0.588989257812,1.6875,10.4375,0.6875,-1.83,-1.84,8.83
1542211876562058925,327,0,/imu_data_acquisition2,94841.0,-0.0957641601562,-0.0399169921875,0.801452636719,0.588989257812,1.8125,11.875,1.0,-1.56,-2.56,9.3
1542211876571656942,328,0,/imu_data_acquisition2,94851.0,-0.096435546875,-0.0390625,0.801452636719,0.588928222656,3.5,12.375,1.8125,-1.42,-1.82,9.02
1542211876579571008,329,0,/imu_data_acquisition2,94860.0,-0.0969848632812,-0.0380859375,0.801452636719,0.588928222656,5.0625,12.4375,1.375,-1.64,-1.22,10.22
1542211876591929912,330,0,/imu_data_acquisition2,94871.0,-0.0975341796875,-0.0369262695312,0.801330566406,0.589050292969,7.375,13.0,-0.8125,-0.98,-0.66,10.52
1542211876599133014,331,0,/imu_data_acquisition2,94880.0,-0.0982055664062,-0.0357055664062,0.801330566406,0.589050292969,6.8125,14.9375,1.625,-1.58,-1.29,10.49
1542211876609035968,332,0,/imu_data_acquisition2,94890.0,-0.098876953125,-0.0344848632812,0.801208496094,0.589172363281,6.9375,15.3125,-0.1875,-1.89,-1.76,9.6
1542211876621965885,333,0,/imu_data_acquisition2,94901.0,-0.0995483398438,-0.033203125,0.800903320312,0.589477539062,7.4375,15.4375,-3.625,-0.96,-1.84,9.36
1542211876628530025,334,0,/imu_data_acquisition2,94910.0,-0.100341796875,-0.0319213867188,0.800659179688,0.589782714844,6.75,17.0,-2.875,-2.08,-2.06,9.64
1542211876639991044,335,0,/imu_data_acquisition2,94921.0,-0.101196289062,-0.0305786132812,0.800537109375,0.589904785156,7.125,17.6875,-0.25,-2.38,-1.8,9.8
1542211876649533033,336,0,/imu_data_acquisition2,94930.0,-0.102111816406,-0.0292358398438,0.800415039062,0.589965820312,6.4375,18.1875,1.0625,-1.74,-1.97,10.25
1542211876659455060,337,0,/imu_data_acquisition2,94940.0,-0.103088378906,-0.0278930664062,0.800415039062,0.58984375,5.625,18.5625,3.0,-2.5,-1.63,10.0
1542211876671438932,338,0,/imu_data_acquisition2,94951.0,-0.104187011719,-0.0267944335938,0.800415039062,0.589660644531,2.375,18.1875,3.1875,-1.94,-1.8,9.62
1542211876679512023,339,0,/imu_data_acquisition2,94960.0,-0.105346679688,-0.025390625,0.800537109375,0.589416503906,4.9375,20.125,5.0625,-2.07,-0.01,-0.01
1542211876689843893,340,0,/imu_data_acquisition2,94971.0,-0.1064453125,-0.02392578125,0.800598144531,0.589172363281,5.875,20.5,5.4375,-1.22,-1.5,9.22
1542211876700504064,341,0,/imu_data_acquisition2,94981.0,-0.10791015625,-0.0228881835938,0.80078125,0.588745117188,-1.0,20.5625,6.3125,-2.82,-2.0,10.03
1542211876708717107,342,0,/imu_data_acquisition2,94989.0,-0.109069824219,-0.0217895507812,0.800964355469,0.588317871094,1.875,18.3125,7.5,-1.4,-1.74,9.72
1542211876719300031,343,0,/imu_data_acquisition2,95000.0,-0.110656738281,-0.0206909179688,0.801147460938,0.587768554688,-0.5625,19.1875,7.875,-1.99,-1.75,9.47
1542211876731692075,344,0,/imu_data_acquisition2,95011.0,-0.112182617188,-0.0194702148438,0.801330566406,0.587280273438,1.125,20.5,7.1875,-1.82,-1.49,9.6
1542211876738358974,345,0,/imu_data_acquisition2,95020.0,-0.113586425781,-0.0182495117188,0.801452636719,0.586853027344,1.1875,21.625,7.125,-1.77,-1.36,9.61
1542211876751066923,346,0,/imu_data_acquisition2,95031.0,-0.115112304688,-0.0170288085938,0.801574707031,0.58642578125,-0.375,22.3125,7.0625,-2.15,-1.46,9.87
1542211876761907100,347,0,/imu_data_acquisition2,95040.0,-0.11669921875,-0.0159301757812,0.801818847656,0.585876464844,-1.1875,22.5625,8.375,-1.99,-1.5,9.7
1542211876768651008,348,0,/imu_data_acquisition2,95050.0,-0.118286132812,-0.0149536132812,0.802001953125,0.585266113281,-2.1875,21.75,8.8125,-2.09,-1.77,9.83
1542211876779512882,349,0,/imu_data_acquisition2,95060.0,-0.119873046875,-0.013916015625,0.802185058594,0.584716796875,-2.375,21.4375,8.5,-1.79,-1.66,9.44
1542211876791698932,350,0,/imu_data_acquisition2,95070.0,-0.121765136719,-0.0128784179688,0.802490234375,0.583984375,-3.1875,22.875,9.9375,-2.25,-1.77,9.53
1542211876798574924,351,0,/imu_data_acquisition2,95080.0,-0.123718261719,-0.0117797851562,0.802734375,0.583190917969,-3.25,23.8125,11.125,-2.26,-1.76,9.47
1542211876809492111,352,0,/imu_data_acquisition2,95090.0,-0.125793457031,-0.0106201171875,0.803039550781,0.582397460938,-2.875,24.5,11.5,-2.15,-2.02,9.65
1542211876822269916,353,0,/imu_data_acquisition2,95100.0,-0.127685546875,-0.0093994140625,0.803344726562,0.581604003906,-1.25,25.6875,12.0625,-1.9,-1.9,9.37
1542211876828605890,354,0,/imu_data_acquisition2,95110.0,-0.129638671875,-0.00787353515625,0.8037109375,0.580688476562,-0.5625,28.125,13.5,-2.34,-2.06,9.62
1542211876839842081,355,0,/imu_data_acquisition2,95120.0,-0.131591796875,-0.00616455078125,0.804077148438,0.579772949219,1.375,29.8125,14.375,-1.89,-1.93,9.51
1542211876850123882,356,0,/imu_data_acquisition2,95130.0,-0.133605957031,-0.00421142578125,0.804443359375,0.578796386719,3.125,31.625,15.0625,-2.35,-2.33,9.72
1542211876858020067,357,0,/imu_data_acquisition2,95140.0,-0.133605957031,-0.00421142578125,0.804443359375,0.578796386719,9.0,33.75,15.75,-2.37,-1.3,9.65
1542211876870326995,358,0,/imu_data_acquisition2,95151.0,-0.137634277344,0.000732421875,0.805358886719,0.576599121094,7.3125,37.0625,19.0,-2.4,-1.8,9.56
1542211876880264997,359,0,/imu_data_acquisition2,95160.0,-0.139892578125,0.00347900390625,0.805908203125,0.575256347656,8.3125,39.0625,21.375,-2.65,-1.84,9.53
1542211876888477087,360,0,/imu_data_acquisition2,95170.0,-0.142150878906,0.0064697265625,0.806579589844,0.573791503906,10.9375,41.0625,23.0625,-2.43,-1.74,9.6
1542211876901788949,361,0,/imu_data_acquisition2,95181.0,-0.142150878906,0.0064697265625,0.806579589844,0.573791503906,13.0625,43.375,25.1875,-2.3,-1.89,9.43
1542211876909934997,362,0,/imu_data_acquisition2,95190.0,-0.144409179688,0.009765625,0.807250976562,0.572204589844,15.75,46.1875,27.25,-2.78,-1.68,9.39
1542211876918420076,363,0,/imu_data_acquisition2,95200.0,-0.149353027344,0.0172119140625,0.808654785156,0.568725585938,19.0,49.375,28.5625,-2.43,-2.05,9.26
1542211876929996013,364,0,/imu_data_acquisition2,95211.0,-0.151977539062,0.0215454101562,0.809326171875,0.567016601562,24.25,54.0625,29.125,-2.68,-1.88,9.6
1542211876939807891,365,0,/imu_data_acquisition2,95220.0,-0.154479980469,0.026611328125,0.809936523438,0.565185546875,28.4375,57.9375,29.75,-2.9,-1.46,9.47
1542211876948798894,366,0,/imu_data_acquisition2,95230.0,-0.157165527344,0.0320434570312,0.810485839844,0.563354492188,30.625,61.3125,30.4375,-3.07,-1.4,9.4
1542211876960298061,367,0,/imu_data_acquisition2,95241.0,-0.159973144531,0.0377807617188,0.81103515625,0.561462402344,32.1875,64.5,31.6875,-3.05,-1.38,9.39
1542211876969849109,368,0,/imu_data_acquisition2,95250.0,-0.162841796875,0.043701171875,0.811584472656,0.559387207031,33.5,66.875,33.125,-3.27,-1.3,9.43
1542211876978771924,369,0,/imu_data_acquisition2,95260.0,-0.165832519531,0.0499877929688,0.812072753906,0.557250976562,36.375,70.875,34.1875,-3.64,-1.18,9.41
1542211876991360902,370,0,/imu_data_acquisition2,95271.0,-0.1689453125,0.056640625,0.8125,0.555053710938,38.625,74.3125,35.625,-3.42,-1.25,9.4
1542211876999886989,371,0,/imu_data_acquisition2,95280.0,-0.172241210938,0.0637817382812,0.812805175781,0.552795410156,42.5625,78.9375,35.9375,-3.45,-1.16,9.53
1542211877008722066,372,0,/imu_data_acquisition2,95290.0,-0.175598144531,0.0712280273438,0.813110351562,0.550415039062,44.25,82.6875,37.3125,-3.66,-0.69,9.27
1542211877021764993,373,0,/imu_data_acquisition2,95301.0,-0.17919921875,0.0787963867188,0.813415527344,0.547790527344,43.9375,85.8125,40.0,-3.71,-0.52,9.17
1542211877031574010,374,0,/imu_data_acquisition2,95310.0,-0.17919921875,0.0787963867188,0.813415527344,0.547790527344,41.6875,88.8125,43.9375,-4.24,-0.43,9.1
1542211877039319992,375,0,/imu_data_acquisition2,95321.0,-0.187194824219,0.0940551757812,0.814270019531,0.541381835938,38.875,90.9375,47.875,-4.21,-0.79,9.23
1542211877051713943,376,0,/imu_data_acquisition2,95331.0,-0.19140625,0.101989746094,0.814697265625,0.537780761719,41.0625,94.5,50.125,-4.25,-0.87,9.29
1542211877059490919,377,0,/imu_data_acquisition2,95340.0,-0.19140625,0.101989746094,0.814697265625,0.537780761719,45.5625,98.75,51.625,-3.99,-0.53,9.21
1542211877069987058,378,0,/imu_data_acquisition2,95351.0,-0.200134277344,0.119201660156,0.815307617188,0.530090332031,46.875,102.8125,55.1875,-4.35,0.01,8.91
1542211877082216024,379,0,/imu_data_acquisition2,95361.0,-6.103515625e-05,-6.103515625e-05,-6.103515625e-05,0.525695800781,46.1875,106.0,59.1875,-4.2,0.18,9.03
1542211877090146064,380,0,/imu_data_acquisition2,95371.0,-0.204772949219,0.128112792969,0.815673828125,0.525695800781,46.1875,109.1875,62.125,-4.48,-0.08,9.19
1542211877099716901,381,0,/imu_data_acquisition2,95381.0,-0.209533691406,0.137268066406,0.815979003906,0.52099609375,46.5625,110.0,64.375,-3.95,0.29,9.28
1542211877110099077,382,0,/imu_data_acquisition2,95390.0,-0.214294433594,0.146423339844,0.816284179688,0.516052246094,46.5625,110.0,64.375,-4.47,0.5,9.47
1542211877120162963,383,0,/imu_data_acquisition2,95401.0,-0.222900390625,0.164245605469,0.8173828125,0.505249023438,44.75,100.875,72.5625,-4.25,0.26,9.01
1542211877131828069,384,0,/imu_data_acquisition2,95411.0,-0.222900390625,0.164245605469,0.8173828125,0.505249023438,40.625,96.4375,73.4375,-4.95,0.59,9.93
1542211877139209985,385,0,/imu_data_acquisition2,95420.0,-0.226806640625,0.172546386719,0.818054199219,0.499572753906,26.375,74.375,60.6875,4.05,-6.54,16.58
1542211877152406930,386,0,/imu_data_acquisition2,95431.0,-0.231689453125,0.181274414062,0.818786621094,0.492980957031,9.75,36.25,20.5625,4.51,-16.53,18.51
1542211877159692049,387,0,/imu_data_acquisition2,95440.0,-0.231689453125,0.181274414062,0.818786621094,0.492980957031,2.25,-23.1875,-50.5,5.92,-17.86,15.26
1542211877169481039,388,0,/imu_data_acquisition2,95450.0,-0.230773925781,0.179443359375,0.817138671875,0.496826171875,-3.625,-54.3125,-108.0,2.72,-6.29,11.93
1542211877180984973,389,0,/imu_data_acquisition2,95461.0,-0.228820800781,0.1748046875,0.813659667969,0.505065917969,-3.4375,-61.0625,-126.9375,-1.69,5.48,11.57
1542211877190012931,390,0,/imu_data_acquisition2,95471.0,-0.226623535156,0.169494628906,0.809387207031,0.514587402344,-3.25,-64.3125,-96.9375,-5.44,13.21,10.67
1542211877202685117,391,0,/imu_data_acquisition2,95483.0,-0.220458984375,0.160461425781,-6.103515625e-05,0.52587890625,-8.1875,-62.1875,-46.0625,-7.84,15.41,8.83
1542211877211280107,392,0,/imu_data_acquisition2,95491.0,-0.220458984375,0.160461425781,0.8056640625,0.52587890625,-8.1875,-62.1875,-46.0625,-7.5,4.31,8.66
1542211877220294952,393,0,/imu_data_acquisition2,95501.0,-0.2177734375,0.156555175781,0.807006835938,0.526123046875,-28.375,-50.125,20.0,-4.58,-3.45,10.49
1542211877230505943,394,0,/imu_data_acquisition2,95512.0,-0.212341308594,0.149597167969,0.810485839844,0.525024414062,-13.75,-51.5625,3.6875,-1.38,-9.22,12.11
1542211877243505954,395,0,/imu_data_acquisition2,95523.0,-0.212341308594,0.149597167969,0.810485839844,0.525024414062,12.4375,-57.0,-41.0625,1.2,-12.78,11.66
1542211877254025936,396,0,/imu_data_acquisition2,95531.0,-0.208435058594,0.147155761719,0.809509277344,0.52880859375,12.4375,-57.0,-41.0625,1.49,-10.71,10.67
1542211877259377956,397,0,/imu_data_acquisition2,95541.0,-0.203979492188,0.14501953125,0.805969238281,0.536437988281,35.375,-60.1875,-131.0625,-0.4,-7.62,11.09
1542211877272439956,398,0,/imu_data_acquisition2,95552.0,-0.199829101562,0.142395019531,0.800598144531,0.546691894531,27.625,-62.5625,-149.625,-1.78,-1.56,12.03
1542211877283344984,399,0,/imu_data_acquisition2,95561.0,-0.196105957031,0.138854980469,0.794311523438,0.557922363281,11.125,-67.8125,-152.0625,-1.23,-0.45,11.54
1542211877289702892,400,0,/imu_data_acquisition2,95571.0,-0.192810058594,0.133911132812,0.7880859375,0.569091796875,-11.9375,-72.875,-146.375,-1.91,-1.08,11.6
1542211877300173044,401,0,/imu_data_acquisition2,95581.0,-0.190185546875,0.127197265625,0.782287597656,0.579406738281,-31.5625,-80.0625,-142.9375,-0.81,-2.62,10.64
1542211877311472892,402,0,/imu_data_acquisition2,95591.0,-0.187927246094,0.118896484375,0.77685546875,0.589172363281,-42.5,-84.8125,-140.75,-2.38,-2.17,10.82
1542211877320471048,403,0,/imu_data_acquisition2,95601.0,-0.185852050781,0.109619140625,0.771545410156,0.598510742188,-44.8125,-87.625,-137.3125,-1.96,-1.16,9.78
1542211877330333948,404,0,/imu_data_acquisition2,95611.0,-0.183654785156,0.10009765625,0.766296386719,0.607482910156,-41.5,-86.1875,-134.625,-1.68,-0.72,8.66
1542211877349328994,406,0,/imu_data_acquisition2,95630.0,-0.178771972656,0.0825805664062,0.756103515625,0.624084472656,-33.75,-82.0625,-121.625,-4.06,4.77,12.52
1542211877361148118,407,0,/imu_data_acquisition2,95642.0,-0.175903320312,0.0755004882812,0.752136230469,0.630615234375,-24.4375,-84.0625,-67.375,-2.95,4.82,12.76
1542211877375109910,408,0,/imu_data_acquisition2,95654.0,-0.172302246094,0.0684204101562,0.749877929688,0.635009765625,-25.125,-94.8125,-38.0,-2.06,2.55,13.11
1542211877380439996,409,0,/imu_data_acquisition2,95662.0,-0.162536621094,0.0541381835938,0.750122070312,0.638732910156,-20.6875,-103.125,-14.5625,-2.43,1.83,12.93
1542211877392822980,410,0,/imu_data_acquisition2,95673.0,-0.162536621094,0.0541381835938,0.750122070312,0.638732910156,-16.625,-111.0625,3.375,-1.74,0.65,12.56
1542211877409679889,412,0,/imu_data_acquisition2,95691.0,-0.149536132812,0.0399780273438,0.754211425781,0.638122558594,-15.1875,-121.5625,18.3125,-1.38,-1.64,12.13
1542211877423126935,413,0,/imu_data_acquisition2,95703.0,-0.142578125,0.03271484375,0.756774902344,0.637145996094,-17.8125,-124.3125,17.625,-1.29,-2.04,11.9
1542211877431685924,414,0,/imu_data_acquisition2,95712.0,-0.135498046875,0.0250854492188,0.759216308594,0.636108398438,-20.8125,-126.625,13.625,-1.3,-2.34,11.74
1542211877440146923,415,0,/imu_data_acquisition2,95721.0,-0.128479003906,0.01708984375,0.761413574219,0.635192871094,-24.4375,-127.125,7.625,-1.43,-2.41,11.53
1542211877451061964,416,0,/imu_data_acquisition2,95731.0,-0.12158203125,0.0087890625,0.76318359375,0.634582519531,-24.4375,-127.125,7.625,-1.64,-2.21,11.5
1542211877461030006,417,0,/imu_data_acquisition2,95741.0,-0.114868164062,0.000244140625,-6.103515625e-05,0.634338378906,-29.875,-126.0,-7.0625,-1.74,-2.06,11.61
1542211877470058917,418,0,/imu_data_acquisition2,95751.0,-0.108337402344,-0.008544921875,0.765258789062,0.634521484375,-30.25,-125.8125,-14.25,-1.58,-1.25,11.5
1542211877481292963,419,0,/imu_data_acquisition2,95762.0,-0.101806640625,-0.017333984375,0.765563964844,0.635009765625,-29.6875,-124.9375,-20.8125,-2.75,-0.11,11.93
1542211877490731954,420,0,/imu_data_acquisition2,95772.0,-0.0952758789062,-0.0261840820312,0.765441894531,0.635864257812,-29.5,-125.25,-22.1875,-2.28,0.35,11.65
1542211877499495983,421,0,/imu_data_acquisition2,95780.0,-0.0886840820312,-0.0349731445312,0.76513671875,0.636779785156,-29.5,-125.25,-22.1875,-2.28,0.35,11.65
1542211877508954048,422,0,/imu_data_acquisition2,95789.0,-0.08203125,-0.0437622070312,0.764831542969,0.637451171875,-28.6875,-125.875,-20.6875,-2.51,1.27,11.57
1542211877520103931,423,0,/imu_data_acquisition2,95801.0,-0.0751953125,-0.0524291992188,0.7646484375,0.637878417969,-23.0,-126.0625,-11.5625,-2.5,1.81,10.9
1542211877531656026,424,0,/imu_data_acquisition2,95812.0,-0.0682373046875,-0.0607299804688,0.7646484375,0.637939453125,-19.5625,-125.0,-4.875,-2.45,1.71,11.1
1542211877541476011,425,0,/imu_data_acquisition2,95822.0,-0.0611572265625,-0.0687866210938,0.764953613281,0.637451171875,-16.375,-124.8125,1.1875,-2.19,0.97,10.75
1542211877554162025,426,0,/imu_data_acquisition2,95833.0,-0.0540161132812,-0.0765380859375,0.765563964844,0.636535644531,-12.5,-124.375,5.375,-2.1,0.6,10.65
1542211877558309078,427,0,/imu_data_acquisition2,95839.0,-0.046630859375,-0.0840454101562,0.766296386719,0.63525390625,-12.5,-124.375,5.375,-2.1,0.6,10.65
1542211877570204019,428,0,/imu_data_acquisition2,95851.0,-0.0391235351562,-0.0130615234375,-6.103515625e-05,0.633850097656,-8.5625,-123.9375,7.5625,-2.05,-0.07,10.29
1542211877594110965,430,0,/imu_data_acquisition2,95872.0,-0.0235595703125,-0.105102539062,0.768493652344,0.630737304688,-1.75,-124.375,6.3125,-2.11,-0.28,10.04
1542211877599364042,431,0,/imu_data_acquisition2,95881.0,-0.015625,-0.11181640625,0.76904296875,0.629150390625,-1.75,-124.375,6.3125,-2.11,-0.28,10.04
1542211877611731052,432,0,/imu_data_acquisition2,95891.0,-0.0076904296875,-0.118408203125,0.769348144531,0.627685546875,-0.8125,-123.5625,4.3125,-2.3,-0.23,9.46
1542211877623070001,433,0,/imu_data_acquisition2,95902.0,0.00018310546875,-0.124877929688,0.76953125,0.626281738281,0.4375,-119.1875,-0.375,-2.94,-0.15,9.02
1542211877631345033,434,0,/imu_data_acquisition2,95911.0,0.0079345703125,-0.00616455078125,-6.103515625e-05,0.625,0.125,-116.0625,-3.0,-3.22,-0.12,8.63
1542211877642299890,435,0,/imu_data_acquisition2,95922.0,0.0155029296875,-0.137268066406,0.769226074219,0.623901367188,-0.3125,-111.1875,-5.625,-3.81,-0.08,8.34
1542211877649319887,436,0,/imu_data_acquisition2,95930.0,0.0227661132812,-0.143127441406,0.768737792969,0.622924804688,-0.3125,-111.1875,-5.625,-3.81,-0.08,8.34
1542211877662672042,437,0,/imu_data_acquisition2,95941.0,0.0297241210938,-0.148620605469,0.76806640625,0.622192382812,-0.25,-105.125,-8.375,-4.19,-0.14,8.24
1542211877702269077,439,0,/imu_data_acquisition2,95967.0,0.0482788085938,-0.162353515625,0.764831542969,0.621520996094,3.6875,-82.9375,-18.9375,-5.22,0.21,8.18
1542211877706286907,441,0,/imu_data_acquisition2,95987.0,0.0588989257812,-0.168395996094,0.762145996094,0.622314453125,10.625,-65.9375,-22.0625,-5.68,0.77,8.07
1542211877718147993,442,0,/imu_data_acquisition2,95995.0,0.063720703125,-0.17041015625,0.760925292969,0.622802734375,14.5,-57.9375,-21.9375,-5.69,0.83,7.53
1542211877721771001,443,0,/imu_data_acquisition2,96003.0,0.0681762695312,-0.171691894531,0.759826660156,0.623352050781,18.875,-49.5,-21.3125,-5.58,0.88,7.04
1542211877738640069,444,0,/imu_data_acquisition2,96020.0,0.0681762695312,-0.171691894531,0.759826660156,0.623352050781,22.4375,-39.4375,-19.6875,-5.24,0.88,7.46
1542211877742666959,445,0,/imu_data_acquisition2,96024.0,0.07568359375,-0.172119140625,0.758117675781,0.624389648438,24.8125,-30.375,-16.75,-5.03,0.6,7.5
1542211877748586893,446,0,/imu_data_acquisition2,96030.0,0.07568359375,-0.172119140625,0.758117675781,0.624389648438,24.8125,-30.375,-16.75,-5.03,0.6,7.5
1542211877760138988,447,0,/imu_data_acquisition2,96040.0,0.0787963867188,-0.171508789062,0.757629394531,0.624755859375,27.1875,-23.0625,-13.8125,-4.79,0.18,7.14
1542211877775183916,448,0,/imu_data_acquisition2,96055.0,0.0816040039062,-0.170227050781,0.75732421875,0.625122070312,34.1875,-6.0,-11.375,-4.59,-0.13,7.55
1542211877786717891,449,0,/imu_data_acquisition2,96063.0,0.0839233398438,-0.168273925781,0.757202148438,0.625549316406,34.875,0.4375,-10.6875,-5.14,-0.17,7.72
1542211877791655063,450,0,/imu_data_acquisition2,96073.0,0.0859375,-0.165954589844,0.757141113281,0.6259765625,33.6875,4.75,0.5625,-5.72,9.74,3.23
1542211877805514097,451,0,/imu_data_acquisition2,96087.0,0.08740234375,-0.16357421875,0.757629394531,0.625793457031,33.6875,4.75,0.5625,-7.38,9.52,2.65
1542211877808980941,452,0,/imu_data_acquisition2,96090.0,0.0850219726562,-0.163146972656,0.760131835938,0.623168945312,-6.5625,21.6875,46.0625,-7.38,9.52,2.65
1542211877821485996,453,0,/imu_data_acquisition2,96102.0,0.0794677734375,-0.164367675781,0.76611328125,0.6162109375,-32.9375,33.875,118.75,7.1,-6.47,4.98
1542211877839744091,454,0,/imu_data_acquisition2,96121.0,0.0708618164062,-0.165649414062,0.773010253906,0.608276367188,0.0625,48.5625,153.625,6.0,-6.98,6.13
1542211877844086885,455,0,/imu_data_acquisition2,96125.0,0.059814453125,-0.15966796875,0.790283203125,0.588500976562,25.5625,70.3125,168.375,0.04,-14.97,7.75
1542211877884447097,459,0,/imu_data_acquisition2,96166.0,0.0330200195312,-0.132263183594,0.806335449219,0.575500488281,55.25,100.0,-26.875,-0.88,-8.32,16.1
1542211877911983013,462,0,/imu_data_acquisition2,96192.0,0.0333251953125,-0.110412597656,0.805725097656,0.580932617188,113.3125,71.5,-24.875,-1.2,7.01,14.07
1542211877933917045,464,0,/imu_data_acquisition2,96213.0,0.0341186523438,-0.0933837890625,0.806945800781,0.582214355469,42.1875,46.875,0.6875,0.38,5.5,11.67
1542211877944379091,465,0,/imu_data_acquisition2,96223.0,0.032958984375,-0.0881958007812,0.807434082031,0.582397460938,13.1875,42.0,5.25,0.51,4.74,10.56
1542211877955302953,466,0,/imu_data_acquisition2,96236.0,0.0307006835938,-0.0852661132812,0.807861328125,0.582336425781,-14.6875,39.5625,9.875,1.06,2.43,10.06
1542211877973670959,468,0,/imu_data_acquisition2,96254.0,0.0226440429688,-0.0845336914062,0.808837890625,0.581481933594,-38.3125,43.75,12.0,0.06,-2.09,11.32
1542211877984585046,469,0,/imu_data_acquisition2,96265.0,0.0177001953125,-0.0850219726562,0.809204101562,0.5810546875,-38.8125,41.625,11.5,0.29,-3.71,10.55
1542211878005991935,471,0,/imu_data_acquisition2,96284.0,0.008544921875,-0.0859375,0.809875488281,0.580261230469,-19.4375,37.1875,8.4375,0.06,-4.17,10.52
1542211878014131069,472,0,/imu_data_acquisition2,96291.0,0.00494384765625,-0.08544921875,0.810119628906,0.579956054688,-19.4375,37.1875,8.4375,0.06,-4.17,10.52
1542211878029958009,473,0,/imu_data_acquisition2,96301.0,0.002197265625,-0.0838623046875,0.810485839844,0.579711914062,-3.1875,37.125,7.0625,0.62,-3.63,10.6
1542211878082269906,474,0,/imu_data_acquisition2,96315.0,0.00018310546875,-0.081298828125,0.810791015625,0.579650878906,10.5625,37.25,4.5625,0.33,-1.49,9.92
1542211878087889909,475,0,/imu_data_acquisition2,96325.0,-0.0013427734375,-0.0784912109375,0.811157226562,0.579528808594,19.875,30.4375,3.625,-0.35,-0.34,9.83
1542211878096055984,477,0,/imu_data_acquisition2,96340.0,-0.00347900390625,-0.0729370117188,0.811645507812,0.579528808594,19.375,28.4375,1.625,0.41,0.37,9.5
1542211878098669052,478,0,/imu_data_acquisition2,96354.0,-0.00469970703125,-0.070556640625,0.811828613281,0.57958984375,14.25,27.75,1.8125,-0.09,0.07,9.6
1542211878101404905,479,0,/imu_data_acquisition2,96364.0,-0.00640869140625,-0.0687866210938,0.811950683594,0.579650878906,5.6875,28.875,1.75,0.19,-0.12,9.58
1542211878110779047,480,0,/imu_data_acquisition2,96374.0,-0.0086669921875,-0.0674438476562,0.811950683594,0.579711914062,-2.5,30.5625,1.4375,0.18,-0.83,9.64
1542211878113111019,481,0,/imu_data_acquisition2,96381.0,-0.0112915039062,-0.06640625,0.81201171875,0.579772949219,-8.3125,32.4375,1.6875,0.18,-0.83,9.64
