%time,field.header.seq,field.header.stamp,field.header.frame_id,field.time_stamp,field.quat_x,field.quat_y,field.quat_z,field.quat_w,field.gyro_x,field.gyro_y,field.gyro_z,field.accel_x,field.accel_y,field.accel_z
1542226489199238061,59,0,/imu_data_acquisition2,39563.0,-0.251342773438,0.147827148438,0.770141601562,0.567321777344,61.375,165.375,70.875,-3.86,-2.03,9.83
1542226489207103013,60,0,/imu_data_acquisition2,39571.0,-0.259094238281,0.162292480469,0.768432617188,0.562133789062,67.3125,182.1875,65.4375,-4.54,-1.95,9.96
1542226489227195978,61,0,/imu_data_acquisition2,39585.0,-0.267517089844,0.178466796875,0.765747070312,0.556945800781,80.375,202.5,62.75,-5.0,-1.66,10.75
1542226489229413986,62,0,/imu_data_acquisition2,39591.0,-0.276672363281,0.196350097656,0.761962890625,0.551696777344,93.1875,223.9375,60.125,-5.97,-1.31,11.26
1542226489244155883,63,0,/imu_data_acquisition2,39603.0,-0.28662109375,0.215454101562,0.757019042969,0.546264648438,100.4375,243.375,56.1875,-6.09,-0.87,11.18
1542226489250623941,64,0,/imu_data_acquisition2,39613.0,-0.297668457031,0.235534667969,0.750793457031,0.540649414062,105.625,264.0625,50.0625,-7.09,0.16,11.75
1542226489262506008,65,0,/imu_data_acquisition2,39623.0,-0.309936523438,0.255737304688,0.743225097656,0.534973144531,102.375,281.375,39.125,-7.97,-0.11,12.11
1542226489279376983,67,0,/imu_data_acquisition2,39643.0,-0.338073730469,0.296142578125,0.723999023438,0.523315429688,97.25,315.875,15.375,-10.57,-0.04,15.24
1542226489287409067,68,0,/imu_data_acquisition2,39651.0,-0.3525390625,0.315673828125,0.712341308594,0.518249511719,98.0,309.4375,-1.375,-8.48,-0.38,12.88
1542226489302407979,69,0,/imu_data_acquisition2,39663.0,-0.366271972656,0.334045410156,-6.103515625e-05,0.514038085938,99.0,295.5,-14.4375,-9.21,-0.06,11.18
1542226489309704065,70,0,/imu_data_acquisition2,39672.0,-0.379028320312,0.351196289062,0.687316894531,0.510437011719,99.5625,279.5625,-23.9375,-8.55,0.77,12.35
1542226489318356990,71,0,/imu_data_acquisition2,39681.0,-0.390075683594,0.365905761719,0.675537109375,0.507568359375,89.375,243.875,-27.6875,-5.31,3.66,19.28
1542226489329993009,72,0,/imu_data_acquisition2,39692.0,-0.398559570312,0.376159667969,0.666076660156,0.505981445312,63.75,180.0,-33.375,-1.58,6.07,22.21
1542226489340291023,73,0,/imu_data_acquisition2,39702.0,-0.404541015625,0.380432128906,0.660217285156,0.505676269531,23.1875,101.625,-38.9375,2.44,6.82,20.53
1542226489348196983,74,0,/imu_data_acquisition2,39711.0,-0.408386230469,0.381164550781,0.65869140625,0.504028320312,-18.1875,48.875,-10.375,2.98,2.14,18.97
1542226489360342979,75,0,/imu_data_acquisition2,39723.0,-0.41064453125,0.379333496094,0.660034179688,0.501831054688,-44.8125,10.1875,6.25,4.81,1.24,14.7
1542226489369858980,76,0,/imu_data_acquisition2,39732.0,-0.411376953125,0.376342773438,0.662353515625,0.50048828125,-44.5,-17.3125,5.9375,4.45,0.7,12.12
1542226489376882076,77,0,/imu_data_acquisition2,39741.0,-0.4111328125,0.372253417969,0.6650390625,0.500183105469,-44.0625,-37.5,0.0625,3.28,0.04,12.42
1542226489390836954,78,0,/imu_data_acquisition2,39754.0,-0.409851074219,0.367309570312,0.667846679688,0.501098632812,-38.875,-57.125,-9.125,2.03,0.17,13.24
1542226489400896072,79,0,/imu_data_acquisition2,39762.0,-0.407165527344,0.361206054688,0.671081542969,0.50341796875,-35.4375,-82.8125,-17.0,1.03,0.52,14.06
1542226489408360004,80,0,/imu_data_acquisition2,39773.0,-0.40283203125,0.353759765625,0.674987792969,0.506958007812,-33.1875,-113.1875,-22.375,0.1,1.06,14.1
1542226489420363903,81,0,/imu_data_acquisition2,39783.0,-0.39697265625,0.344543457031,0.679809570312,0.511474609375,-37.25,-144.125,-26.625,-0.86,1.69,12.68
1542226489431176900,82,0,/imu_data_acquisition2,39792.0,-0.390014648438,0.33349609375,0.685363769531,0.516662597656,-44.75,-170.375,-15.125,-1.25,1.6,11.95
1542226489439130067,83,0,/imu_data_acquisition2,39803.0,-0.382080078125,0.320983886719,0.691467285156,0.522399902344,-50.75,-191.6875,-36.25,-2.29,1.38,11.83
1542226489449709892,84,0,/imu_data_acquisition2,39813.0,-0.373168945312,0.307189941406,0.69775390625,0.528686523438,-53.0625,-210.1875,-41.25,-3.62,0.96,10.89
1542226489460706949,85,0,/imu_data_acquisition2,39822.0,-0.363159179688,0.292663574219,0.704040527344,0.535522460938,-49.75,-226.3125,-44.4375,-3.8,0.92,10.04
1542226489466747045,86,0,/imu_data_acquisition2,39831.0,-0.352111816406,0.277954101562,0.710083007812,0.542724609375,-42.3125,-236.4375,-46.9375,-4.11,0.96,9.09
1542226489478833913,87,0,/imu_data_acquisition2,39842.0,-0.340209960938,0.263488769531,0.715637207031,0.550231933594,-32.5625,-240.9375,-48.0625,-4.57,1.4,8.59
1542226489490597009,88,0,/imu_data_acquisition2,39852.0,-0.32763671875,0.249450683594,0.720703125,0.557678222656,-22.6875,-241.3125,-47.75,-4.95,1.66,8.82
1542226489497916936,89,0,/imu_data_acquisition2,39862.0,-0.314697265625,0.235900878906,0.725341796875,0.565002441406,-15.8125,-239.6875,-46.25,-5.38,1.79,9.18
1542226489509228944,90,0,/imu_data_acquisition2,39873.0,-0.301513671875,0.22265625,0.729553222656,0.572021484375,-11.0,-237.3125,-44.5,-5.67,1.66,9.54
1542226489521156072,91,0,/imu_data_acquisition2,39882.0,-0.288146972656,0.209899902344,0.7333984375,0.578857421875,-5.0,-233.5625,-43.3125,-6.31,1.33,9.74
1542226489526854991,92,0,/imu_data_acquisition2,39891.0,-0.274597167969,0.197692871094,0.736694335938,0.58544921875,1.0,-229.0625,-42.5,-6.18,1.12,9.47
1542226489540977001,93,0,/imu_data_acquisition2,39904.0,-0.261047363281,0.186218261719,0.739501953125,0.591857910156,7.875,-221.6875,-41.625,-6.86,1.15,9.78
1542226489550105094,94,0,/imu_data_acquisition2,39912.0,-0.247619628906,0.175476074219,0.741760253906,0.598022460938,14.0,-213.875,-42.125,-7.11,1.15,9.42
1542226489556888103,95,0,/imu_data_acquisition2,39921.0,-0.234375,0.165344238281,0.743591308594,0.60400390625,18.8125,-205.8125,-41.875,-7.2,1.17,9.46
1542226489571403980,96,0,/imu_data_acquisition2,39935.0,-0.221374511719,0.156066894531,0.744873046875,0.609741210938,24.8125,-195.25,-41.25,-7.56,1.19,9.84
1542226489577136039,97,0,/imu_data_acquisition2,39941.0,-0.20849609375,0.147827148438,0.745788574219,0.615234375,32.5625,-185.625,-39.625,-9.2,1.39,13.09
1542226489588759899,98,0,/imu_data_acquisition2,39952.0,-0.195434570312,0.140258789062,0.746398925781,0.620483398438,40.25,-181.375,-37.5,-9.74,1.68,13.73
1542226489600569963,99,0,/imu_data_acquisition2,39964.0,-0.181823730469,0.132568359375,0.747131347656,0.625427246094,42.75,-186.375,-33.8125,-9.63,1.56,13.09
1542226489606935024,100,0,/imu_data_acquisition2,39971.0,-0.167846679688,0.124755859375,0.747741699219,0.630187988281,43.25,-190.4375,-32.0,-9.14,0.23,10.72
1542226489618314981,101,0,/imu_data_acquisition2,39982.0,-0.153869628906,0.1171875,0.748046875,0.634765625,45.9375,-187.125,-33.0,-9.2,-0.35,10.45
1542226489629368066,102,0,/imu_data_acquisition2,39993.0,-0.0150146484375,-6.103515625e-05,-6.103515625e-05,0.639465332031,53.25,-179.375,-36.4375,-9.83,-0.98,11.19
1542226489637000083,103,0,/imu_data_acquisition2,40001.0,-0.1259765625,0.104614257812,0.747009277344,0.644348144531,63.6875,-173.5,-40.5625,-10.5,-1.29,11.88
1542226489648612976,104,0,/imu_data_acquisition2,40012.0,-0.111572265625,0.0993041992188,0.745666503906,0.649353027344,72.3125,-172.1875,-44.25,-11.01,-1.69,11.88
1542226489659435987,105,0,/imu_data_acquisition2,40023.0,-0.0968017578125,0.094482421875,0.743957519531,0.654418945312,79.25,-171.125,-47.25,-11.34,-2.08,11.6
1542226489666702985,106,0,/imu_data_acquisition2,40031.0,-0.0818481445312,0.0900268554688,0.741821289062,0.659484863281,84.9375,-169.3125,-49.5,-11.29,-2.21,10.8
1542226489678986072,107,0,/imu_data_acquisition2,40042.0,-0.0668334960938,0.0859985351562,0.739379882812,0.664367675781,89.3125,-166.75,-49.75,-11.27,-1.66,10.03
1542226489686183929,108,0,/imu_data_acquisition2,40051.0,-0.052001953125,0.0823974609375,0.736877441406,0.6689453125,91.125,-161.0,-47.5625,-11.48,-1.04,10.21
1542226489698991060,109,0,/imu_data_acquisition2,40062.0,-0.03759765625,0.0787963867188,0.734497070312,0.672973632812,87.25,-156.25,-42.5,-11.36,-0.29,9.98
1542226489709471940,110,0,/imu_data_acquisition2,40072.0,-0.0239868164062,0.0748291015625,0.732360839844,0.676330566406,78.0625,-152.0625,-35.0,-10.95,0.19,8.42
1542226489716713905,111,0,/imu_data_acquisition2,40081.0,-0.0112915039062,0.0706787109375,0.730712890625,0.678955078125,67.5,-145.4375,-25.5,-10.88,0.26,7.58
1542226489729516983,112,0,/imu_data_acquisition2,40093.0,0.00048828125,0.0665893554688,0.729614257812,0.680603027344,60.375,-135.5,-13.625,-10.73,0.56,6.93
1542226489738415956,113,0,/imu_data_acquisition2,40102.0,0.0112915039062,0.06298828125,0.729248046875,0.681213378906,56.0625,-122.8125,-0.0625,-10.87,0.81,6.57
1542226489747694015,114,0,/imu_data_acquisition2,40112.0,0.0210571289062,0.0599365234375,0.729736328125,0.680786132812,52.75,-108.875,15.125,-11.41,1.07,6.23
1542226489758733987,115,0,/imu_data_acquisition2,40121.0,0.030029296875,0.0574340820312,0.731079101562,0.67919921875,49.9375,-95.9375,31.375,-12.0,0.92,6.2
1542226489768065929,116,0,/imu_data_acquisition2,40132.0,0.0382690429688,0.0554809570312,0.733276367188,0.676574707031,48.25,-84.6875,47.0,-12.56,0.68,5.77
1542226489778636932,117,0,/imu_data_acquisition2,40142.0,0.0458374023438,0.0538940429688,0.736328125,0.672912597656,47.0625,-74.5,62.25,-13.45,-0.36,3.8
1542226489786349058,118,0,/imu_data_acquisition2,40151.0,0.0526123046875,0.0528564453125,0.740112304688,0.668334960938,44.5,-62.5,74.25,-13.87,-1.06,2.34
1542226489798425912,119,0,/imu_data_acquisition2,40162.0,0.0582275390625,0.052490234375,0.744323730469,0.663208007812,41.5,-46.0625,81.875,-14.37,-1.8,0.98
1542226489808990001,120,0,/imu_data_acquisition2,40172.0,0.0621948242188,0.0530395507812,0.748718261719,0.657836914062,37.375,-24.1875,84.125,-15.58,-2.29,-0.98
1542226489816447973,121,0,/imu_data_acquisition2,40181.0,0.0641479492188,0.0547485351562,0.753173828125,0.65234375,31.6875,2.4375,83.5,-15.59,-0.96,-2.21
1542226489828629016,122,0,/imu_data_acquisition2,40192.0,0.0628662109375,0.0570068359375,0.757995605469,0.646728515625,10.75,36.375,84.3125,-16.11,-0.53,-1.44
1542226489838138103,123,0,/imu_data_acquisition2,40202.0,0.0575561523438,0.0585327148438,0.76318359375,0.640930175781,-25.75,67.5,87.375,-11.42,1.19,0.93
1542226489847193002,124,0,/imu_data_acquisition2,40212.0,0.0487060546875,0.0584716796875,0.768798828125,0.634948730469,-67.25,86.875,90.625,2.9,0.74,20.47
1542226489858803987,125,0,/imu_data_acquisition2,40222.0,0.041748046875,0.0591430664062,0.774291992188,0.628662109375,-46.875,75.9375,93.0625,9.08,3.88,14.83
1542226489867471933,126,0,/imu_data_acquisition2,40231.0,0.034423828125,0.0609741210938,0.779479980469,0.622497558594,-37.75,87.6875,89.625,7.26,-0.33,3.65
1542226489878247976,127,0,/imu_data_acquisition2,40242.0,0.0235595703125,0.0630493164062,0.783203125,0.618103027344,-61.9375,120.4375,59.1875,-0.16,-10.62,6.94
1542226489888997077,128,0,/imu_data_acquisition2,40251.0,0.00970458984375,0.0653686523438,0.784912109375,0.616088867188,-80.3125,147.25,20.0,-3.45,-11.58,15.0
1542226489897727012,129,0,/imu_data_acquisition2,40262.0,-0.00445556640625,0.0679321289062,0.784790039062,0.616027832031,-80.0,150.375,-12.0,-4.68,-10.8,15.58
1542226489908471107,130,0,/imu_data_acquisition2,40272.0,-0.017578125,0.0698852539062,0.783142089844,0.617614746094,-75.75,135.125,-5.125,-2.73,-1.94,10.01
1542226489916626930,131,0,/imu_data_acquisition2,40281.0,-0.0299072265625,0.072265625,0.780883789062,0.619750976562,-65.3125,130.25,-46.125,-2.66,3.04,10.92
1542226489928044080,132,0,/imu_data_acquisition2,40292.0,-0.0414428710938,0.0753173828125,0.778869628906,0.621276855469,-54.0625,128.375,-37.75,-4.04,5.47,12.58
1542226489939680099,133,0,/imu_data_acquisition2,40302.0,-0.052001953125,0.0787963867188,0.777770996094,0.621398925781,-45.0625,123.75,-16.375,-2.49,-0.01,-0.01
1542226489947016954,134,0,/imu_data_acquisition2,40311.0,-0.0150756835938,-6.103515625e-05,-6.103515625e-05,0.620422363281,-47.75,113.3125,-0.25,-6.24,0.21,14.66
1542226489958364963,135,0,/imu_data_acquisition2,40322.0,-0.0713500976562,0.0830688476562,0.777587890625,0.619140625,-56.6875,98.0,3.875,-5.84,-0.12,14.26
1542226489968904018,136,0,/imu_data_acquisition2,40332.0,-0.0797119140625,0.0830688476562,0.777770996094,0.617919921875,-62.125,77.875,3.8125,-4.81,-0.15,12.71
1542226489977282047,137,0,/imu_data_acquisition2,40342.0,-0.0872192382812,0.0819702148438,0.777893066406,0.616882324219,-66.1875,62.3125,2.875,-2.57,-0.7,10.55
1542226489989295005,138,0,/imu_data_acquisition2,40353.0,-0.0872192382812,0.0819702148438,0.777893066406,0.616882324219,-68.5625,55.5,1.3125,-3.55,-1.33,11.15
1542226489999676942,139,0,/imu_data_acquisition2,40364.0,-0.00762939453125,-6.103515625e-05,-6.103515625e-05,0.614990234375,-71.125,49.0,-0.625,-3.54,-0.83,10.74
1542226490008342027,140,0,/imu_data_acquisition2,40373.0,-0.107788085938,0.0755004882812,0.778076171875,0.6142578125,-73.1875,40.0625,-2.8125,-3.06,0.1,10.15
1542226490018779993,141,0,/imu_data_acquisition2,40381.0,-0.0140380859375,-6.103515625e-05,-6.103515625e-05,0.6142578125,-79.0,33.75,-3.5,-3.23,-0.46,10.47
1542226490028141975,142,0,/imu_data_acquisition2,40392.0,-0.120300292969,0.06787109375,0.778015136719,0.612854003906,-83.875,27.25,-4.6875,-3.09,-0.93,9.72
1542226490040057897,143,0,/imu_data_acquisition2,40403.0,-6.103515625e-05,-6.103515625e-05,-6.103515625e-05,0.612243652344,-84.75,23.4375,-5.625,-2.52,-0.5,10.52
1542226490070868015,146,0,/imu_data_acquisition2,40432.0,-0.137817382812,0.0546264648438,-6.103515625e-05,0.610961914062,-71.8125,21.8125,-7.125,-3.59,-1.91,10.91
1542226490077433109,147,0,/imu_data_acquisition2,40442.0,-0.147338867188,0.0480346679688,0.776977539062,0.610168457031,-58.4375,19.625,-7.75,-2.62,-1.42,10.26
1542226490089464902,148,0,/imu_data_acquisition2,40453.0,-0.151123046875,0.0457763671875,0.776489257812,0.610046386719,-47.875,19.25,-8.125,-2.42,-1.52,10.14
1542226490098531961,149,0,/imu_data_acquisition2,40462.0,-0.151123046875,0.0457763671875,0.776489257812,0.610046386719,-40.5,21.8125,-9.0625,-2.9,-1.26,9.64
1542226490107402086,150,0,/imu_data_acquisition2,40472.0,-0.154663085938,0.0441284179688,0.77587890625,0.609985351562,-37.875,25.3125,-9.75,-3.47,-1.47,10.15
1542226490120681047,151,0,/imu_data_acquisition2,40484.0,-0.161376953125,0.0419921875,0.774536132812,0.610168457031,-29.5,23.1875,-8.75,-3.01,-1.54,9.71
1542226490130949020,152,0,/imu_data_acquisition2,40494.0,-0.161376953125,0.0419921875,0.774536132812,0.610168457031,-23.4375,20.25,-7.4375,-3.44,-1.66,10.22
1542226490137815952,153,0,/imu_data_acquisition2,40502.0,-0.166015625,0.0410766601562,0.773498535156,0.610290527344,-17.5625,17.3125,-5.9375,-3.34,-1.41,9.66
1542226490148533105,154,0,/imu_data_acquisition2,40513.0,-0.167785644531,0.0408935546875,0.773071289062,0.6103515625,-14.25,16.25,-4.8125,-3.08,-1.52,9.92
1542226490161202907,155,0,/imu_data_acquisition2,40525.0,-0.169372558594,0.0408325195312,0.772644042969,0.610412597656,-11.6875,14.375,-4.1875,-2.95,-1.15,9.68
1542226490169090032,156,0,/imu_data_acquisition2,40532.0,-0.169372558594,0.0408325195312,0.772644042969,0.610412597656,-10.0,13.875,-4.4375,-2.83,-1.08,9.49
1542226490178385019,157,0,/imu_data_acquisition2,40542.0,-0.170837402344,0.0408325195312,0.772277832031,0.610534667969,-8.75,14.9375,-4.375,-2.94,-1.27,9.5
1542226490190598011,158,0,/imu_data_acquisition2,40554.0,-6.103515625e-05,-6.103515625e-05,-6.103515625e-05,0.610778808594,-8.125,15.625,-4.4375,-2.53,-1.09,9.15
1542226490198409080,159,0,/imu_data_acquisition2,40561.0,-0.173706054688,0.0411376953125,0.771423339844,0.610778808594,-8.125,15.625,-4.4375,-2.95,-1.33,9.32
1542226490208465099,160,0,/imu_data_acquisition2,40572.0,-0.175170898438,0.04150390625,0.77099609375,0.61083984375,-6.25,17.875,-4.375,-3.29,-1.23,9.48
1542226490218415975,161,0,/imu_data_acquisition2,40582.0,-0.176696777344,0.0419311523438,0.770568847656,0.610961914062,-5.6875,17.8125,-4.4375,-2.96,-1.39,9.2
1542226490231384992,162,0,/imu_data_acquisition2,40594.0,-0.179565429688,0.0429077148438,0.769592285156,0.611267089844,-5.125,17.0,-4.3125,-3.19,-1.43,9.34
1542226490241795063,163,0,/imu_data_acquisition2,40603.0,-0.179565429688,0.0429077148438,0.769592285156,0.611267089844,-4.25,16.75,-4.0,-3.16,-1.39,9.4
1542226490248893022,164,0,/imu_data_acquisition2,40613.0,-0.18212890625,0.0438232421875,0.768859863281,0.611328125,-4.3125,15.125,-3.8125,-3.17,-1.55,9.38
1542226490260246038,165,0,/imu_data_acquisition2,40624.0,-0.183227539062,0.0442504882812,0.768493652344,0.611450195312,-3.9375,14.125,-3.625,-3.44,-1.52,9.42
1542226490270499944,166,0,/imu_data_acquisition2,40634.0,-0.183227539062,0.0442504882812,0.768493652344,0.611450195312,-3.9375,13.0625,-3.25,-3.16,-1.36,9.37
1542226490281246900,167,0,/imu_data_acquisition2,40642.0,-0.184326171875,0.0446166992188,0.768127441406,0.611572265625,-3.5625,11.6875,-3.0,-3.35,-1.41,9.4
1542226490290896892,168,0,/imu_data_acquisition2,40655.0,-0.186096191406,0.0452880859375,0.767517089844,0.611755371094,-2.9375,11.1875,-2.8125,-3.53,-1.44,9.3
1542226490299397945,169,0,/imu_data_acquisition2,40663.0,-0.186096191406,0.0452880859375,0.767517089844,0.611755371094,-2.1875,10.5,-2.875,-3.27,-1.29,9.45
1542226490311228990,170,0,/imu_data_acquisition2,40673.0,-0.186828613281,0.045654296875,0.767395019531,0.611633300781,-1.5625,9.5625,-2.875,-3.31,-1.45,9.37
1542226490320612907,171,0,/imu_data_acquisition2,40684.0,-0.188049316406,0.0463256835938,0.766845703125,0.611877441406,-1.0625,8.8125,-2.6875,-3.26,-1.46,9.22
1542226490329206943,172,0,/imu_data_acquisition2,40693.0,-0.188598632812,0.0466918945312,0.766662597656,0.611999511719,-0.8125,8.0625,-2.1875,-3.4,-1.6,9.29
1542226490340667009,173,0,/imu_data_acquisition2,40704.0,-0.188598632812,0.0466918945312,0.766662597656,0.611999511719,-0.75,7.8125,-1.75,-3.17,-1.65,9.37
1542226490350697994,174,0,/imu_data_acquisition2,40713.0,-0.189025878906,0.0469360351562,0.766418457031,0.612060546875,-0.4375,7.25,-1.0,-3.45,-1.66,9.23
1542226490359318971,175,0,/imu_data_acquisition2,40724.0,-0.18994140625,0.0475463867188,0.766418457031,0.61181640625,0.25,7.5,0.375,-3.18,-1.45,9.36
1542226490370275020,176,0,/imu_data_acquisition2,40734.0,-0.18994140625,0.0475463867188,0.766418457031,0.61181640625,0.875,7.25,2.0625,-3.48,-1.61,9.13
1542226490381179094,177,0,/imu_data_acquisition2,40743.0,-0.190307617188,0.0480346679688,0.766418457031,0.611633300781,2.125,8.4375,3.5,-3.08,-1.41,9.29
1542226490389281034,178,0,/imu_data_acquisition2,40754.0,-0.190856933594,0.0492553710938,0.7666015625,0.611145019531,2.75,8.4375,5.25,-3.16,-1.57,9.21
1542226490399841070,179,0,/imu_data_acquisition2,40763.0,-0.190856933594,0.0492553710938,0.7666015625,0.611145019531,3.5,8.9375,6.5625,-3.41,-1.4,9.18
1542226490409311056,180,0,/imu_data_acquisition2,40771.0,-0.191162109375,0.0499877929688,0.766784667969,0.610717773438,3.5,8.9375,6.5625,-3.41,-1.4,9.18
1542226490418212890,181,0,/imu_data_acquisition2,40782.0,-0.19140625,0.0509033203125,0.767028808594,0.610290527344,4.25,9.8125,7.625,-3.22,-1.31,9.05
1542226490430356025,182,0,/imu_data_acquisition2,40794.0,-0.191589355469,0.0518188476562,0.767333984375,0.609741210938,5.0625,10.875,9.1875,-3.38,-1.24,9.18
1542226490440553903,183,0,/imu_data_acquisition2,40803.0,-0.00433349609375,-6.103515625e-05,-6.103515625e-05,0.609191894531,5.125,12.1875,9.0,-3.4,-1.32,9.11
1542226490449385881,184,0,/imu_data_acquisition2,40814.0,-0.192565917969,0.0551147460938,0.768127441406,0.608093261719,5.125,13.0625,9.0625,-3.33,-1.25,9.21
1542226490459795951,185,0,/imu_data_acquisition2,40823.0,-0.192565917969,0.0551147460938,0.768127441406,0.608093261719,5.0625,13.6875,9.0,-3.35,-1.26,9.09
1542226490467839002,186,0,/imu_data_acquisition2,40831.0,-0.192993164062,0.0563354492188,0.768432617188,0.607543945312,5.0625,13.6875,9.0,-3.35,-1.26,9.09
1542226490479554891,187,0,/imu_data_acquisition2,40844.0,-0.193603515625,0.0575561523438,0.768615722656,0.606994628906,4.875,16.125,8.375,-3.28,-1.29,8.97
1542226490491481065,188,0,/imu_data_acquisition2,40854.0,-0.194213867188,0.058837890625,0.768798828125,0.6064453125,5.1875,17.6875,8.5,-3.62,-1.18,9.22
1542226490497490882,189,0,/imu_data_acquisition2,40861.0,-0.194885253906,0.0602416992188,0.768920898438,0.605895996094,5.1875,17.6875,8.5,-3.62,-1.18,9.22
1542226490509068012,190,0,/imu_data_acquisition2,40873.0,-0.195739746094,0.0618286132812,0.76904296875,0.605346679688,7.125,22.5625,10.1875,-3.73,-1.22,9.06
1542226490519309043,191,0,/imu_data_acquisition2,40882.0,-0.196716308594,0.0636596679688,0.769165039062,0.604675292969,7.125,22.5625,10.1875,-3.73,-1.22,9.06
1542226490530920028,192,0,/imu_data_acquisition2,40893.0,-0.197814941406,0.0656127929688,0.769348144531,0.603942871094,8.375,25.5625,13.4375,-4.02,-1.19,8.96
1542226490540919065,193,0,/imu_data_acquisition2,40905.0,-0.2001953125,0.0698852539062,0.769836425781,0.601989746094,8.75,27.25,15.875,-3.92,-1.19,9.27
1542226490549407005,194,0,/imu_data_acquisition2,40912.0,-0.2001953125,0.0698852539062,0.769836425781,0.601989746094,8.75,-0.0625,-0.0625,-3.92,-1.19,9.27
1542226490557466030,195,0,/imu_data_acquisition2,40922.0,-0.201477050781,0.072265625,0.770202636719,0.600769042969,9.25,28.875,18.5,-3.8,-1.04,8.93
1542226490570044040,196,0,/imu_data_acquisition2,40934.0,-0.202880859375,0.0748291015625,0.770690917969,0.599365234375,10.0625,33.125,23.25,-3.58,-0.9,-0.01
1542226490579936027,197,0,/imu_data_acquisition2,40944.0,-0.204223632812,0.0775756835938,0.771240234375,0.597839355469,10.0625,33.125,23.25,-4.42,-0.74,8.76
1542226490590035915,198,0,/imu_data_acquisition2,40954.0,-0.205932617188,0.0804443359375,0.771850585938,0.596130371094,10.4375,40.5625,27.375,-3.37,-0.89,8.55
1542226490599644899,199,0,/imu_data_acquisition2,40963.0,-0.207885742188,0.0836181640625,0.772399902344,0.59423828125,9.875,45.6875,28.5,-3.4,-1.18,8.75
1542226490611568927,200,0,/imu_data_acquisition2,40971.0,-0.210144042969,0.0870361328125,0.773010253906,0.592224121094,9.875,45.6875,28.5,-3.4,-1.18,8.75
1542226490620224952,201,0,/imu_data_acquisition2,40985.0,-0.212890625,0.0909423828125,0.7734375,0.590087890625,9.625,65.8125,29.5625,-4.51,-0.52,9.45
1542226490629223108,202,0,/imu_data_acquisition2,40993.0,-0.216491699219,0.0953979492188,0.773620605469,0.587829589844,9.625,65.8125,29.5625,-3.71,-0.6,8.29
1542226490640007972,203,0,/imu_data_acquisition2,41004.0,-0.221557617188,0.100952148438,0.7734375,0.585266113281,9.3125,88.5625,30.0,-3.74,-0.83,8.94
1542226490647023916,204,0,/imu_data_acquisition2,41011.0,-0.22705078125,0.107666015625,0.773132324219,0.582397460938,16.0625,100.6875,35.5625,-1.18,-0.01,-0.01
1542226490664948940,205,0,/imu_data_acquisition2,41026.0,-0.239624023438,0.124450683594,0.772338867188,0.574951171875,27.3125,129.375,51.1875,-4.42,-0.97,9.47
1542226490670372009,206,0,/imu_data_acquisition2,41034.0,-0.239624023438,0.124450683594,0.772338867188,0.574951171875,34.625,144.6875,60.8125,-5.32,-1.66,10.18
1542226490680989027,207,0,/imu_data_acquisition2,41044.0,-0.246704101562,0.134948730469,0.771911621094,0.570129394531,40.375,160.4375,65.0625,-5.22,-1.78,9.74
1542226490691051959,208,0,/imu_data_acquisition2,41054.0,-0.254455566406,0.146667480469,0.771179199219,0.564819335938,44.125,171.625,62.625,-5.03,-2.24,9.78
1542226490696474075,209,0,/imu_data_acquisition2,41061.0,-0.262756347656,0.159057617188,0.769836425781,0.559448242188,44.125,171.625,62.625,-5.03,-2.24,9.78
1542226490712090969,210,0,/imu_data_acquisition2,41076.0,-0.271240234375,0.172668457031,0.767883300781,0.554077148438,69.875,201.5,65.4375,-5.46,-1.4,10.55
1542226490722435951,211,0,/imu_data_acquisition2,41087.0,-0.28955078125,0.205383300781,0.761352539062,0.54248046875,83.0,224.625,65.125,-6.05,-0.66,10.81
1542226490743066072,212,0,/imu_data_acquisition2,41102.0,-0.28955078125,0.205383300781,0.761352539062,0.54248046875,92.5625,246.4375,61.0,-6.19,-0.57,10.76
1542226490744153022,213,0,/imu_data_acquisition2,41107.0,-0.3115234375,0.24365234375,0.749938964844,0.530212402344,97.4375,266.5,53.875,-7.71,-0.64,11.43
1542226490752171039,214,0,/imu_data_acquisition2,41116.0,-0.0146484375,-6.103515625e-05,-6.103515625e-05,0.530212402344,97.4375,266.5,53.875,-8.75,-0.42,11.87
1542226490756927967,215,0,/imu_data_acquisition2,41121.0,-0.32421875,0.26416015625,0.7421875,0.523681640625,100.8125,289.1875,48.4375,-8.75,-0.42,11.87
1542226490769045114,216,0,/imu_data_acquisition2,41134.0,-0.337829589844,0.285522460938,0.733032226562,0.516784667969,105.5,308.625,43.4375,-11.62,-0.66,15.39
1542226490781687974,217,0,/imu_data_acquisition2,41145.0,-0.351745605469,0.307067871094,0.722412109375,0.509948730469,112.875,331.4375,16.125,-9.4,-0.44,12.21
1542226490790882110,218,0,/imu_data_acquisition2,41154.0,-0.366516113281,0.32861328125,0.710021972656,0.503479003906,112.875,331.4375,16.125,-10.46,-0.24,11.2
1542226490801188945,219,0,/imu_data_acquisition2,41163.0,-0.380981445312,0.3486328125,0.69677734375,0.497802734375,109.1875,321.125,-0.6875,-10.46,-0.24,11.2
1542226490812392950,220,0,/imu_data_acquisition2,41172.0,-0.393920898438,0.366088867188,0.683288574219,0.493957519531,106.125,285.9375,-22.3125,-9.23,0.27,11.31
1542226490823601007,221,0,/imu_data_acquisition2,41183.0,-0.406494140625,0.383239746094,0.669311523438,0.48974609375,106.125,285.9375,-22.3125,-9.3,0.93,11.69
1542226490831876993,222,0,/imu_data_acquisition2,41194.0,-0.417785644531,0.3984375,0.655578613281,0.486694335938,102.5,257.4375,-33.0625,-1.71,5.4,23.73
1542226490840593099,223,0,/imu_data_acquisition2,41205.0,-0.427001953125,0.410034179688,0.643310546875,0.485473632812,88.875,204.625,-47.4375,-3.8,3.93,24.71
1542226490846214056,224,0,/imu_data_acquisition2,41211.0,-0.431213378906,0.409790039062,0.641296386719,0.484619140625,-20.5625,44.9375,-27.0,-1.24,-0.01,-0.01
1542226490858104944,225,0,/imu_data_acquisition2,41222.0,-0.434020996094,0.405578613281,0.642944335938,0.483459472656,-61.6875,-5.5,-16.4375,3.58,2.44,18.02
1542226490870469093,226,0,/imu_data_acquisition2,41235.0,-0.43603515625,0.399475097656,0.645874023438,0.482788085938,-85.4375,-45.875,-24.4375,3.85,0.62,-0.01
1542226490880434036,227,0,/imu_data_acquisition2,41244.0,-0.437866210938,0.392028808594,0.649475097656,0.482543945312,-85.4375,-45.875,-24.4375,2.71,0.57,10.99
1542226490891087055,228,0,/imu_data_acquisition2,41254.0,-0.43896484375,0.384094238281,0.652893066406,0.483215332031,-80.0,-57.375,-31.75,1.68,0.77,12.15
1542226490898099899,229,0,/imu_data_acquisition2,41262.0,-0.438781738281,0.375793457031,0.656433105469,0.485107421875,-69.0,-76.125,-36.375,1.68,0.77,12.15
1542226490908992052,230,0,/imu_data_acquisition2,41272.0,-0.4365234375,0.3671875,0.660461425781,0.48828125,-55.6875,-101.9375,-36.75,-0.23,2.19,13.97
1542226490918967008,231,0,/imu_data_acquisition2,41282.0,-0.43212890625,0.357727050781,0.665405273438,0.492492675781,-47.6875,-132.8125,-34.0,-0.97,2.93,14.27
1542226490929702997,232,0,/imu_data_acquisition2,41294.0,-6.103515625e-05,-6.103515625e-05,-6.103515625e-05,0.497375488281,-47.0625,-165.25,-29.75,-2.3,3.72,13.85
1542226490940843105,233,0,/imu_data_acquisition2,41305.0,-0.417358398438,0.335021972656,0.678894042969,0.502685546875,-50.625,-196.3125,-25.4375,-3.82,3.27,12.83
1542226490947012901,234,0,/imu_data_acquisition2,41311.0,-0.407348632812,0.321411132812,0.687377929688,0.508239746094,-55.625,-225.25,-6.0,-3.82,3.27,12.83
1542226490958080053,235,0,/imu_data_acquisition2,41322.0,-0.395751953125,0.306457519531,0.696594238281,0.514038085938,-59.375,-250.8125,-19.375,-4.26,2.79,11.83
1542226490970194101,236,0,/imu_data_acquisition2,41334.0,-0.382934570312,0.290466308594,0.706115722656,0.519958496094,-60.6875,-268.875,-19.125,-4.43,2.27,10.68
1542226490981503009,237,0,/imu_data_acquisition2,41344.0,-0.369262695312,0.273986816406,0.715454101562,0.526062011719,-57.75,-279.0625,-21.375,-5.16,0.41,8.52
1542226490990077972,238,0,/imu_data_acquisition2,41354.0,-0.354797363281,0.257629394531,0.723999023438,0.532470703125,-48.625,-283.0,-25.5,-5.25,0.06,8.29
1542226490999978065,239,0,/imu_data_acquisition2,41362.0,-0.339660644531,0.241638183594,0.731689453125,0.539306640625,-36.25,-283.75,-15.0625,-5.25,0.06,8.29
1542226491006407022,240,0,/imu_data_acquisition2,41371.0,-0.324035644531,0.226379394531,0.738220214844,0.546630859375,-21.875,-280.125,-38.4375,-5.65,-0.54,7.74
1542226491019550085,241,0,/imu_data_acquisition2,41384.0,-0.308227539062,0.212036132812,0.743408203125,0.554382324219,-6.625,-271.4375,-47.0,-5.91,-0.45,7.81
1542226491030955076,242,0,/imu_data_acquisition2,41394.0,-0.29248046875,0.198852539062,0.747314453125,0.562561035156,7.0625,-260.25,-54.625,-6.23,-0.02,8.08
1542226491040801048,243,0,/imu_data_acquisition2,41404.0,-0.27685546875,0.186706542969,0.750183105469,0.570678710938,17.875,-7.6875,-0.0625,-6.56,0.82,8.68
1542226491049201965,244,0,/imu_data_acquisition2,41412.0,-0.261352539062,0.175537109375,0.752502441406,0.578430175781,26.0625,-238.3125,-55.875,-8.35,2.1,11.35
1542226491060221910,245,0,/imu_data_acquisition2,41422.0,-0.245727539062,0.164611816406,0.754699707031,0.585632324219,27.375,-235.625,-50.5625,-1.21,-0.01,-0.01
1542226491067178010,246,0,/imu_data_acquisition2,41432.0,-0.22998046875,0.153686523438,0.756958007812,0.592041015625,25.375,-235.5625,-42.5,-8.92,2.7,12.23
1542226491080725908,247,0,/imu_data_acquisition2,41445.0,-0.214294433594,0.142883300781,0.75927734375,0.59765625,24.1875,-233.125,-35.375,-9.45,1.01,13.05
1542226491091519117,248,0,/imu_data_acquisition2,41455.0,-0.198364257812,0.132507324219,0.761352539062,0.602844238281,29.25,-230.1875,-30.75,-9.45,1.01,13.05
1542226491098519086,249,0,/imu_data_acquisition2,41462.0,-0.182006835938,0.122863769531,0.76318359375,0.607727050781,38.25,-228.5625,-28.4375,-9.54,0.69,13.07
1542226491110129117,250,0,/imu_data_acquisition2,41472.0,-0.165161132812,0.113952636719,-6.103515625e-05,0.612487792969,48.75,-226.3125,-27.25,-9.73,0.46,12.93
1542226491117433071,251,0,/imu_data_acquisition2,41481.0,-0.147888183594,0.105712890625,0.765686035156,0.617004394531,58.4375,-224.125,-26.0,-9.76,0.42,12.89
1542226491129688024,252,0,/imu_data_acquisition2,41494.0,-0.130310058594,0.0980834960938,0.766418457031,0.621276855469,65.625,-221.8125,-24.5,-9.79,0.31,12.82
1542226491141349077,253,0,/imu_data_acquisition2,41505.0,-0.112548828125,0.0909423828125,0.766845703125,0.625305175781,71.8125,-219.3125,-23.4375,-10.35,-0.39,13.07
1542226491146625041,254,0,/imu_data_acquisition2,41511.0,-0.0944213867188,0.0843505859375,0.767028808594,0.628967285156,78.6875,-217.4375,-21.25,-10.52,-0.92,12.78
1542226491158577919,255,0,/imu_data_acquisition2,41522.0,-0.0761108398438,0.0783081054688,0.766967773438,0.63232421875,85.5625,-214.625,-19.25,-10.63,-1.43,12.23
1542226491168462991,256,0,/imu_data_acquisition2,41531.0,-0.0578002929688,0.0729370117188,0.7666015625,0.635375976562,91.625,-209.0625,-18.6875,-10.72,-1.98,11.67
1542226491179752111,257,0,/imu_data_acquisition2,41544.0,-0.03955078125,0.0684204101562,0.765747070312,0.638244628906,98.5,-201.375,-19.6875,-11.24,-3.08,11.1
1542226491191298961,258,0,/imu_data_acquisition2,41555.0,-0.021484375,0.0648193359375,0.764465332031,0.640991210938,106.5625,-192.5,-21.625,-11.85,-3.18,10.85
1542226491197716951,259,0,/imu_data_acquisition2,41561.0,-0.0035400390625,0.062255859375,0.762756347656,0.643676757812,114.625,-7.875,-0.0625,-11.85,-3.18,10.85
1542226491207974910,260,0,/imu_data_acquisition2,41572.0,-6.103515625e-05,-6.103515625e-05,-6.103515625e-05,0.646179199219,116.5,-177.4375,-25.3125,-12.85,-1.61,10.5
1542226491218092918,261,0,/imu_data_acquisition2,41581.0,0.031005859375,0.0578002929688,0.758483886719,0.648376464844,109.625,-171.625,-24.8125,-12.92,-0.85,9.39
1542226491229470968,262,0,/imu_data_acquisition2,41594.0,0.0465087890625,-6.103515625e-05,-6.103515625e-05,0.650390625,95.25,-162.9375,-7.625,-12.98,-0.53,8.12
1542226491241931915,263,0,/imu_data_acquisition2,41606.0,0.0604248046875,0.052001953125,0.753967285156,0.652038574219,69.4375,-133.5625,-17.8125,-13.67,-0.52,4.15
1542226491246334075,264,0,/imu_data_acquisition2,41611.0,0.0726928710938,0.0491333007812,0.751953125,0.6533203125,69.4375,-133.5625,-17.8125,-13.67,-0.52,4.15
1542226491259100914,265,0,/imu_data_acquisition2,41622.0,0.083251953125,0.0469970703125,0.750122070312,0.654357910156,62.3125,-112.875,-15.3125,-14.43,-0.62,3.16
1542226491267925977,266,0,/imu_data_acquisition2,41631.0,0.0922241210938,0.0457763671875,0.748474121094,0.655090332031,59.3125,-91.0,-12.75,-15.47,-0.84,2.14
1542226491279220104,267,0,/imu_data_acquisition2,41644.0,0.0997314453125,0.045654296875,0.747253417969,0.655456542969,57.375,-68.9375,-8.625,-2.09,-0.01,-0.01
1542226491290035009,268,0,/imu_data_acquisition2,41654.0,0.105285644531,0.0464477539062,-6.103515625e-05,0.6552734375,50.6875,-43.5625,-1.5625,-17.93,0.14,-2.17
1542226491297293901,269,0,/imu_data_acquisition2,41661.0,0.108032226562,0.0479125976562,-6.103515625e-05,0.654479980469,35.125,-12.1875,8.25,-2.21,-0.01,-0.01
1542226491307828903,270,0,/imu_data_acquisition2,41672.0,0.107238769531,0.050048828125,0.747924804688,0.653137207031,13.25,25.5,17.5,-15.83,0.56,-1.55
1542226491316884040,271,0,/imu_data_acquisition2,41681.0,-6.103515625e-05,-6.103515625e-05,-6.103515625e-05,0.6513671875,-5.9375,59.125,24.5625,-15.05,0.29,1.13
1542226491332835912,272,0,/imu_data_acquisition2,41696.0,0.0972900390625,0.0557861328125,0.752380371094,0.649108886719,-50.625,93.75,53.5625,2.81,8.41,13.88
1542226491341705083,273,0,/imu_data_acquisition2,41706.0,0.0888061523438,0.0572509765625,0.75634765625,0.645629882812,-50.625,93.75,53.5625,9.14,6.52,28.59
1542226491346474885,274,0,/imu_data_acquisition2,41711.0,0.0797119140625,0.054931640625,0.762084960938,0.64013671875,-88.4375,73.0625,-0.0625,9.14,6.52,28.59
1542226491357954025,275,0,/imu_data_acquisition2,41722.0,0.0725708007812,0.0533447265625,0.769470214844,0.63232421875,-65.9375,64.875,123.4375,12.14,5.73,19.69
1542226491370384931,276,0,/imu_data_acquisition2,41733.0,0.0648803710938,0.0556030273438,0.777160644531,0.623474121094,-33.8125,98.9375,131.5,10.33,2.3,1.46
1542226491378228902,277,0,/imu_data_acquisition2,41743.0,0.0526733398438,0.0591430664062,0.783447265625,0.616394042969,-56.9375,147.9375,100.375,-2.43,-0.01,-0.01
1542226491390089988,278,0,/imu_data_acquisition2,41754.0,0.0377197265625,0.0625,0.78759765625,0.61181640625,-77.8125,169.125,60.4375,-6.08,-12.4,15.98
1542226491398535966,279,0,/imu_data_acquisition2,41761.0,0.023681640625,0.064208984375,0.789611816406,0.609802246094,-86.125,145.75,21.9375,-4.82,-14.35,17.34
1542226491406991958,280,0,/imu_data_acquisition2,41771.0,0.010498046875,0.0656127929688,0.789245605469,0.610534667969,-82.125,132.5625,-19.625,-1.02,-12.08,10.42
1542226491418642044,281,0,/imu_data_acquisition2,41782.0,-0.0020751953125,0.0685424804688,0.787292480469,0.61279296875,-62.3125,136.5,-45.1875,-3.11,-5.35,11.94
1542226491430350065,282,0,/imu_data_acquisition2,41794.0,-0.012939453125,0.0726318359375,0.78515625,0.614868164062,-38.5,129.6875,-43.625,-3.9,1.52,12.19
1542226491440036058,283,0,/imu_data_acquisition2,41803.0,-0.0225830078125,0.0772705078125,0.78369140625,0.615905761719,-25.6875,122.25,-27.5,-3.53,6.68,11.84
1542226491448082923,284,0,/imu_data_acquisition2,41812.0,-0.031982421875,0.0817260742188,0.783142089844,0.615600585938,-26.5625,120.4375,-8.75,-4.93,5.94,13.1
1542226491457832098,285,0,/imu_data_acquisition2,41822.0,-0.0411987304688,0.0850830078125,0.783264160156,0.614440917969,-37.1875,110.75,3.8125,-5.58,4.7,13.62
1542226491470832109,286,0,/imu_data_acquisition2,41834.0,-0.05029296875,0.08642578125,0.783630371094,0.613098144531,-54.4375,95.3125,6.6875,-5.27,2.07,13.33
1542226491480933904,287,0,/imu_data_acquisition2,41843.0,-0.0589599609375,0.086181640625,0.783996582031,0.611877441406,-65.9375,79.75,4.5,-3.33,1.02,11.28
1542226491489351987,288,0,/imu_data_acquisition2,41854.0,-0.00506591796875,-6.103515625e-05,-6.103515625e-05,0.610900878906,-76.75,70.25,1.5625,-2.59,0.42,9.54
1542226491498833894,289,0,/imu_data_acquisition2,41862.0,-0.0765380859375,0.08251953125,0.784362792969,0.609985351562,-86.75,67.8125,-1.4375,-2.27,0.23,9.76
1542226491510984897,290,0,/imu_data_acquisition2,41875.0,-0.0856323242188,0.079345703125,0.784423828125,0.609130859375,-95.6875,62.5625,-0.0625,-4.18,-1.21,11.15
1542226491516254901,291,0,/imu_data_acquisition2,41881.0,-0.0941162109375,0.0753173828125,0.784423828125,0.6083984375,-99.0625,50.5625,-5.1875,-3.79,-0.82,10.92
1542226491529830932,292,0,/imu_data_acquisition2,41893.0,-0.10205078125,0.0704956054688,0.784423828125,0.607666015625,-103.125,38.9375,-5.75,-3.73,-0.87,10.77
1542226491543040990,293,0,/imu_data_acquisition2,41907.0,-0.109558105469,0.06494140625,0.784423828125,0.606994628906,-104.5,25.5625,-5.6875,-2.96,-0.99,10.2
1542226491552418947,294,0,/imu_data_acquisition2,41913.0,-0.116638183594,0.0592651367188,0.784484863281,0.606201171875,-104.5,25.5625,-5.6875,-2.96,-0.99,10.2
1542226491560034036,295,0,/imu_data_acquisition2,41924.0,-0.123352050781,0.0537109375,0.784423828125,0.605407714844,-101.25,23.5,-5.0,-3.08,-1.42,10.94
1542226491572083950,296,0,/imu_data_acquisition2,41937.0,-0.129516601562,0.0487670898438,0.784362792969,0.604675292969,-75.5625,19.5,-5.0625,-3.49,-1.82,10.89
1542226491581470966,297,0,/imu_data_acquisition2,41945.0,-0.134643554688,0.0447387695312,0.7841796875,0.604064941406,-75.5625,19.5,-5.0625,-3.49,-1.82,10.89
1542226491588437080,298,0,/imu_data_acquisition2,41953.0,-0.138854980469,0.0416259765625,0.783935546875,0.603698730469,-59.1875,17.0,-5.125,-2.92,-1.67,10.35
1542226491597640037,299,0,/imu_data_acquisition2,41962.0,-0.142456054688,0.0392456054688,0.783630371094,0.603454589844,-15.625,-0.0625,-0.0625,-3.02,-1.65,10.33
1542226491605868101,300,0,/imu_data_acquisition2,41971.0,-0.0048828125,-6.103515625e-05,-6.103515625e-05,0.603332519531,-37.4375,17.125,-6.25,-3.43,-1.8,10.1
1542226491619113922,301,0,/imu_data_acquisition2,41983.0,-0.148071289062,0.036376953125,0.782775878906,0.603332519531,-29.75,15.8125,-5.9375,-2.95,-1.64,10.45
1542226491629349946,302,0,/imu_data_acquisition2,41991.0,-0.150146484375,0.0354614257812,0.782409667969,0.603332519531,-22.5,13.3125,-5.0,-3.16,-1.44,9.84
1542226491636351108,303,0,/imu_data_acquisition2,42001.0,-0.151794433594,0.034912109375,0.782104492188,0.603332519531,-17.125,11.9375,-3.875,-3.15,-1.72,9.87
1542226491648452997,304,0,/imu_data_acquisition2,42012.0,-0.1533203125,0.0344848632812,0.781799316406,0.603393554688,-14.5625,11.625,-3.6875,-2.75,-0.99,9.49
1542226491659734010,305,0,/imu_data_acquisition2,42021.0,-0.15478515625,0.0341796875,0.781555175781,0.603332519531,-12.9375,12.0625,-3.5,-2.89,-1.18,9.67
1542226491666537046,306,0,/imu_data_acquisition2,42031.0,-0.15625,0.0339965820312,0.78125,0.603393554688,-12.0625,12.75,-3.625,-3.14,-1.14,9.46
1542226491679202079,307,0,/imu_data_acquisition2,42042.0,-0.15771484375,0.0338745117188,0.780883789062,0.603515625,-11.0625,13.0,-4.4375,-3.0,-1.07,9.33
1542226491688580989,308,0,/imu_data_acquisition2,42051.0,-0.159057617188,0.0338134765625,0.780517578125,0.603637695312,-10.125,12.5,-4.3125,-2.83,-1.2,9.37
1542226491697981119,309,0,/imu_data_acquisition2,42061.0,-0.160400390625,0.0337524414062,0.780151367188,0.603759765625,-9.3125,12.4375,-4.75,-2.79,-1.25,-0.01
1542226491709182024,310,0,/imu_data_acquisition2,42071.0,-0.161682128906,0.0338134765625,0.779602050781,0.604064941406,-8.5625,13.125,-0.0625,-3.18,-1.22,9.61
1542226491717992067,311,0,/imu_data_acquisition2,42082.0,-0.162963867188,0.033935546875,0.779174804688,0.604248046875,-8.25,12.6875,-5.375,-2.97,-1.23,9.34
1542226491728637933,312,0,/imu_data_acquisition2,42091.0,-0.164184570312,0.0340576171875,0.77880859375,0.6044921875,-8.0625,12.75,-5.5,-3.08,-1.14,-0.01
1542226491736402988,313,0,/imu_data_acquisition2,42101.0,-0.165405273438,0.0342407226562,0.778381347656,0.604675292969,-7.875,-0.0625,-0.0625,-3.2,-1.31,9.27
1542226491748956918,314,0,/imu_data_acquisition2,42112.0,-0.166625976562,0.034423828125,0.777954101562,0.604858398438,-7.3125,12.25,-5.3125,-3.14,-1.29,9.43
1542226491757091999,315,0,/imu_data_acquisition2,42121.0,-0.167724609375,0.0345458984375,0.777526855469,0.605041503906,-6.625,11.625,-0.0625,-2.98,-1.36,9.25
1542226491767447948,316,0,/imu_data_acquisition2,42131.0,-0.168823242188,0.0347290039062,0.777160644531,0.605224609375,-5.875,11.625,-4.5625,-3.12,-1.36,9.15
1542226491779455900,317,0,/imu_data_acquisition2,42141.0,-0.169860839844,0.0350341796875,0.776794433594,0.605407714844,-5.0625,12.0,-4.1875,-3.23,-1.33,9.31
1542226491789249897,318,0,/imu_data_acquisition2,42152.0,-0.1708984375,0.035400390625,0.776428222656,0.605529785156,-4.25,11.6875,-3.9375,-3.33,-1.36,9.28
1542226491798868894,319,0,/imu_data_acquisition2,42162.0,-0.171813964844,0.0358276367188,0.776123046875,0.605651855469,-3.875,11.0625,-3.8125,-3.39,-1.29,9.5
1542226491808696031,320,0,/imu_data_acquisition2,42172.0,-0.172668457031,0.0360107421875,0.77587890625,0.605712890625,-3.0,9.75,-3.3125,-3.42,-1.47,9.47
1542226491820612907,321,0,/imu_data_acquisition2,42181.0,-0.17333984375,0.0362548828125,0.775573730469,0.605895996094,-2.375,8.25,-3.375,-3.32,-1.55,9.32
1542226491826802968,322,0,/imu_data_acquisition2,42191.0,-0.173889160156,0.0364379882812,0.775390625,0.606018066406,-1.6875,7.1875,-2.75,-3.48,-1.57,9.35
1542226491839086055,323,0,/imu_data_acquisition2,42201.0,-0.174377441406,0.0366821289062,0.775146484375,0.606140136719,-1.0,5.9375,-2.4375,-3.09,-1.5,9.28
1542226491852231025,324,0,/imu_data_acquisition2,42216.0,-0.1748046875,0.0369873046875,0.774963378906,0.606262207031,-0.5,5.8125,-2.125,-3.36,-1.49,9.22
1542226491859430074,325,0,/imu_data_acquisition2,42224.0,-0.175170898438,0.0372924804688,0.774780273438,0.606323242188,-0.1875,6.0625,-1.875,-3.3,-1.47,9.36
1542226491874402046,326,0,/imu_data_acquisition2,42238.0,-0.175659179688,0.03759765625,0.774597167969,0.6064453125,0.3125,7.1875,-1.75,-3.17,-1.43,9.24
1542226491878686904,327,0,/imu_data_acquisition2,42243.0,-0.176147460938,0.0379638671875,0.7744140625,0.606506347656,0.3125,7.1875,-1.75,-3.17,-1.43,9.24
1542226491888196945,328,0,/imu_data_acquisition2,42252.0,-0.176635742188,0.0383911132812,0.774169921875,0.606567382812,-0.0625,7.375,-1.5625,-3.33,-1.46,9.21
1542226491899255990,329,0,/imu_data_acquisition2,42262.0,-0.177124023438,0.0387573242188,0.774047851562,0.606628417969,0.3125,7.25,-1.3125,-3.24,-1.33,9.23
1542226491909782886,330,0,/imu_data_acquisition2,42272.0,-0.177551269531,0.0391235351562,0.773803710938,0.606750488281,0.25,6.875,-1.0625,-3.3,-1.51,9.29
1542226491917956113,331,0,/imu_data_acquisition2,42282.0,-0.178039550781,0.0394897460938,0.773681640625,0.606750488281,0.5,7.125,-0.625,-3.21,-1.35,9.31
1542226491929339885,332,0,/imu_data_acquisition2,42292.0,-0.178405761719,0.0399169921875,0.773559570312,0.606750488281,1.1875,6.75,0.0625,-3.07,-1.6,9.09
1542226491938216924,333,0,/imu_data_acquisition2,42302.0,-0.178771972656,0.0404663085938,0.773559570312,0.606689453125,1.6875,7.3125,1.5,-3.28,-1.66,9.0
1542226491948035001,334,0,/imu_data_acquisition2,42312.0,-0.17919921875,0.0410766601562,0.773559570312,0.6064453125,2.5625,8.1875,3.375,-3.12,-1.5,9.25
1542226491959053039,335,0,/imu_data_acquisition2,42322.0,-0.179565429688,0.0418701171875,0.773498535156,0.606384277344,3.1875,8.625,5.25,-3.01,-1.54,9.23
1542226491968527078,336,0,/imu_data_acquisition2,42332.0,-0.179931640625,0.042724609375,0.773681640625,0.60595703125,4.125,9.375,7.125,-3.69,-1.43,9.17
1542226491978645086,337,0,/imu_data_acquisition2,42343.0,-0.180358886719,0.0437622070312,0.77392578125,0.60546875,4.9375,10.5,8.1875,-3.18,-1.29,8.96
1542226491991074085,338,0,/imu_data_acquisition2,42352.0,-0.180725097656,0.0447998046875,0.774230957031,0.604919433594,5.375,10.625,9.25,-3.21,-1.48,9.12
1542226492009964942,339,0,/imu_data_acquisition2,42362.0,-0.181213378906,0.0458984375,0.774475097656,0.604370117188,5.3125,12.0625,9.1875,-0.76,-0.01,-0.01
1542226492012666940,340,0,/imu_data_acquisition2,42377.0,-0.181701660156,0.047119140625,0.774719238281,0.603759765625,5.4375,13.0625,9.125,-3.47,-1.18,9.27
1542226492022535085,341,0,/imu_data_acquisition2,42386.0,-0.182312011719,0.04833984375,0.774963378906,0.603210449219,5.6875,14.625,9.3125,-3.15,-1.41,9.2
1542226492039110898,342,0,/imu_data_acquisition2,42394.0,-0.183044433594,0.0498046875,-6.103515625e-05,0.602600097656,6.3125,16.4375,9.5625,-3.54,-1.19,9.02
1542226492042814970,343,0,/imu_data_acquisition2,42407.0,-0.183776855469,0.0513916015625,0.775390625,0.601928710938,7.3125,18.25,10.75,-3.5,-1.28,9.09
1542226492047171115,344,0,/imu_data_acquisition2,42411.0,-0.184631347656,0.05322265625,0.775695800781,0.601135253906,8.8125,20.375,12.3125,-3.52,-1.23,9.01
1542226492058286905,345,0,/imu_data_acquisition2,42422.0,-0.185546875,0.0553588867188,0.776000976562,0.600280761719,10.75,23.1875,14.6875,-3.69,-1.36,9.16
1542226492069011926,346,0,/imu_data_acquisition2,42433.0,-0.186584472656,0.0577392578125,0.776428222656,0.599182128906,12.0625,26.625,17.125,-3.37,-1.37,9.01
1542226492081392049,347,0,/imu_data_acquisition2,42444.0,-0.187744140625,0.0604248046875,0.77685546875,0.597961425781,13.3125,29.5625,19.8125,-3.4,-1.33,8.76
1542226492104893922,348,0,/imu_data_acquisition2,42467.0,-0.189086914062,0.0634765625,0.777404785156,0.596557617188,14.9375,33.5,22.625,-4.42,-0.88,8.63
1542226492110420942,349,0,/imu_data_acquisition2,42475.0,-0.192199707031,0.0704345703125,0.778503417969,0.593322753906,18.0,41.125,26.1875,-3.38,-1.02,9.32
1542226492121088027,350,0,/imu_data_acquisition2,42484.0,-0.194091796875,0.0745239257812,0.779052734375,0.591491699219,19.75,46.1875,28.0,-3.05,-0.69,9.57
1542226492140475034,351,0,/imu_data_acquisition2,42503.0,-0.19873046875,0.0838012695312,0.780090332031,0.587341308594,21.25,57.5625,32.5625,-3.22,-0.13,8.8
1542226492145979881,352,0,/imu_data_acquisition2,42510.0,-0.19873046875,0.0838012695312,0.780090332031,0.587341308594,21.625,67.875,35.0,-3.58,-0.38,8.83
1542226492205039024,359,0,/imu_data_acquisition2,42566.0,-0.233215332031,0.134155273438,0.780517578125,0.564270019531,44.0,161.25,70.125,-4.44,-1.62,9.81
1542226492211756944,360,0,/imu_data_acquisition2,42573.0,-0.241821289062,0.147521972656,0.779846191406,0.558227539062,50.4375,180.4375,74.0625,-4.73,-1.65,9.6
1542226492216670989,361,0,/imu_data_acquisition2,42581.0,-0.251281738281,0.161804199219,0.778259277344,0.55224609375,55.0,196.4375,69.3125,-4.74,-2.38,10.21
1542226492228952884,362,0,/imu_data_acquisition2,42593.0,-0.261047363281,0.177673339844,0.77587890625,0.546142578125,68.9375,212.5,69.0625,-5.15,-1.91,9.83
1542226492238002061,363,0,/imu_data_acquisition2,42602.0,-0.271484375,0.195251464844,0.772583007812,0.539733886719,81.1875,233.375,70.375,-5.56,-0.92,10.78
1542226492250926017,364,0,/imu_data_acquisition2,42613.0,-0.282897949219,0.214416503906,0.768127441406,0.532897949219,90.375,256.9375,68.8125,-6.57,-0.5,10.76
1542226492258199930,365,0,/imu_data_acquisition2,42622.0,-0.295349121094,0.234252929688,0.762451171875,0.52587890625,92.5625,275.25,63.0625,-6.74,-0.34,11.09
1542226492279638051,367,0,/imu_data_acquisition2,42643.0,-0.323608398438,0.274597167969,0.747436523438,0.511047363281,87.0625,308.625,47.875,-8.03,-0.26,11.4
1542226492293876886,368,0,/imu_data_acquisition2,42653.0,-0.338989257812,0.295288085938,0.738098144531,0.503112792969,89.875,323.1875,43.0,-8.9,0.31,11.33
1542226492299948930,369,0,/imu_data_acquisition2,42664.0,-0.355529785156,0.31591796875,0.726989746094,0.495300292969,89.5625,339.4375,27.1875,-10.52,-0.27,14.84
1542226492311055898,370,0,/imu_data_acquisition2,42673.0,-0.372192382812,0.335266113281,0.71484375,0.487915039062,83.125,335.5,11.3125,-9.78,-0.59,11.8
1542226492319575071,371,0,/imu_data_acquisition2,42683.0,-0.388427734375,0.353515625,0.701965332031,0.481018066406,80.9375,327.0,-0.0625,-11.14,-0.71,11.47
1542226492336050987,372,0,/imu_data_acquisition2,42692.0,-0.403503417969,0.370178222656,0.688903808594,0.474914550781,79.5625,306.0,-10.1875,-8.87,-0.53,11.55
1542226492342533111,373,0,/imu_data_acquisition2,42703.0,-0.417236328125,0.385375976562,0.675903320312,0.469604492188,77.6875,282.9375,-17.3125,-9.41,0.02,12.08
1542226492369261980,375,0,/imu_data_acquisition2,42725.0,-0.439086914062,0.40576171875,0.653137207031,0.464782714844,52.3125,172.875,-52.0,-2.34,4.79,24.77
1542226492371715068,376,0,/imu_data_acquisition2,42736.0,-0.442932128906,0.408447265625,0.648742675781,0.464904785156,21.375,66.875,-29.3125,-5.46,2.05,27.14
1542226492383599042,377,0,/imu_data_acquisition2,42746.0,-0.445007324219,0.405212402344,0.649963378906,0.463928222656,-47.25,-3.1875,-13.0,4.06,1.03,18.58
1542226492392525911,378,0,/imu_data_acquisition2,42756.0,-0.445190429688,0.399780273438,0.653259277344,0.463928222656,-58.875,-46.125,-11.3125,4.79,2.11,11.46
1542226492403351068,379,0,/imu_data_acquisition2,42763.0,-0.0078125,-6.103515625e-05,-6.103515625e-05,0.46435546875,-75.9375,-64.0,-20.5,3.58,-0.44,10.91
1542226492411714076,380,0,/imu_data_acquisition2,42773.0,-0.445495605469,0.383728027344,0.661560058594,0.465515136719,-80.5625,-73.0,-32.125,2.18,-0.59,12.34
1542226492421802997,381,0,/imu_data_acquisition2,42782.0,-0.444519042969,0.374755859375,0.665588378906,0.467956542969,-70.5625,-89.0,-39.625,1.27,-0.12,13.61
1542226492439452886,382,0,/imu_data_acquisition2,42791.0,-0.441589355469,0.365356445312,0.669921875,0.471923828125,-56.0,-115.5625,-44.3125,-0.47,1.54,15.08
1542226492446940898,383,0,/imu_data_acquisition2,42810.0,-0.436401367188,0.355102539062,0.674926757812,0.477416992188,-45.5,-148.625,-46.5625,-1.06,2.7,14.76
1542226492464133024,385,0,/imu_data_acquisition2,42826.0,-0.42919921875,0.343383789062,0.680969238281,0.483825683594,-51.25,-212.25,-44.875,-2.09,3.73,13.2
1542226492472006082,386,0,/imu_data_acquisition2,42836.0,-0.409912109375,0.315307617188,0.696472167969,0.497497558594,-57.9375,-238.5625,-41.1875,-3.21,3.68,11.32
1542226492480973958,387,0,/imu_data_acquisition2,42842.0,-0.398132324219,0.299255371094,0.705444335938,0.504272460938,-63.9375,-4.4375,-0.0625,-3.53,3.31,9.96
1542226492491439104,388,0,/imu_data_acquisition2,42852.0,-0.38525390625,0.2822265625,0.71484375,0.5107421875,-67.625,-276.6875,-32.5625,-3.39,2.83,8.48
1542226492504009008,389,0,/imu_data_acquisition2,42868.0,-0.371704101562,0.264831542969,0.72412109375,0.517028808594,-67.5,-283.4375,-30.9375,-3.52,1.45,6.28
1542226492511957883,390,0,/imu_data_acquisition2,42873.0,-0.35791015625,0.247741699219,0.732666015625,0.523193359375,-62.0,-279.5625,-32.8125,-3.72,0.66,6.1
1542226492518815040,391,0,/imu_data_acquisition2,42882.0,-0.343872070312,0.231811523438,0.739990234375,0.529541015625,-46.25,-270.4375,-35.75,-4.13,0.15,6.79
1542226492529248952,392,0,/imu_data_acquisition2,42892.0,-0.329284667969,0.217712402344,0.746032714844,0.536254882812,-21.3125,-259.1875,-38.25,-5.86,0.79,9.26
1542226492539283990,393,0,/imu_data_acquisition2,42902.0,-0.313842773438,0.205444335938,0.751037597656,0.543334960938,4.625,-251.875,-38.625,-6.49,1.8,10.33
1542226492552829980,394,0,/imu_data_acquisition2,42915.0,-0.297607421875,0.194458007812,0.755432128906,0.550415039062,22.125,-248.75,-36.75,-7.11,2.67,11.19
1542226492559705018,395,0,/imu_data_acquisition2,42924.0,-0.280944824219,0.183898925781,0.759521484375,0.55712890625,28.9375,-247.75,-31.75,-7.58,3.12,11.55
1542226492568823099,396,0,/imu_data_acquisition2,42932.0,-0.280944824219,0.183898925781,0.759521484375,0.55712890625,29.4375,-246.5625,-24.8125,-8.36,2.85,11.18
1542226492577790975,397,0,/imu_data_acquisition2,42941.0,-0.264038085938,0.173583984375,0.763549804688,0.563110351562,26.4375,-243.375,-16.625,-8.39,2.11,10.72
1542226492590676069,398,0,/imu_data_acquisition2,42954.0,-0.230712890625,0.153259277344,0.771606445312,0.572631835938,25.1875,-238.5,-10.75,-8.37,1.16,10.86
1542226492599621057,399,0,/imu_data_acquisition2,42963.0,-0.214294433594,0.143676757812,0.775207519531,0.576599121094,28.0625,-231.5625,-7.75,-9.32,-0.35,12.97
1542226492608901977,400,0,/imu_data_acquisition2,42972.0,-0.214294433594,0.143676757812,0.775207519531,0.576599121094,34.875,-0.0625,-0.0625,-10.18,-0.7,14.57
1542226492618499994,401,0,/imu_data_acquisition2,42983.0,-0.197937011719,0.134765625,0.778259277344,0.580444335938,42.5625,-225.75,-15.0,-10.94,-0.87,15.38
1542226492631095886,402,0,/imu_data_acquisition2,42992.0,-0.18115234375,0.126220703125,0.780700683594,0.584655761719,46.1875,-232.3125,-6.625,-10.87,-0.69,13.6
1542226492637798070,403,0,/imu_data_acquisition2,43002.0,-0.14599609375,0.108215332031,0.783569335938,0.594116210938,46.0625,-238.1875,-31.3125,-10.64,-0.94,12.41
1542226492649655103,404,0,/imu_data_acquisition2,43013.0,-0.128295898438,0.098876953125,0.783874511719,0.599426269531,46.5625,-237.0625,-40.25,-10.85,-1.13,12.07
1542226492658308982,405,0,/imu_data_acquisition2,43022.0,-0.128295898438,0.098876953125,0.783874511719,0.599426269531,51.3125,-230.625,-48.8125,-11.59,-1.1,12.52
1542226492680047035,406,0,/imu_data_acquisition2,43039.0,-0.09326171875,0.0818481445312,0.782043457031,0.610717773438,58.5625,-225.75,-54.375,-12.63,-0.24,13.07
1542226492688544988,407,0,/imu_data_acquisition2,43047.0,-0.0755004882812,0.0740356445312,0.7802734375,0.616394042969,64.3125,-224.75,-56.5,-12.28,0.02,12.07
1542226492690730094,408,0,/imu_data_acquisition2,43052.0,-0.0755004882812,0.0740356445312,0.7802734375,0.616394042969,67.25,-222.5,-55.3125,-11.9,-0.17,10.89
1542226492712973117,409,0,/imu_data_acquisition2,43069.0,-0.0401611328125,0.0595703125,0.776000976562,0.626586914062,69.875,-214.875,-52.0,-11.67,-0.43,7.97
1542226492745902061,412,0,/imu_data_acquisition2,43102.0,0.00665283203125,0.0450439453125,0.769226074219,0.637329101562,81.375,-166.5625,-34.8125,-14.44,-0.46,7.96
1542226492752237081,414,0,/imu_data_acquisition2,43116.0,0.0363159179688,0.03955078125,0.765747070312,0.640869140625,85.4375,-153.8125,-16.75,-14.14,-0.75,5.66
1542226492769342899,416,0,/imu_data_acquisition2,43132.0,0.04931640625,0.0366821289062,0.764465332031,0.641723632812,65.4375,-118.8125,-6.8125,-13.93,-2.54,1.22
1542226492783023118,417,0,/imu_data_acquisition2,43144.0,0.060546875,0.0344848632812,0.763366699219,0.642211914062,61.3125,-91.4375,-6.1875,-14.75,-2.49,0.87
1542226492793462991,418,0,/imu_data_acquisition2,43153.0,0.0697631835938,0.0335083007812,0.762329101562,0.642517089844,57.5,-15.875,-0.0625,-15.78,-2.56,-0.01
1542226492798305034,419,0,/imu_data_acquisition2,43162.0,-6.103515625e-05,-6.103515625e-05,-6.103515625e-05,0.642883300781,52.0625,-38.9375,-11.1875,-17.54,-1.62,-0.74
1542226492813767910,420,0,/imu_data_acquisition2,43177.0,0.08544921875,0.0371704101562,0.759338378906,0.643981933594,42.4375,-14.5625,-13.3125,-17.71,-0.12,-1.9
1542226492819993972,421,0,/imu_data_acquisition2,43182.0,0.08544921875,0.0371704101562,0.759338378906,0.643981933594,23.125,13.4375,-11.125,-17.45,1.77,-2.7
1542226492843270063,422,0,/imu_data_acquisition2,43195.0,0.0821533203125,0.0415649414062,0.759216308594,0.644348144531,-9.125,49.5625,0.625,-4.35,4.7,-0.73
1542226492853051900,424,0,/imu_data_acquisition2,43213.0,0.071044921875,0.0416259765625,0.761779785156,0.642639160156,-101.9375,105.1875,38.9375,6.13,-0.01,-0.01
1542226492858217000,425,0,/imu_data_acquisition2,43223.0,0.0588989257812,0.04052734375,0.764770507812,0.640319824219,-57.5,96.6875,66.0,2.97,-0.74,-2.0
1542226492869592905,426,0,/imu_data_acquisition2,43233.0,0.0497436523438,0.041748046875,0.768981933594,0.635925292969,-58.75,123.0,74.8125,0.93,-6.08,2.08
1542226492880430936,427,0,/imu_data_acquisition2,43243.0,0.0388793945312,0.044189453125,0.773681640625,0.630859375,-68.125,157.5625,58.25,-2.95,-8.9,11.63
1542226492888727903,428,0,/imu_data_acquisition2,43253.0,0.025146484375,0.0479736328125,0.777465820312,0.626586914062,-69.75,173.8125,38.3125,-0.83,-0.01,-0.01
1542226492905720949,429,0,/imu_data_acquisition2,43264.0,0.0101928710938,0.052490234375,0.780029296875,0.623413085938,-67.25,163.3125,7.9375,-2.94,-8.58,10.31
1542226492918241977,430,0,/imu_data_acquisition2,43272.0,-0.00408935546875,0.056640625,0.780822753906,0.622192382812,-67.25,163.3125,7.9375,-3.06,-2.13,10.61
1542226492920732021,431,0,/imu_data_acquisition2,43282.0,-0.017578125,0.0609130859375,0.779846191406,0.622741699219,-59.0,156.125,-21.125,-3.23,3.57,11.12
1542226492930958032,432,0,/imu_data_acquisition2,43294.0,-0.0421142578125,0.0716552734375,0.777404785156,0.623474121094,-36.125,153.0625,-13.375,-6.88,6.46,17.33
1542226492944365024,433,0,/imu_data_acquisition2,43308.0,-0.0421142578125,0.0716552734375,0.777404785156,0.623474121094,-42.1875,148.9375,1.4375,-9.37,3.54,18.23
1542226492950541973,434,0,/imu_data_acquisition2,43313.0,-0.00726318359375,-6.103515625e-05,-6.103515625e-05,0.622253417969,-5.375,-0.0625,-0.0625,-8.77,1.16,16.32
1542226492960032939,435,0,/imu_data_acquisition2,43322.0,-0.06591796875,0.0787963867188,0.777282714844,0.620727539062,-69.375,125.25,5.6875,-3.25,-0.82,10.72
1542226492975831985,436,0,/imu_data_acquisition2,43332.0,-0.0764770507812,0.0776977539062,0.777465820312,0.619384765625,-88.375,89.9375,2.875,-3.25,-0.82,10.72
1542226492978730916,437,0,/imu_data_acquisition2,43343.0,-0.0858764648438,0.0752563476562,-6.103515625e-05,0.618225097656,-95.375,61.125,-0.3125,-3.7,-2.88,11.45
1542226493004566907,439,0,/imu_data_acquisition2,43367.0,-0.110473632812,0.0648193359375,0.777709960938,0.615417480469,-91.625,40.375,-4.6875,-3.67,-0.5,10.56
1542226493015204906,440,0,/imu_data_acquisition2,43375.0,-0.117309570312,0.0604858398438,0.777587890625,0.61474609375,-91.0,32.1875,-5.625,-3.38,-0.46,10.1
1542226493030757904,441,0,/imu_data_acquisition2,43394.0,-0.123718261719,0.0560913085938,0.777465820312,0.614074707031,-82.75,24.5625,-4.5,-3.09,-1.66,10.62
1542226493038525104,442,0,/imu_data_acquisition2,43403.0,-0.129638671875,0.0518798828125,0.77734375,0.613403320312,-75.6875,22.875,-5.125,-3.07,-2.02,10.66
1542226493048927068,443,0,/imu_data_acquisition2,43412.0,-0.135070800781,0.0480346679688,0.777160644531,0.61279296875,-75.6875,22.875,-0.0625,-3.04,-1.89,10.05
1542226493056880950,444,0,/imu_data_acquisition2,43420.0,-0.0149536132812,-6.103515625e-05,-6.103515625e-05,0.612243652344,-66.5,21.8125,-5.4375,-3.04,-1.89,10.05
1542226493064621925,445,0,/imu_data_acquisition2,43429.0,-0.144348144531,0.0420532226562,0.776489257812,0.611938476562,-56.25,21.9375,-5.9375,-3.23,-1.77,10.28
1542226493069281101,446,0,/imu_data_acquisition2,43434.0,-0.144348144531,0.0420532226562,0.776489257812,0.611938476562,-45.75,20.125,-5.8125,-3.17,-1.5,10.01
1542226493080446004,447,0,/imu_data_acquisition2,43444.0,-0.148071289062,0.0400390625,0.776123046875,0.611633300781,-37.0625,17.5,-5.75,-3.18,-1.49,10.23
1542226493089365959,448,0,/imu_data_acquisition2,43453.0,-0.151123046875,0.0384521484375,0.775695800781,0.611511230469,-31.25,15.5,-6.3125,-3.12,-1.3,9.88
1542226493099054098,449,0,/imu_data_acquisition2,43464.0,-0.15380859375,0.037109375,0.775268554688,0.611450195312,-26.3125,13.375,-6.75,-3.2,-1.61,9.81
1542226493109077930,450,0,/imu_data_acquisition2,43472.0,-0.156066894531,0.0360107421875,0.774841308594,0.611511230469,-26.3125,13.375,-6.75,-3.2,-1.61,9.81
1542226493121561050,451,0,/imu_data_acquisition2,43486.0,-0.159912109375,0.0341796875,0.773986816406,0.611755371094,-21.0625,11.125,-6.25,-2.64,-1.06,9.62
1542226493142066001,453,0,/imu_data_acquisition2,43506.0,-0.161560058594,0.0335083007812,0.773620605469,0.61181640625,-15.6875,11.5625,-5.3125,-3.17,-1.14,9.17
1542226493149557113,454,0,/imu_data_acquisition2,43514.0,-0.163146972656,0.032958984375,0.773193359375,0.611938476562,-15.6875,11.5625,-5.3125,-3.27,-1.4,9.88
1542226493162460088,455,0,/imu_data_acquisition2,43526.0,-0.16455078125,0.0325927734375,0.772827148438,0.612060546875,-13.375,10.3125,-5.0,-3.18,-1.62,9.7
1542226493168025970,456,0,/imu_data_acquisition2,43532.0,-0.165649414062,0.0322265625,0.772521972656,0.612182617188,-11.1875,8.625,-4.5,-3.18,-1.62,9.7
1542226493183444023,457,0,/imu_data_acquisition2,43543.0,-0.166687011719,0.031982421875,0.772155761719,0.6123046875,-9.3125,8.125,-4.5,-2.97,-1.38,9.33
