%time,field.header.seq,field.header.stamp,field.header.frame_id,field.time_stamp,field.quat_x,field.quat_y,field.quat_z,field.quat_w,field.gyro_x,field.gyro_y,field.gyro_z,field.accel_x,field.accel_y,field.accel_z
1455211007519679069,1,0,/imu_data_acquisition2,51291.0,-0.469970703125,0.231567382812,0.737670898438,0.42578125,-112.375,407.75,101.125,-18.54,-5.67,39.79
1455211007528595924,2,0,/imu_data_acquisition2,51301.0,-0.497131347656,0.243103027344,0.726867675781,0.406799316406,-60.8125,160.625,95.3125,-6.72,-3.12,38.57
1455211007536845922,3,0,/imu_data_acquisition2,51309.0,-0.507019042969,0.248840332031,0.724548339844,0.39501953125,-60.8125,160.625,95.3125,-6.72,-3.12,38.57
1455211007546658992,4,0,/imu_data_acquisition2,51318.0,-0.506225585938,0.249145507812,0.728820800781,0.387878417969,-49.0,-10.0625,85.375,-0.69,-5.6,27.72
1455211007560919046,5,0,/imu_data_acquisition2,51332.0,-0.499816894531,0.247436523438,0.73583984375,0.384033203125,18.1875,-127.3125,64.1875,4.27,-5.53,6.37
1455211007570384025,6,0,/imu_data_acquisition2,51341.0,-0.489929199219,0.247131347656,0.742858886719,0.383483886719,62.6875,-137.25,55.0,3.89,-3.77,4.43
1455211007579848051,7,0,/imu_data_acquisition2,51352.0,-0.478088378906,0.248901367188,0.748962402344,0.385437011719,77.9375,-134.0,44.125,3.75,-2.35,3.97
1455211007588269948,8,0,/imu_data_acquisition2,51359.0,-0.466064453125,0.251220703125,0.754089355469,0.388549804688,77.9375,-134.0,44.125,3.75,-2.35,3.97
1455211007598803997,9,0,/imu_data_acquisition2,51370.0,-0.454956054688,0.252502441406,0.758850097656,0.391723632812,66.125,-129.0625,33.9375,2.62,-1.75,5.99
1455211007610297918,10,0,/imu_data_acquisition2,51381.0,-0.444519042969,0.251708984375,0.763793945312,0.39453125,15.1875,-143.9375,13.3125,1.57,-3.15,8.69
1455211007621125936,11,0,/imu_data_acquisition2,51391.0,-0.434448242188,0.248413085938,0.769226074219,0.397277832031,-3.125,-160.0625,-0.75,0.08,-5.19,11.38
1455211007629528999,12,0,/imu_data_acquisition2,51401.0,-0.424133300781,0.242736816406,0.775085449219,0.400512695312,-8.4375,-178.125,-17.6875,-0.67,-5.55,12.3
1455211007639079093,13,0,/imu_data_acquisition2,51409.0,-0.413024902344,0.235534667969,0.780944824219,0.405029296875,-8.4375,-178.125,-17.6875,-0.67,-5.55,12.3
1455211007649779081,14,0,/imu_data_acquisition2,51420.0,-0.400634765625,0.227172851562,0.78662109375,0.411193847656,-3.0,-199.75,-36.5625,-1.55,-5.17,12.78
1455211007660032033,15,0,/imu_data_acquisition2,51432.0,-0.386596679688,0.217956542969,0.7919921875,0.419189453125,9.8125,-0.0625,-0.0625,-4.06,-0.87,12.47
1455211007670993089,16,0,/imu_data_acquisition2,51442.0,-0.371032714844,0.207702636719,0.797302246094,0.428405761719,6.0625,-264.8125,-72.6875,-4.86,0.33,12.11
1455211007681276082,17,0,/imu_data_acquisition2,51451.0,-0.354125976562,0.196228027344,0.802612304688,0.438049316406,-1.3125,-281.3125,-72.375,-5.75,1.09,11.6
1455211007688831090,18,0,/imu_data_acquisition2,51461.0,-0.336242675781,0.183471679688,0.808166503906,0.447448730469,-1.3125,-281.3125,-72.375,-5.75,1.09,11.6
1455211007699687957,19,0,/imu_data_acquisition2,51470.0,-0.317504882812,0.169982910156,0.813781738281,0.456115722656,-7.875,-292.0625,-66.5625,-6.58,1.54,9.89
1455211007709495067,20,0,/imu_data_acquisition2,51481.0,-0.29833984375,0.156127929688,0.819396972656,0.4638671875,-16.6875,-295.0625,-48.875,-7.26,1.3,9.49
1455211007720113992,21,0,/imu_data_acquisition2,51492.0,-0.279113769531,0.14208984375,0.824890136719,0.470581054688,-23.375,-290.6875,-42.4375,-7.54,0.03,-0.01
1455211007731175899,22,0,/imu_data_acquisition2,51502.0,-0.260192871094,0.127868652344,0.830078125,0.476318359375,-23.375,-290.6875,-42.4375,-7.59,-0.87,10.5
1455211007738667964,23,0,/imu_data_acquisition2,51510.0,-0.241760253906,0.113525390625,0.834838867188,0.481323242188,-29.3125,-284.5625,-38.5,-7.59,-0.87,10.5
1455211007749670982,24,0,/imu_data_acquisition2,51521.0,-0.223754882812,0.0992431640625,0.839050292969,0.485900878906,-30.875,-277.4375,-37.6875,-7.64,-1.85,10.96
1455211007760899066,25,0,/imu_data_acquisition2,51532.0,-0.2060546875,0.08544921875,0.842468261719,0.490356445312,-27.1875,-269.75,-40.25,-7.72,-3.75,12.5
1455211007769679069,26,0,/imu_data_acquisition2,51541.0,-0.188354492188,0.0726318359375,0.845092773438,0.494995117188,-16.5625,-6.5625,-0.0625,-7.46,-3.45,12.41
1455211007780272006,27,0,/imu_data_acquisition2,51552.0,-0.170288085938,0.0609130859375,0.846923828125,0.499938964844,9.25,-253.0,-52.625,-6.96,-2.6,12.13
1455211007788676977,28,0,/imu_data_acquisition2,51559.0,-0.152038574219,0.0501098632812,0.84814453125,0.505065917969,9.25,-13.0,-0.0625,-6.96,-2.6,12.13
1455211007799356937,29,0,/imu_data_acquisition2,51570.0,-0.134094238281,0.0396118164062,0.848754882812,0.509948730469,10.125,-247.3125,-53.3125,-6.74,-2.1,12.41
1455211007813172101,30,0,/imu_data_acquisition2,51585.0,-0.116882324219,0.0288696289062,0.849060058594,0.514404296875,-5.4375,-234.25,-50.375,-6.64,-2.49,13.2
1455211007824068069,31,0,/imu_data_acquisition2,51592.0,-0.100402832031,0.017822265625,0.848999023438,0.518432617188,-5.4375,-234.25,-50.375,-6.54,-2.23,13.32
1455211007831175088,32,0,/imu_data_acquisition2,51602.0,-0.0846557617188,0.00640869140625,0.8486328125,0.522094726562,-13.375,-228.75,-49.1875,-6.47,-1.87,12.63
1455211007845459938,33,0,/imu_data_acquisition2,51616.0,-0.0695190429688,-0.00537109375,0.847900390625,0.525512695312,-28.5625,-216.5,-49.0,-1.27,-0.01,-0.01
1455211007848398923,34,0,/imu_data_acquisition2,51619.0,-0.0552978515625,-0.0172729492188,0.846862792969,0.528625488281,-28.5625,-216.5,-49.0,-6.39,-1.61,12.02
1455211007860078096,35,0,/imu_data_acquisition2,51631.0,-0.0421142578125,-0.0291137695312,0.845520019531,0.531494140625,-34.5,-204.625,-47.0625,-7.4,-0.85,13.61
1455211007871427059,36,0,/imu_data_acquisition2,51643.0,-0.0301513671875,-0.0406494140625,0.844055175781,0.533874511719,-39.5,-190.3125,-43.3125,-7.76,-1.24,14.13
1455211007879816055,37,0,/imu_data_acquisition2,51652.0,-0.0192260742188,-0.052001953125,0.842468261719,0.535888671875,-44.25,-179.25,-39.0,-8.29,-1.71,12.28
1455211007891067028,38,0,/imu_data_acquisition2,51663.0,-0.0091552734375,-0.0626831054688,0.841003417969,0.537353515625,-43.25,-167.0,-32.5625,-9.86,-1.03,16.17
1455211007899677991,39,0,/imu_data_acquisition2,51670.0,0.0003662109375,-0.0717163085938,0.839721679688,0.538208007812,-30.5,-151.875,-24.9375,-9.86,-1.03,-0.01
1455211007913258075,40,0,/imu_data_acquisition2,51682.0,0.010498046875,-0.080322265625,0.838684082031,0.538513183594,-21.5,-155.125,-18.125,-10.96,-0.33,16.92
1455211007921463012,41,0,/imu_data_acquisition2,51693.0,0.0213012695312,-0.0897827148438,0.837768554688,0.538208007812,-34.875,-181.3125,-5.4375,-10.62,-1.21,12.52
1455211007932266950,42,0,/imu_data_acquisition2,51702.0,0.0325927734375,-0.100463867188,0.836853027344,0.537170410156,-34.875,-181.3125,-5.4375,-10.17,-1.42,8.98
1455211007938107013,43,0,/imu_data_acquisition2,51710.0,0.0443725585938,-0.111694335938,0.835815429688,0.535705566406,-36.9375,-190.625,-1.125,-2.49,-0.01,-0.01
1455211007948623895,44,0,/imu_data_acquisition2,51720.0,0.0562133789062,-0.122497558594,0.834716796875,0.533935546875,-32.4375,-188.9375,0.1875,-9.79,-1.83,5.65
1455211007960905075,45,0,/imu_data_acquisition2,51731.0,0.0671997070312,-0.131896972656,0.83349609375,0.532348632812,-23.9375,-171.0,-1.1875,-9.37,-2.59,2.1
1455211007969856023,46,0,/imu_data_acquisition2,51742.0,0.0767822265625,-0.139282226562,0.832275390625,0.531066894531,-13.5,-143.875,-4.625,-10.46,-2.95,2.81
1455211007983076095,47,0,/imu_data_acquisition2,51753.0,0.0846557617188,-0.144653320312,0.830993652344,0.530456542969,-4.875,-113.25,-9.8125,-11.01,-3.23,2.83
1455211007989845991,48,0,/imu_data_acquisition2,51760.0,0.0908813476562,-0.148254394531,0.829711914062,0.530456542969,1.625,-5.3125,-0.0625,-11.01,-3.23,2.83
1455211007998792886,49,0,/imu_data_acquisition2,51771.0,0.0956420898438,-0.150085449219,0.828491210938,0.531005859375,9.1875,-59.0,-19.75,-11.76,-3.13,1.69
1455211008012803077,50,0,/imu_data_acquisition2,51782.0,0.09912109375,-0.150207519531,0.827331542969,0.532165527344,16.875,-33.8125,-24.3125,-11.86,-3.13,0.79
1455211008023011922,51,0,/imu_data_acquisition2,51792.0,0.100952148438,-0.148315429688,0.826293945312,0.533874511719,26.25,-3.9375,-29.0,-9.87,-3.5,-6.47
1455211008030216932,52,0,/imu_data_acquisition2,51802.0,0.101013183594,-0.143615722656,0.825561523438,0.536254882812,42.5625,32.0625,-33.4375,-14.23,-2.57,-2.16
1455211008039568901,53,0,/imu_data_acquisition2,51811.0,0.0980224609375,-0.133483886719,0.825561523438,0.539489746094,75.625,99.25,-38.375,-14.23,-2.57,-2.16
1455211008050446987,54,0,/imu_data_acquisition2,51819.0,0.0921020507812,-0.118103027344,0.826354980469,0.542907714844,110.1875,162.0625,-36.875,-17.16,-0.4,-3.3
1455211008058901071,55,0,/imu_data_acquisition2,51830.0,0.0851440429688,-0.10009765625,0.827331542969,0.546142578125,129.4375,189.8125,-35.6875,3.03,7.32,9.75
1455211008071244001,56,0,/imu_data_acquisition2,51843.0,0.0775756835938,-0.0846557617188,0.82763671875,0.549377441406,99.1875,177.8125,-36.4375,2.6,5.25,20.47
1455211008081909894,57,0,/imu_data_acquisition2,51852.0,0.0663452148438,-0.0736694335938,0.826721191406,0.553833007812,29.5,185.625,-48.375,1.76,11.21,2.12
1455211008088881969,58,0,/imu_data_acquisition2,51860.0,0.0531616210938,-0.0654907226562,0.825134277344,0.55859375,-11.0,185.375,-51.3125,1.76,11.21,2.12
1455211008099383115,59,0,/imu_data_acquisition2,51871.0,0.0380859375,-0.0576171875,0.82421875,0.56201171875,-25.75,201.125,-33.0625,-0.66,11.39,1.42
1455211008107819080,60,0,/imu_data_acquisition2,51880.0,0.020751953125,-0.0504150390625,0.824340820312,0.5634765625,-45.5,218.5,-4.75,-3.89,11.03,11.07
1455211008120537042,61,0,/imu_data_acquisition2,51893.0,0.001953125,-0.0438842773438,0.825500488281,0.562744140625,-61.4375,226.9375,24.5,-3.86,-8.59,18.52
1455211008133563995,62,0,/imu_data_acquisition2,51903.0,-0.01611328125,-0.039794921875,0.826965332031,0.560607910156,-79.3125,202.5,39.8125,-1.57,-17.87,16.36
1455211008140486001,63,0,/imu_data_acquisition2,51911.0,-0.0311889648438,-0.0374145507812,0.828125,0.558410644531,-76.4375,162.625,37.0,-1.57,-17.87,16.36
1455211008148186922,64,0,/imu_data_acquisition2,51920.0,-0.04345703125,-0.03271484375,0.828308105469,0.5576171875,-35.3125,150.3125,16.1875,-5.96,-22.83,20.99
1455211008160775899,65,0,/imu_data_acquisition2,51932.0,-0.0505981445312,-0.0247802734375,0.82763671875,0.558471679688,30.75,122.9375,-6.3125,-2.7,5.71,13.24
1455211008172168016,66,0,/imu_data_acquisition2,51943.0,-0.0526733398438,-0.0166625976562,0.827026367188,0.559387207031,66.375,75.0625,-7.375,-4.5,5.45,17.84
1455211008180883884,67,0,/imu_data_acquisition2,51952.0,-0.00775146484375,-6.103515625e-05,-6.103515625e-05,0.559814453125,36.5,52.25,-2.375,-4.5,5.45,17.84
1455211008188499927,68,0,/imu_data_acquisition2,51959.0,-0.0568237304688,-0.010986328125,0.826538085938,0.559875488281,-8.625,26.0625,-1.4375,-0.97,-5.71,10.22
1455211008198944091,69,0,/imu_data_acquisition2,51970.0,-0.0582275390625,-0.0112915039062,0.826416015625,0.559875488281,-11.6875,11.8125,-0.8125,-0.79,-1.75,11.31
1455211008210849046,70,0,/imu_data_acquisition2,51983.0,-0.0589599609375,-0.0103759765625,0.826599121094,0.559631347656,3.5625,13.4375,4.1875,-1.29,-0.53,11.67
1455211008221638917,71,0,/imu_data_acquisition2,51993.0,-0.059814453125,-0.0096435546875,0.826843261719,0.559143066406,1.3125,12.25,7.1875,-1.29,-0.53,11.67
1455211008232670068,72,0,/imu_data_acquisition2,52003.0,-0.060546875,-0.0093994140625,0.8271484375,0.558654785156,-3.125,8.8125,7.0625,-0.88,-0.86,10.58
1455211008241270065,73,0,/imu_data_acquisition2,52013.0,-0.0610961914062,-0.00909423828125,0.827392578125,0.558166503906,-0.8125,7.125,6.6875,-0.62,-0.37,10.99
1455211008249332904,74,0,/imu_data_acquisition2,52020.0,-0.0617065429688,-0.0086669921875,0.827758789062,0.557678222656,0.25,8.125,7.5,-0.62,-0.37,10.99
1455211008257818937,75,0,/imu_data_acquisition2,52029.0,-0.062255859375,-0.00836181640625,0.828002929688,0.557189941406,-1.0,7.6875,6.9375,-1.03,-1.04,10.87
1455211008272985935,76,0,/imu_data_acquisition2,52043.0,-0.0628662109375,-0.0081787109375,0.828247070312,0.556823730469,-2.75,6.8125,5.0,-0.77,-0.78,10.65
1455211008283814907,77,0,/imu_data_acquisition2,52053.0,-0.063232421875,-0.0081787109375,0.828308105469,0.556640625,-2.1875,3.8125,2.125,-0.77,-0.78,10.65
1455211008289007902,78,0,/imu_data_acquisition2,52060.0,-0.0635375976562,-0.00823974609375,0.828308105469,0.556579589844,-2.875,2.3125,0.875,-0.89,-0.47,10.11
1455211008299004077,79,0,/imu_data_acquisition2,52069.0,-0.0639038085938,-0.00830078125,0.828369140625,0.556457519531,-2.6875,3.25,1.1875,-0.62,-0.64,10.46
1455211008308572053,80,0,/imu_data_acquisition2,52080.0,-0.064208984375,-0.0084228515625,0.828369140625,0.556457519531,-3.1875,2.4375,0.3125,-0.86,-0.85,9.46
1455211008323659896,81,0,/imu_data_acquisition2,52093.0,-0.0646362304688,-0.00848388671875,0.828308105469,0.556457519531,-3.6875,3.4375,-0.25,-0.57,-0.69,9.27
1455211008334085941,82,0,/imu_data_acquisition2,52103.0,-0.06494140625,-0.00860595703125,0.828247070312,0.556518554688,-3.1875,2.125,-0.9375,-1.21,-1.26,10.41
1455211008339904069,83,0,/imu_data_acquisition2,52110.0,-6.103515625e-05,-6.103515625e-05,-6.103515625e-05,0.556457519531,-3.75,3.375,0.5,-0.89,-1.2,9.95
1455211008347651958,84,0,/imu_data_acquisition2,52119.0,-0.065673828125,-0.00885009765625,0.828247070312,0.556457519531,-3.3125,2.375,0.0,-0.89,-1.03,10.02
1455211008360965967,85,0,/imu_data_acquisition2,52132.0,-0.0659790039062,-0.0089111328125,0.828247070312,0.556457519531,-2.5625,1.9375,0.4375,-0.79,-1.23,-0.01
1455211008372358083,86,0,/imu_data_acquisition2,52143.0,-0.066162109375,-0.00897216796875,0.828186035156,0.556457519531,-1.6875,1.4375,0.3125,-0.75,-1.13,9.61
1455211008378947019,87,0,/imu_data_acquisition2,52150.0,-0.0662231445312,-0.00909423828125,0.828002929688,0.556701660156,-1.5,0.4375,-3.875,-0.75,-1.13,9.61
1455211008389565944,88,0,/imu_data_acquisition2,52160.0,-0.0662841796875,-0.00927734375,0.827880859375,0.556884765625,-0.5625,0.5,-2.25,-1.01,-1.17,9.71
1455211008401650905,89,0,/imu_data_acquisition2,52173.0,-0.06640625,-0.00927734375,0.827941894531,0.556823730469,0.3125,1.25,0.9375,-1.01,-1.01,9.97
1455211008411923885,90,0,/imu_data_acquisition2,52182.0,-0.0664672851562,-0.0091552734375,0.828002929688,0.556701660156,0.625,1.3125,1.125,-0.91,-0.82,9.76
1455211008422739982,91,0,/imu_data_acquisition2,52193.0,-0.0665283203125,-0.009033203125,0.828063964844,0.556640625,0.625,1.25,1.5625,-1.13,-0.77,9.38
1455211008431880950,92,0,/imu_data_acquisition2,52204.0,-0.0667114257812,-0.0089111328125,0.828125,0.556457519531,0.4375,2.375,2.0625,-0.94,-0.98,9.36
1455211008438735008,93,0,/imu_data_acquisition2,52209.0,-0.06689453125,-0.0087890625,0.828247070312,0.556335449219,0.4375,3.0625,2.3125,-0.94,-0.98,9.36
1455211008448679924,94,0,/imu_data_acquisition2,52220.0,-0.0671997070312,-0.008544921875,0.828369140625,0.556091308594,0.3125,4.0,3.0,-1.07,-0.89,9.66
1455211008460453033,95,0,/imu_data_acquisition2,52231.0,-0.0675048828125,-0.00830078125,0.828491210938,0.555847167969,0.625,4.625,3.375,-1.06,-0.97,10.1
1455211008471688985,96,0,/imu_data_acquisition2,52239.0,-0.0678100585938,-0.00799560546875,0.82861328125,0.5556640625,0.875,4.9375,3.375,-0.88,-0.99,9.77
1455211008481342077,97,0,/imu_data_acquisition2,52252.0,-0.0681762695312,-0.00775146484375,0.828735351562,0.555419921875,0.5625,5.3125,3.25,-0.97,-1.02,9.75
1455211008489993095,98,0,/imu_data_acquisition2,52261.0,-0.0685424804688,-0.0074462890625,0.828857421875,0.55517578125,0.9375,5.5625,3.1875,-1.11,-1.0,9.89
1455211008500351905,99,0,/imu_data_acquisition2,52269.0,-6.103515625e-05,-6.103515625e-05,-6.103515625e-05,0.554992675781,1.25,6.1875,3.0625,-1.06,-0.89,9.84
1455211008508969068,100,0,/imu_data_acquisition2,52281.0,-0.0693969726562,-0.00665283203125,0.8291015625,0.554809570312,1.125,6.5,3.25,-0.99,-1.11,9.85
1455211008603121995,101,0,/imu_data_acquisition2,52290.0,-0.06982421875,-0.00628662109375,0.829162597656,0.554565429688,1.3125,6.6875,3.4375,-1.16,-1.1,9.63
1455211008605910062,102,0,/imu_data_acquisition2,52302.0,-0.0703735351562,-0.005859375,0.829345703125,0.554260253906,1.5625,8.0,4.0625,-1.01,-1.08,9.78
1455211008608561038,103,0,/imu_data_acquisition2,52310.0,-0.0708618164062,-0.0052490234375,0.829528808594,0.553955078125,2.0625,8.625,4.875,-0.83,-1.03,9.32
1455211008610080003,104,0,/imu_data_acquisition2,52319.0,-0.0714111328125,-0.00457763671875,0.829711914062,0.553588867188,2.5,-0.0625,-0.0625,-1.13,-1.07,10.0
1455211008611623048,105,0,/imu_data_acquisition2,52331.0,-0.0720825195312,-0.00384521484375,0.829956054688,0.553100585938,2.9375,11.0625,6.8125,-1.22,-0.96,9.62
1455211008612710952,106,0,/imu_data_acquisition2,52341.0,-0.07275390625,-0.0030517578125,0.830261230469,0.552612304688,3.1875,11.25,6.875,-1.16,-0.89,10.06
1455211008614280939,107,0,/imu_data_acquisition2,52348.0,-0.0733642578125,-0.0023193359375,0.830505371094,0.552185058594,3.0625,-0.0625,-0.0625,-1.43,-0.91,9.64
1455211008618454933,108,0,/imu_data_acquisition2,52359.0,-0.0739135742188,-0.0015869140625,0.830749511719,0.5517578125,2.75,10.125,6.375,-1.13,-0.96,-0.01
1455211008620454072,109,0,/imu_data_acquisition2,52368.0,-0.074462890625,-0.0009765625,0.830932617188,0.551330566406,2.375,8.8125,5.9375,-1.37,-0.92,10.11
1455211008621396064,110,0,/imu_data_acquisition2,52382.0,-0.074951171875,-0.0003662109375,0.831176757812,0.550964355469,2.1875,8.5,5.8125,-1.29,-0.98,10.06
1455211008623516082,111,0,/imu_data_acquisition2,52389.0,-0.0753784179688,0.0001220703125,0.831359863281,0.550598144531,2.1875,6.8125,4.9375,-1.56,-0.87,10.03
1455211008626796007,112,0,/imu_data_acquisition2,52399.0,-0.07568359375,0.0006103515625,0.831481933594,0.550354003906,2.25,6.25,3.8125,-1.36,-0.97,10.25
1455211008639373064,113,0,/imu_data_acquisition2,52410.0,-0.0759887695312,0.00103759765625,0.83154296875,0.550231933594,2.0625,5.625,2.3125,-1.12,-0.79,9.88
1455211008647154092,114,0,/imu_data_acquisition2,52419.0,-0.0762939453125,0.00140380859375,0.831604003906,0.550109863281,1.875,5.375,1.3125,-0.88,-1.13,9.83
1455211008658629894,115,0,/imu_data_acquisition2,52430.0,-0.07666015625,0.00189208984375,0.831604003906,0.550048828125,2.1875,6.25,1.1875,-1.13,-1.14,9.64
1455211008674758911,116,0,/imu_data_acquisition2,52445.0,-0.0771484375,0.00244140625,0.831604003906,0.549987792969,2.5,8.5,1.4375,-0.67,-0.97,9.9
1455211008681664943,117,0,/imu_data_acquisition2,52454.0,-0.0777587890625,0.003173828125,0.831665039062,0.549865722656,3.125,11.125,2.125,-0.67,-0.97,9.9
1455211008689529895,118,0,/imu_data_acquisition2,52460.0,-0.0785522460938,0.0040283203125,0.831665039062,0.549682617188,3.25,13.125,2.0625,-1.23,-0.87,9.84
1455211008702735900,119,0,/imu_data_acquisition2,52474.0,-0.079833984375,0.00518798828125,0.831481933594,0.549743652344,2.5625,19.8125,-0.25,-0.44,-0.88,9.94
1455211008709309101,120,0,/imu_data_acquisition2,52481.0,-0.0811157226562,0.00628662109375,0.831359863281,0.549743652344,2.5625,19.8125,-0.25,-0.95,-0.72,9.97
1455211008718880891,121,0,/imu_data_acquisition2,52490.0,-0.082763671875,0.00762939453125,0.8310546875,0.549926757812,3.0625,25.6875,-2.75,-0.82,-0.78,-0.01
1455211008731806039,122,0,/imu_data_acquisition2,52503.0,-0.084716796875,0.00933837890625,0.830627441406,0.55029296875,4.0625,30.375,-4.9375,-1.04,-0.93,9.88
1455211008739902019,123,0,/imu_data_acquisition2,52511.0,-0.0869140625,0.0112915039062,0.830017089844,0.550842285156,5.375,35.25,-7.625,-1.85,-0.83,9.82
1455211008748864889,124,0,/imu_data_acquisition2,52519.0,-0.0892333984375,0.0137329101562,0.829040527344,0.551879882812,9.75,39.625,-14.1875,-1.48,-0.69,9.19
1455211008761794090,125,0,/imu_data_acquisition2,52530.0,-0.0134887695312,-6.103515625e-05,-6.103515625e-05,0.552856445312,9.75,39.625,-14.1875,-1.23,-0.85,9.67
1455211008771490097,126,0,/imu_data_acquisition2,52541.0,-0.09375,0.018798828125,0.826965332031,0.554016113281,13.75,39.1875,-15.875,-1.1,-0.59,9.49
1455211008781308889,127,0,/imu_data_acquisition2,52549.0,-0.0972290039062,0.0209350585938,0.825500488281,0.555603027344,0.375,49.375,-23.4375,-3.04,-1.3,9.92
1455211008789330005,128,0,/imu_data_acquisition2,52560.0,-0.100952148438,0.022705078125,0.823913574219,0.55712890625,-5.625,49.75,-24.3125,-1.54,-0.94,-0.01
1455211008800216913,129,0,/imu_data_acquisition2,52570.0,-0.104614257812,0.02392578125,0.822387695312,0.558654785156,-9.875,45.1875,-24.625,-2.46,-1.83,10.36
1455211008807564020,130,0,/imu_data_acquisition2,52579.0,-0.109191894531,0.025390625,0.820739746094,0.560241699219,-13.125,56.125,-25.6875,0.57,-0.9,9.07
1455211008818351984,131,0,/imu_data_acquisition2,52590.0,-0.11669921875,0.0289306640625,0.819213867188,0.560729980469,-14.0,97.6875,-12.0625,3.68,-0.81,8.85
1455211008828306913,132,0,/imu_data_acquisition2,52599.0,-0.130554199219,0.0361938476562,0.818725585938,0.557922363281,-25.6875,184.25,28.75,0.29,-1.42,9.29
1455211008837528944,133,0,/imu_data_acquisition2,52609.0,-0.148803710938,0.0452270507812,0.819091796875,0.552185058594,-41.875,239.0625,64.6875,1.32,-0.37,8.19
1455211008849167108,134,0,/imu_data_acquisition2,52620.0,-0.169860839844,0.05615234375,0.818359375,0.546142578125,-41.625,280.0625,61.0625,-2.62,-1.91,10.53
1455211008858403921,135,0,/imu_data_acquisition2,52629.0,-0.19189453125,0.0694580078125,0.817016601562,0.539245605469,-26.5,306.6875,70.75,-0.28,-0.94,11.32
1455211008867619991,136,0,/imu_data_acquisition2,52639.0,-0.217102050781,0.084716796875,0.814758300781,0.530944824219,-30.4375,353.5625,79.75,1.58,0.39,12.25
1455211008878551006,137,0,/imu_data_acquisition2,52650.0,-0.247802734375,0.102416992188,0.809448242188,0.522399902344,-39.0625,430.0625,64.0,-6.04,-1.55,13.49
1455211008888067960,138,0,/imu_data_acquisition2,52659.0,-0.282348632812,0.122497558594,0.800903320312,0.513671875,-36.125,490.8125,47.75,-5.29,-2.27,17.65
1455211008898159980,139,0,/imu_data_acquisition2,52670.0,-0.315490722656,0.141174316406,0.791015625,0.504821777344,-39.8125,473.9375,37.625,-4.78,-0.89,19.6
1455211008909425020,140,0,/imu_data_acquisition2,52681.0,-0.348083496094,0.157470703125,0.780395507812,0.494934082031,-61.8125,459.25,35.75,-2.73,-0.23,13.13
1455211008925026893,141,0,/imu_data_acquisition2,52693.0,-0.381408691406,0.17333984375,0.768981933594,0.482849121094,-77.0625,471.1875,48.0625,-0.82,0.2,12.08
1455211008928689956,142,0,/imu_data_acquisition2,52701.0,-0.416076660156,0.189331054688,0.755920410156,0.468688964844,-89.1875,495.3125,55.3125,2.58,1.1,10.36
1455211008939686059,143,0,/imu_data_acquisition2,52710.0,-0.454528808594,0.205749511719,0.739929199219,0.451171875,-117.625,553.8125,62.3125,1.46,2.24,8.0
1455211008951335906,144,0,/imu_data_acquisition2,52720.0,-0.494384765625,0.221435546875,0.72216796875,0.43017578125,-145.3125,580.125,76.8125,-24.6,-9.71,33.01
1455211008958095073,145,0,/imu_data_acquisition2,52730.0,-0.516418457031,0.233276367188,0.711669921875,0.415161132812,-71.1875,349.8125,86.375,-17.91,-8.26,39.81
1455211008969643115,146,0,/imu_data_acquisition2,52740.0,-0.521911621094,0.23974609375,0.709716796875,0.407958984375,-11.0625,109.9375,76.0,-9.54,-4.25,39.71
1455211008979032993,147,0,/imu_data_acquisition2,52750.0,-0.518737792969,0.241088867188,0.71337890625,0.404724121094,-4.0,-33.5625,61.375,1.24,-5.14,26.31
1455211008987982034,148,0,/imu_data_acquisition2,52759.0,-0.511169433594,0.240356445312,0.719299316406,0.404357910156,11.0625,-102.5625,48.6875,3.42,-0.01,-0.01
1455211009000818967,149,0,/imu_data_acquisition2,52772.0,-0.500427246094,0.239990234375,0.725708007812,0.406616210938,43.8125,-138.5,40.0,4.39,-5.19,10.78
1455211009009829044,150,0,/imu_data_acquisition2,52779.0,-0.488403320312,0.240356445312,0.731689453125,0.410278320312,65.375,-147.375,33.5625,4.24,-2.55,4.85
1455211009019078016,151,0,/imu_data_acquisition2,52790.0,-0.4765625,0.240539550781,0.737182617188,0.414306640625,67.1875,-0.0625,-0.0625,4.12,-2.05,4.27
1455211009030463933,152,0,/imu_data_acquisition2,52801.0,-0.465148925781,0.240112304688,0.742370605469,0.418151855469,59.3125,-141.75,21.5,3.47,-2.15,5.41
1455211009040040016,153,0,/imu_data_acquisition2,52809.0,-0.453857421875,0.238464355469,0.747680664062,0.422058105469,47.25,-147.9375,15.3125,2.37,-2.39,-0.01
1455211009048958063,154,0,/imu_data_acquisition2,52820.0,-0.442138671875,0.234985351562,0.753479003906,0.426086425781,33.4375,-163.5625,7.3125,0.93,-2.44,9.68
1455211009060621976,155,0,/imu_data_acquisition2,52831.0,-0.4296875,0.229675292969,0.759826660156,0.430480957031,20.375,-182.9375,-0.4375,0.23,-2.54,10.77
1455211009067775011,156,0,/imu_data_acquisition2,52839.0,-0.416320800781,0.222534179688,0.7666015625,0.435241699219,9.6875,-204.4375,-7.875,-0.95,-2.84,12.02
1455211009078876972,157,0,/imu_data_acquisition2,52851.0,-0.401489257812,0.213745117188,0.773864746094,0.440734863281,4.1875,-230.25,-16.9375,-2.72,-3.2,12.49
1455211009090240955,158,0,/imu_data_acquisition2,52861.0,-0.385131835938,0.20361328125,0.781311035156,0.446960449219,3.25,-253.75,-25.125,-3.26,-2.83,11.89
1455211009098905086,159,0,/imu_data_acquisition2,52869.0,-0.367553710938,0.192443847656,0.788696289062,0.453674316406,3.1875,-271.875,-31.5,-3.61,-2.37,10.99
1455211009109410047,160,0,/imu_data_acquisition2,52881.0,-0.349060058594,0.180603027344,0.795837402344,0.460571289062,2.0625,-283.5,-35.6875,-4.41,-1.67,10.14
1455211009122010946,161,0,/imu_data_acquisition2,52893.0,-0.330017089844,0.168212890625,0.802673339844,0.467468261719,1.125,-289.5625,-37.625,-5.28,-1.45,10.39
1455211009129801034,162,0,/imu_data_acquisition2,52900.0,-0.310424804688,0.155456542969,0.809143066406,0.474060058594,0.375,-0.0625,-0.0625,-5.84,-1.1,10.64
1455211009138761997,163,0,/imu_data_acquisition2,52910.0,-0.290405273438,0.142395019531,0.815307617188,0.480285644531,-0.9375,-299.4375,-36.25,-6.72,-0.38,11.15
1455211009149260044,164,0,/imu_data_acquisition2,52920.0,-0.270080566406,0.129089355469,0.821166992188,0.485900878906,-4.0,-301.8125,-32.375,-7.16,-0.12,11.48
1455211009160784959,165,0,/imu_data_acquisition2,52929.0,-0.249633789062,0.115356445312,0.826782226562,0.49072265625,-8.875,-303.0625,-27.1875,-7.6,-0.26,11.78
1455211009169334888,166,0,/imu_data_acquisition2,52940.0,-0.229187011719,0.101318359375,0.832092285156,0.494873046875,-13.4375,-303.375,-23.375,-7.92,-0.67,11.84
1455211009179737091,167,0,/imu_data_acquisition2,52951.0,-0.208740234375,0.0872192382812,0.836853027344,0.498474121094,-15.0,-301.0,-21.0,-7.84,-2.05,12.08
1455211009186923980,168,0,/imu_data_acquisition2,52959.0,-0.188415527344,0.0734252929688,0.841064453125,0.501708984375,-12.875,-296.4375,-20.8125,-7.83,-2.95,12.35
1455211009200422048,169,0,/imu_data_acquisition2,52972.0,-0.168151855469,0.0601806640625,0.844482421875,0.504943847656,-7.125,-291.1875,-23.875,-7.7,-3.86,12.42
1455211009210498094,170,0,/imu_data_acquisition2,52980.0,-0.14794921875,0.047607421875,0.846984863281,0.508361816406,-0.3125,-285.0,-29.875,-6.69,-4.33,11.94
1455211009222774982,171,0,/imu_data_acquisition2,52994.0,-0.128234863281,0.0354614257812,0.8486328125,0.511962890625,2.0625,-275.875,-36.1875,-6.49,-4.21,12.35
1455211009231673955,172,0,/imu_data_acquisition2,53003.0,-0.109252929688,0.0232543945312,0.849487304688,0.515625,-2.4375,-266.875,-41.75,-6.46,-3.91,13.16
1455211009240485906,173,0,/imu_data_acquisition2,53010.0,-0.0911865234375,0.0105590820312,0.849670410156,0.519226074219,-12.625,-260.5,-47.0,-6.5,-2.27,14.09
1455211009249536991,174,0,/imu_data_acquisition2,53020.0,-0.0740966796875,-0.00286865234375,0.849243164062,0.522766113281,-25.9375,-254.8125,-50.0,-6.6,-1.37,13.8
1455211009262192010,175,0,/imu_data_acquisition2,53034.0,-0.0581665039062,-0.0167236328125,0.848510742188,0.525756835938,-38.6875,-245.3125,-15.625,-6.84,-0.81,13.79
1455211009272720098,176,0,/imu_data_acquisition2,53039.0,-0.0435791015625,-0.0306396484375,0.847534179688,0.528076171875,-47.375,-232.0625,-41.625,-7.46,-0.57,14.37
1455211009278074026,177,0,/imu_data_acquisition2,53050.0,-0.0300903320312,-0.0442504882812,0.846618652344,0.529541015625,-51.5625,-219.4375,-32.625,-9.39,-1.29,17.06
1455211009290548086,178,0,/imu_data_acquisition2,53061.0,-0.0172119140625,-0.0574951171875,0.845764160156,0.530151367188,-52.0625,-211.4375,-22.75,-10.78,-2.02,19.25
1455211009298080921,179,0,/imu_data_acquisition2,53069.0,-0.00445556640625,-0.0704956054688,0.845031738281,0.530029296875,-50.9375,-209.5,-14.75,-12.66,-3.64,20.34
1455211009308806896,180,0,/imu_data_acquisition2,53081.0,0.0087890625,-0.0825805664062,0.84423828125,0.529541015625,-38.375,-208.5,-11.5,-15.12,-4.29,20.45
1455211009321090936,181,0,/imu_data_acquisition2,53090.0,0.0237426757812,-0.0947265625,0.843139648438,0.52880859375,-28.4375,-226.4375,-13.125,-15.69,-3.55,18.51
1455211009328669071,182,0,/imu_data_acquisition2,53099.0,0.0398559570312,-0.013916015625,-6.103515625e-05,0.527954101562,-29.8125,-243.25,-16.5,-15.26,-2.33,14.61
1455211009338244915,183,0,/imu_data_acquisition2,53110.0,0.055419921875,-0.121032714844,0.83935546875,0.527038574219,-38.1875,-240.75,-17.5625,-13.19,-1.53,5.96
1455211009350017070,184,0,/imu_data_acquisition2,53120.0,0.0693969726562,-0.133911132812,0.8369140625,0.526123046875,-44.1875,-222.3125,-17.8125,-12.14,-1.37,2.93
1455211009360177993,185,0,/imu_data_acquisition2,53129.0,0.0809326171875,-0.145568847656,0.834289550781,0.525573730469,-47.1875,-190.125,-19.1875,-11.41,-1.93,0.89
1455211009368865966,186,0,/imu_data_acquisition2,53140.0,0.0897827148438,-0.155029296875,0.83154296875,0.525695800781,-43.375,-148.5,-24.625,-11.92,-3.49,1.49
1455211009379898071,187,0,/imu_data_acquisition2,53150.0,0.0966796875,-0.005615234375,-6.103515625e-05,0.526794433594,-30.5,-111.25,-33.4375,-12.89,-3.8,2.76
1455211009389261007,188,0,/imu_data_acquisition2,53159.0,0.1025390625,-0.166198730469,0.825927734375,0.528869628906,-13.375,-84.0,-44.375,-13.87,-3.53,3.63
1455211009399302005,189,0,/imu_data_acquisition2,53171.0,0.1025390625,-0.166198730469,0.825927734375,0.528869628906,3.1875,-63.75,-53.75,-14.24,-2.71,3.37
1455211009411175012,190,0,/imu_data_acquisition2,53180.0,0.112487792969,-0.168701171875,0.820190429688,0.534912109375,15.375,-44.0,-57.8125,-13.64,-0.65,1.46
1455211009417714118,191,0,/imu_data_acquisition2,53189.0,0.115478515625,-0.167053222656,0.817932128906,0.538269042969,26.4375,-14.8125,-55.125,-12.57,-0.34,-1.95
1455211009428410053,192,0,/imu_data_acquisition2,53200.0,0.116088867188,-0.162170410156,0.816711425781,0.54150390625,44.0625,29.5,-47.0625,-12.16,0.0,-1.84
1455211009441679954,193,0,/imu_data_acquisition2,53210.0,0.112915039062,-0.151794433594,0.81689453125,0.544860839844,75.75,104.125,-38.75,-10.1,0.23,-11.25
1455211009447762012,194,0,/imu_data_acquisition2,53219.0,0.112915039062,-0.151794433594,0.81689453125,0.544860839844,113.1875,201.125,-31.5625,-15.22,-2.44,-4.35
1455211009459769964,195,0,/imu_data_acquisition2,53230.0,0.104614257812,-0.134399414062,0.818664550781,0.548400878906,145.25,217.6875,-29.4375,-4.14,4.3,1.99
1455211009474014043,196,0,/imu_data_acquisition2,53241.0,0.0872802734375,-0.0969848632812,0.821594238281,0.554931640625,101.25,207.375,-34.3125,3.87,5.78,20.58
1455211009478234052,197,0,/imu_data_acquisition2,53250.0,0.0726318359375,-0.0855102539062,0.820617675781,0.560363769531,8.75,222.9375,-54.25,1.17,3.91,18.66
1455211009489526987,198,0,/imu_data_acquisition2,53260.0,0.05615234375,-0.0760498046875,0.819030761719,0.56591796875,-7.1875,-0.0625,-0.0625,0.7,8.22,8.2
1455211009502969026,199,0,/imu_data_acquisition2,53273.0,0.037841796875,-0.0680541992188,0.818176269531,0.569641113281,-48.625,234.1875,-30.8125,-0.88,11.33,3.03
1455211009508281946,200,0,/imu_data_acquisition2,53280.0,0.0166015625,-0.0599365234375,0.818420410156,0.571228027344,-65.0,261.625,-0.4375,-8.03,11.85,17.33
1455211009519541025,201,0,/imu_data_acquisition2,53291.0,-0.00482177734375,-0.052978515625,0.819519042969,0.570617675781,-77.0,254.875,27.0,-12.25,8.04,28.5
1455211009529318094,202,0,/imu_data_acquisition2,53300.0,-0.0225830078125,-0.0499877929688,0.820983886719,0.568298339844,-90.1875,190.75,43.1875,-9.58,2.44,25.44
1455211009538644075,203,0,/imu_data_acquisition2,53310.0,-0.0368041992188,-0.0484619140625,0.822326660156,0.565734863281,-80.4375,146.5625,43.0,-3.09,-18.55,18.05
1455211009550287961,204,0,/imu_data_acquisition2,53320.0,-0.0368041992188,-0.0484619140625,0.822326660156,0.565734863281,-37.5,129.9375,15.6875,-6.81,-25.55,21.79
1455211009559094905,205,0,/imu_data_acquisition2,53329.0,-0.0476684570312,-0.0447998046875,0.822448730469,0.565063476562,27.5,88.1875,-7.3125,-6.25,-13.27,17.62
1455211009599725961,206,0,/imu_data_acquisition2,53341.0,-0.053955078125,-0.03125,0.821350097656,0.567016601562,63.25,65.125,-8.125,-2.48,11.38,15.55
1455211009601547002,207,0,/imu_data_acquisition2,53351.0,-0.0559692382812,-0.026123046875,0.821044921875,0.567504882812,36.125,54.625,-3.125,-3.9,5.9,15.72
1455211009603992938,208,0,/imu_data_acquisition2,53360.0,-0.0559692382812,-0.026123046875,0.821044921875,0.567504882812,4.9375,33.8125,-0.0625,-2.32,-4.79,13.11
1455211009607884883,209,0,/imu_data_acquisition2,53371.0,-0.05810546875,-0.024169921875,0.820861816406,0.567626953125,14.375,23.9375,-2.375,-1.24,-2.75,11.44
1455211009619523048,211,0,/imu_data_acquisition2,53391.0,-0.0590209960938,-0.0188598632812,0.820617675781,0.568115234375,20.625,14.125,4.5,-1.62,0.27,12.84
1455211009628995895,212,0,/imu_data_acquisition2,53401.0,-0.0590209960938,-0.0167236328125,0.82080078125,0.567932128906,11.0625,9.125,5.125,-1.16,-1.99,10.91
1455211009642256975,213,0,/imu_data_acquisition2,53411.0,-0.0589599609375,-0.0143432617188,-6.103515625e-05,0.567321777344,11.75,5.875,4.875,-0.72,-0.21,10.46
1455211009652265071,214,0,/imu_data_acquisition2,53421.0,-0.0589599609375,-0.0143432617188,0.821228027344,0.567321777344,10.375,5.1875,5.0625,-0.73,0.19,10.53
1455211009662159919,215,0,/imu_data_acquisition2,53433.0,-0.0588989257812,-0.0126953125,0.821655273438,0.566772460938,5.9375,4.8125,4.375,-0.96,-0.28,10.66
1455211009671495914,216,0,/imu_data_acquisition2,53442.0,-0.0588989257812,-0.0126953125,0.821655273438,0.566772460938,3.1875,3.0,2.6875,-1.06,-0.65,9.66
1455211009678642034,217,0,/imu_data_acquisition2,53451.0,-0.0589599609375,-0.0123291015625,0.82177734375,0.566589355469,1.25,3.125,1.9375,-0.74,-1.42,11.16
1455211009691549062,218,0,/imu_data_acquisition2,53463.0,-0.05908203125,-0.0120849609375,0.821838378906,0.566467285156,0.1875,1.375,0.5625,-0.69,-0.42,9.68
1455211009700563907,219,0,/imu_data_acquisition2,53469.0,-0.0592041015625,-0.0120239257812,0.821838378906,0.566467285156,-0.8125,1.8125,0.125,-0.82,-0.62,10.39
1455211009709070920,220,0,/imu_data_acquisition2,53481.0,-0.0593872070312,-0.011962890625,0.821838378906,0.566467285156,-1.375,0.125,-1.1875,-0.41,-0.69,9.83
1455211009721430063,221,0,/imu_data_acquisition2,53492.0,-0.0594482421875,-0.0120849609375,0.82177734375,0.566528320312,-1.875,0.125,-1.6875,-1.04,-0.88,9.51
1455211009731961011,222,0,/imu_data_acquisition2,53502.0,-0.0595092773438,-0.01220703125,0.821716308594,0.566650390625,-1.6875,0.25,-1.75,-0.76,-1.1,9.68
1455211009739051103,223,0,/imu_data_acquisition2,53511.0,-0.0596313476562,-0.0123291015625,0.821594238281,0.566772460938,-1.0,-0.1875,-1.5625,-0.63,-1.16,9.95
1455211009751698017,224,0,/imu_data_acquisition2,53522.0,-0.0596313476562,-0.012451171875,0.821533203125,0.56689453125,-0.875,0.3125,-0.875,-1.1,-1.09,9.72
1455211009762336969,225,0,/imu_data_acquisition2,53532.0,-0.0596923828125,-0.0125122070312,0.821472167969,0.566955566406,-0.0625,0.0,-0.5,-0.89,-0.01,-0.01
1455211009769680976,226,0,/imu_data_acquisition2,53541.0,-0.0596923828125,-0.0125122070312,0.821472167969,0.566955566406,-0.0625,-0.75,-0.5,-0.77,-1.25,9.52
1455211009782545089,227,0,/imu_data_acquisition2,53554.0,-0.0596313476562,-0.0125122070312,0.821472167969,0.566955566406,0.0625,0.125,0.5,-0.86,-1.34,9.87
1455211009799024105,229,0,/imu_data_acquisition2,53571.0,-0.0596923828125,-0.0125732421875,0.821533203125,0.56689453125,1.25,0.3125,1.1875,-0.68,-1.0,10.14
1455211009811621904,230,0,/imu_data_acquisition2,53581.0,-0.0596313476562,-0.0125732421875,0.821594238281,0.566833496094,1.375,-0.5,0.9375,-0.83,-0.68,9.59
1455211009820029020,231,0,/imu_data_acquisition2,53590.0,-0.0595703125,-0.012451171875,0.821655273438,0.566772460938,1.125,0.3125,0.875,-0.88,-0.87,-0.01
1455211009830028057,232,0,/imu_data_acquisition2,53602.0,-0.0595092773438,-0.0123901367188,0.821655273438,0.566711425781,0.625,-0.0625,-0.0625,-0.99,-0.84,9.81
1455211009842834949,233,0,/imu_data_acquisition2,53613.0,-0.0595092773438,-0.0123291015625,0.821655273438,0.566711425781,0.0,0.5,0.125,-1.06,-1.08,10.23
1455211009849037885,234,0,/imu_data_acquisition2,53620.0,-0.0595092773438,-0.0123291015625,0.821655273438,0.566711425781,-0.1875,-0.3125,-0.25,-0.82,-0.83,9.67
1455211009860826969,235,0,/imu_data_acquisition2,53631.0,-0.0595092773438,-0.0123291015625,0.821655273438,0.566711425781,-0.4375,0.0,-0.25,-0.87,-0.97,10.06
1455211009870059967,236,0,/imu_data_acquisition2,53641.0,-0.0595092773438,-0.0123291015625,-6.103515625e-05,0.566711425781,-0.5,0.3125,-0.125,-0.7,-0.01,-0.01
1455211009878690958,237,0,/imu_data_acquisition2,53651.0,-0.0595092773438,-0.0123901367188,0.821655273438,0.566711425781,-0.375,0.875,0.125,-0.88,-1.04,9.3
1455211009890696048,238,0,/imu_data_acquisition2,53662.0,-0.0595703125,-0.0123291015625,0.821655273438,0.566711425781,-0.3125,2.1875,0.875,-0.87,-1.25,9.99
1455211009898417949,239,0,/imu_data_acquisition2,53669.0,-0.0597534179688,-0.01220703125,0.821716308594,0.566650390625,-0.3125,2.1875,0.875,-0.87,-1.25,9.99
1455211009907977104,240,0,/imu_data_acquisition2,53680.0,-0.0599365234375,-0.0120849609375,0.821716308594,0.566589355469,0.1875,2.75,1.3125,-0.83,-1.09,9.87
1455211009920501947,241,0,/imu_data_acquisition2,53692.0,-0.0602416992188,-0.0119018554688,0.821838378906,0.566467285156,0.8125,4.5,2.0,-0.8,-0.01,-0.01
1455211009930741071,242,0,/imu_data_acquisition2,53701.0,-0.060546875,-0.0115966796875,0.821899414062,0.566284179688,1.375,5.0,1.8125,-0.95,-1.09,9.97
1455211009939655065,243,0,/imu_data_acquisition2,53711.0,-0.060791015625,-0.01123046875,0.821960449219,0.566223144531,1.4375,6.375,2.6875,-0.96,-0.86,9.52
1455211009948965072,244,0,/imu_data_acquisition2,53720.0,-0.0611572265625,-0.0108032226562,0.822021484375,0.566040039062,1.4375,6.375,2.6875,-1.28,-1.38,10.07
1455211009957381010,245,0,/imu_data_acquisition2,53729.0,-0.061767578125,-0.010498046875,0.822021484375,0.566040039062,1.3125,6.75,0.5,-1.28,-1.38,10.07
1455211009968612909,246,0,/imu_data_acquisition2,53740.0,-0.0621948242188,-0.0101928710938,0.821838378906,0.566223144531,1.9375,6.1875,-2.75,-0.89,-1.02,9.55
1455211009980737924,247,0,/imu_data_acquisition2,53752.0,-0.062744140625,-0.00958251953125,0.822021484375,0.56591796875,3.4375,10.8125,6.625,-1.01,-1.13,9.83
1455211009989943981,248,0,/imu_data_acquisition2,53761.0,-0.0634155273438,-0.0089111328125,0.822265625,0.565490722656,3.6875,11.75,7.5,-1.1,-0.91,9.75
1455211010000638961,249,0,/imu_data_acquisition2,53773.0,-0.0648193359375,-0.0072021484375,0.822875976562,0.564453125,3.875,12.25,7.625,-1.05,-0.89,9.61
1455211010009387016,250,0,/imu_data_acquisition2,53781.0,-0.0648193359375,-0.0072021484375,0.822875976562,0.564453125,3.875,12.25,7.625,-1.34,-1.0,10.21
1455211010018562078,251,0,/imu_data_acquisition2,53790.0,-0.0656127929688,-0.0062255859375,0.823181152344,0.56396484375,3.625,13.3125,7.9375,-1.34,-1.0,10.21
1455211010030061960,252,0,/imu_data_acquisition2,53802.0,-0.0662841796875,-0.00537109375,0.823486328125,0.5634765625,3.875,12.75,7.5625,-1.3,-0.92,10.09
1455211010040765047,253,0,/imu_data_acquisition2,53812.0,-0.0669555664062,-0.00445556640625,0.82373046875,0.56298828125,4.3125,12.25,7.0625,-1.2,-0.87,9.93
1455211010047476053,254,0,/imu_data_acquisition2,53819.0,-0.067626953125,-0.0035400390625,0.824035644531,0.5625,4.3125,12.25,7.0625,-1.2,-0.87,9.93
1455211010060179948,255,0,/imu_data_acquisition2,53831.0,-0.0682983398438,-0.00262451171875,0.82421875,0.562072753906,4.0625,11.875,6.0625,-1.15,-1.07,9.84
1455211010070543050,256,0,/imu_data_acquisition2,53840.0,-0.0690307617188,-0.00177001953125,0.824462890625,0.561706542969,3.75,12.8125,5.875,-1.15,-1.07,9.84
1455211010079200029,257,0,/imu_data_acquisition2,53851.0,-0.0698852539062,-0.0009765625,0.824645996094,0.561340332031,4.375,14.0625,6.0625,-1.21,-1.25,-0.01
1455211010090786933,258,0,/imu_data_acquisition2,53862.0,-0.07080078125,-0.0001220703125,0.824829101562,0.560913085938,5.125,15.0625,6.4375,-1.3,-1.11,10.33
1455211010096754074,259,0,/imu_data_acquisition2,53869.0,-0.0717163085938,0.0008544921875,0.825012207031,0.560485839844,5.125,15.0625,6.4375,-1.3,-1.11,10.33
1455211010109826087,260,0,/imu_data_acquisition2,53881.0,-0.0725708007812,0.00189208984375,0.825256347656,0.560119628906,4.875,15.125,6.125,-1.11,-0.01,-0.01
1455211010120193004,261,0,/imu_data_acquisition2,53891.0,-0.073486328125,0.00286865234375,0.825378417969,0.559753417969,4.3125,15.3125,5.375,-0.88,-0.73,9.92
1455211010131953001,262,0,/imu_data_acquisition2,53902.0,-0.074462890625,0.00396728515625,0.825500488281,0.559509277344,3.8125,16.75,4.0,-0.77,-0.45,9.93
1455211010140177011,263,0,/imu_data_acquisition2,53912.0,-0.07568359375,0.00518798828125,0.825439453125,0.559326171875,3.6875,23.8125,-0.0625,-0.79,-0.81,9.86
1455211010149730920,264,0,/imu_data_acquisition2,53920.0,-0.0772094726562,0.006591796875,0.825317382812,0.559326171875,3.6875,23.8125,-0.0625,-0.79,-0.81,9.86
1455211010158565998,265,0,/imu_data_acquisition2,53929.0,-0.0791625976562,0.00823974609375,0.824890136719,0.559631347656,3.0625,30.625,-3.75,-1.47,-1.25,9.38
1455211010169737100,266,0,/imu_data_acquisition2,53941.0,-0.0814819335938,0.0101318359375,0.824340820312,0.56005859375,3.6875,35.1875,-6.6875,-1.02,-0.57,9.98
1455211010180843114,267,0,/imu_data_acquisition2,53952.0,-0.0838623046875,0.01220703125,-6.103515625e-05,0.560791015625,5.25,38.3125,-9.6875,-1.35,-1.25,10.11
1455211010191026926,268,0,/imu_data_acquisition2,53962.0,-0.0862426757812,0.0144653320312,0.822692871094,0.561706542969,7.3125,38.75,-13.5,-0.46,-0.58,9.27
1455211010200017929,269,0,/imu_data_acquisition2,53970.0,-0.08837890625,0.0170288085938,0.821716308594,0.562683105469,11.5625,38.4375,-13.75,-0.46,-0.58,9.27
1455211010210943937,270,0,/imu_data_acquisition2,53980.0,-0.0909423828125,0.0195922851562,0.820678710938,0.563781738281,9.1875,43.0625,-15.0,-2.5,-1.03,9.13
1455211010221422910,271,0,/imu_data_acquisition2,53991.0,-0.0940551757812,0.0218505859375,0.819274902344,0.565246582031,3.0,46.5,-22.25,-1.6,-1.62,9.54
1455211010229820013,272,0,/imu_data_acquisition2,54001.0,-6.103515625e-05,-6.103515625e-05,-6.103515625e-05,0.566711425781,-1.625,44.5,-22.4375,-0.88,-1.13,9.81
1455211010243062973,273,0,/imu_data_acquisition2,54013.0,-0.100646972656,0.0250854492188,0.816467285156,0.567993164062,-7.125,43.1875,-21.1875,-0.47,-1.79,9.92
1455211010247857093,274,0,/imu_data_acquisition2,54020.0,-0.104370117188,0.0263671875,0.814880371094,0.569519042969,-10.1875,46.375,-25.0625,-0.47,-1.79,9.92
1455211010259253025,275,0,/imu_data_acquisition2,54030.0,-0.109436035156,0.0283203125,0.813232421875,0.570861816406,-13.25,63.5625,-23.375,1.05,-1.35,9.41
1455211010272701025,276,0,/imu_data_acquisition2,54041.0,-0.118041992188,0.0330200195312,-6.103515625e-05,0.570190429688,-13.375,115.625,3.5625,-0.18,-0.61,9.31
1455211010280329942,277,0,/imu_data_acquisition2,54052.0,-6.103515625e-05,-6.103515625e-05,-6.103515625e-05,0.566345214844,-24.3125,187.375,44.0,-1.1,-0.94,8.97
1455211010291297912,278,0,/imu_data_acquisition2,54063.0,-0.1494140625,0.0494384765625,0.813049316406,0.560546875,-43.3125,228.375,64.4375,-0.14,-0.53,11.2
1455211010300426959,279,0,/imu_data_acquisition2,54071.0,-0.168579101562,0.0593872070312,0.812072753906,0.555480957031,-39.75,255.3125,48.75,-0.14,-0.53,11.2
1455211010308595895,280,0,/imu_data_acquisition2,54080.0,-0.189697265625,0.0709228515625,0.810668945312,0.54931640625,-39.0625,285.75,58.125,0.71,0.01,12.01
1455211010320615053,281,0,/imu_data_acquisition2,54092.0,-0.214111328125,0.084228515625,0.808227539062,0.542053222656,-45.5625,332.875,-0.0625,-6.15,-0.22,13.71
1455211010332134008,282,0,/imu_data_acquisition2,54102.0,-0.243713378906,0.099365234375,0.803588867188,0.533874511719,-61.0,400.25,57.4375,-4.69,-0.98,18.96
1455211010340629100,283,0,/imu_data_acquisition2,54112.0,-0.275573730469,0.115295410156,0.796325683594,0.526000976562,-66.6875,409.4375,22.125,-3.14,-0.59,14.23
1455211010350389003,284,0,/imu_data_acquisition2,54120.0,-0.3056640625,0.129455566406,0.787902832031,0.518676757812,-66.6875,409.4375,22.125,-3.14,-0.59,14.23
1455211010357115030,285,0,/imu_data_acquisition2,54129.0,-0.33544921875,0.142700195312,0.778991699219,0.510192871094,-76.6875,405.0625,26.0625,-3.08,-0.64,12.18
1455211010370368003,286,0,/imu_data_acquisition2,54142.0,-0.366027832031,0.156188964844,0.769226074219,0.499938964844,-84.375,419.5625,37.75,0.64,0.33,9.58
1455211010382055044,287,0,/imu_data_acquisition2,54152.0,-0.398986816406,0.169921875,0.757568359375,0.487854003906,-100.8125,454.875,39.875,-1.59,0.13,7.98
1455211010391752004,288,0,/imu_data_acquisition2,54162.0,-0.435363769531,0.184020996094,0.743530273438,0.473083496094,-125.25,503.8125,44.6875,-12.15,-3.88,33.19
1455211010400264024,289,0,/imu_data_acquisition2,54172.0,-0.472045898438,0.198486328125,0.728820800781,0.45458984375,-141.25,520.75,75.0,-12.15,-3.88,33.19
1455211010411149978,290,0,/imu_data_acquisition2,54181.0,-0.493408203125,0.20947265625,0.720520019531,0.43994140625,-82.875,324.1875,93.0,-8.82,-3.06,35.41
1455211010420525074,291,0,/imu_data_acquisition2,54191.0,-0.502807617188,0.216857910156,0.717895507812,0.429870605469,-38.1875,158.9375,92.375,-6.66,-4.27,35.05
1455211010430634021,292,0,/imu_data_acquisition2,54203.0,-0.502502441406,0.220825195312,0.720520019531,0.423767089844,-8.125,18.0,89.375,2.46,-4.76,13.25
1455211010441970109,293,0,/imu_data_acquisition2,54213.0,-0.496948242188,0.223083496094,0.7255859375,0.420471191406,14.5625,-58.0625,81.1875,3.44,-4.04,8.62
1455211010449232101,294,0,/imu_data_acquisition2,54220.0,-0.488403320312,0.225463867188,0.731262207031,0.419372558594,41.1875,-91.8125,74.5,3.44,-4.04,8.62
1455211010459435939,295,0,/imu_data_acquisition2,54231.0,-0.477966308594,0.228576660156,0.73681640625,0.419982910156,67.75,-108.75,68.4375,3.47,-3.14,6.26
1455211010471369028,296,0,/imu_data_acquisition2,54242.0,-0.466979980469,0.231872558594,0.742065429688,0.42138671875,77.3125,-112.75,62.125,3.3,-2.15,5.25
1455211010481825113,297,0,/imu_data_acquisition2,54253.0,-0.456237792969,0.234313964844,0.7470703125,0.422912597656,69.625,-113.9375,54.375,2.06,-2.85,7.64
1455211010491734027,298,0,/imu_data_acquisition2,54263.0,-0.445861816406,0.235290527344,0.752136230469,0.424438476562,38.25,-132.0,34.875,0.65,-4.08,10.39
1455211010503730058,299,0,/imu_data_acquisition2,54274.0,-0.435363769531,0.234252929688,0.757568359375,0.42626953125,25.125,-151.625,21.25,0.01,-4.64,11.28
1455211010508636951,300,0,/imu_data_acquisition2,54280.0,-0.42431640625,0.231201171875,0.763305664062,0.428771972656,25.125,-151.625,21.25,0.01,-4.64,11.28
1455211010522530078,301,0,/imu_data_acquisition2,54292.0,-0.412231445312,0.226318359375,0.769287109375,0.432434082031,19.125,-173.8125,5.9375,-0.62,-4.89,11.84
1455211010535835981,302,0,/imu_data_acquisition2,54303.0,-0.398803710938,0.219909667969,0.775390625,0.437438964844,18.4375,-198.0,-9.8125,-1.93,-4.52,11.45
1455211010615184068,303,0,/imu_data_acquisition2,54313.0,-0.383972167969,0.212219238281,0.781372070312,0.443786621094,20.5625,-221.125,-25.1875,-2.91,-2.83,10.85
1455211010633934020,304,0,/imu_data_acquisition2,54322.0,-0.367980957031,0.203369140625,0.787170410156,0.451232910156,21.9375,-239.4375,-38.4375,-2.91,-2.83,10.85
1455211010636343002,305,0,/imu_data_acquisition2,54332.0,-0.351135253906,0.193481445312,0.792663574219,0.459228515625,19.1875,-253.0,-47.1875,-4.15,-1.46,10.42
1455211010638480901,306,0,/imu_data_acquisition2,54340.0,-0.333618164062,0.182556152344,0.798095703125,0.467346191406,13.8125,-264.875,-52.5,-4.46,-1.05,9.88
1455211010640794038,307,0,/imu_data_acquisition2,54352.0,-0.315612792969,0.170776367188,0.80322265625,0.475463867188,9.0,-273.125,-55.5,-4.79,-0.69,9.55
1455211010644423961,308,0,/imu_data_acquisition2,54362.0,-0.29736328125,0.158752441406,0.808044433594,0.483215332031,7.625,-275.5625,-54.5,-5.06,-0.21,9.67
1455211010650559902,309,0,/imu_data_acquisition2,54369.0,-0.0132446289062,-6.103515625e-05,-6.103515625e-05,0.490356445312,6.6875,-275.375,-50.75,-5.93,0.36,11.2
1455211010653168916,310,0,/imu_data_acquisition2,54379.0,-0.260375976562,0.134399414062,0.816833496094,0.496887207031,3.8125,-274.625,-45.8125,-6.39,0.1,11.85
1455211010655483961,311,0,/imu_data_acquisition2,54393.0,-0.241760253906,0.121887207031,0.820983886719,0.502685546875,0.5625,-275.5625,-40.8125,-6.73,-1.56,12.79
1455211010657207012,312,0,/imu_data_acquisition2,54403.0,-0.222900390625,0.109375,0.824829101562,0.507934570312,-0.5625,-276.625,-37.0,-6.73,-1.56,12.79
1455211010659152984,313,0,/imu_data_acquisition2,54413.0,-0.203857421875,0.096923828125,0.828308105469,0.512817382812,1.1875,-276.375,-35.125,-6.86,-1.85,13.06
1455211010663141965,314,0,/imu_data_acquisition2,54419.0,-0.184631347656,0.0846557617188,0.831237792969,0.517456054688,4.125,-275.25,-34.6875,-7.03,-1.85,13.01
1455211010667912006,315,0,/imu_data_acquisition2,54430.0,-0.165344238281,0.0726318359375,0.833740234375,0.521789550781,6.75,-273.5,-34.6875,-6.71,-1.4,12.23
1455211010684179067,317,0,/imu_data_acquisition2,54452.0,-0.128051757812,0.0492553710938,0.837524414062,0.528930664062,4.1875,-258.375,-27.875,-6.75,-1.89,12.83
1455211010690321922,318,0,/imu_data_acquisition2,54462.0,-0.110412597656,0.0380249023438,0.838989257812,0.531494140625,1.625,-248.9375,-22.8125,-6.69,-2.46,13.4
1455211010699850082,319,0,/imu_data_acquisition2,54471.0,-0.0933227539062,0.0270385742188,0.840209960938,0.533508300781,-0.0625,-241.25,-18.75,-6.09,-3.42,12.97
1455211010712733983,320,0,/imu_data_acquisition2,54480.0,-0.0768432617188,0.0162963867188,0.841125488281,0.535095214844,-0.75,-233.5,-16.5625,-5.61,-3.6,12.26
1455211010717922925,321,0,/imu_data_acquisition2,54490.0,-0.0611572265625,0.00604248046875,0.841735839844,0.536376953125,-1.5625,-222.125,-15.625,-5.23,-0.95,-0.01
1455211010731292963,322,0,/imu_data_acquisition2,54503.0,-0.046630859375,-0.0037841796875,0.841979980469,0.537475585938,-4.9375,-206.875,-15.3125,-5.78,-3.01,15.04
1455211010743257999,323,0,/imu_data_acquisition2,54513.0,-0.0337524414062,-0.0136108398438,0.841979980469,0.538330078125,-15.375,-191.3125,-14.375,-7.35,-3.1,18.84
1455211010747752904,324,0,/imu_data_acquisition2,54519.0,-0.02197265625,-0.0245361328125,0.841674804688,0.538940429688,-34.1875,-186.5,-14.625,-8.88,-4.26,20.64
1455211010759982109,325,0,/imu_data_acquisition2,54530.0,-0.0108642578125,-0.03662109375,0.841064453125,0.539611816406,-49.25,-188.0,-16.75,-11.44,-5.03,21.15
1455211010778359889,326,0,/imu_data_acquisition2,54545.0,0.00030517578125,-0.0484008789062,0.83984375,0.540649414062,-46.4375,-185.4375,-24.1875,-13.07,-4.09,20.83
1455211010783185958,327,0,/imu_data_acquisition2,54554.0,0.01318359375,-0.0609130859375,0.837890625,0.542236328125,-42.9375,-206.875,-36.0,-12.96,-0.34,10.86
1455211010792953968,328,0,/imu_data_acquisition2,54563.0,0.0275268554688,-0.0744018554688,0.835083007812,0.544372558594,-43.875,-228.4375,-47.4375,-12.96,-0.34,10.86
1455211010800573110,329,0,/imu_data_acquisition2,54569.0,-6.103515625e-05,-6.103515625e-05,-6.103515625e-05,0.546752929688,-48.0625,-233.3125,-54.3125,-12.48,0.66,8.02
1455211010808449983,330,0,/imu_data_acquisition2,54580.0,0.0563354492188,-0.101684570312,0.827758789062,0.548889160156,-43.8125,-225.8125,-54.0625,-12.06,1.51,5.26
1455211010818923950,331,0,/imu_data_acquisition2,54590.0,0.0696411132812,-0.11328125,0.82421875,0.550415039062,-32.75,-206.625,-45.5625,-11.92,2.08,3.84
1455211010833652973,332,0,/imu_data_acquisition2,54604.0,0.0813598632812,-0.0134887695312,-6.103515625e-05,0.550903320312,-21.375,-177.875,-31.0625,-13.54,0.51,3.89
1455211010840683937,333,0,/imu_data_acquisition2,54613.0,0.0913696289062,-0.130493164062,0.819519042969,0.550476074219,-11.1875,-150.125,-15.375,-13.54,0.51,3.89
1455211010848716020,334,0,/imu_data_acquisition2,54620.0,0.10009765625,-0.136596679688,0.818359375,0.549194335938,-2.4375,-127.0,-2.3125,-13.68,-0.38,2.76
1455211010861846923,335,0,/imu_data_acquisition2,54632.0,0.107543945312,-0.14111328125,0.817749023438,0.547546386719,5.375,-105.125,5.3125,-12.84,-1.96,-1.99
1455211010868001937,336,0,/imu_data_acquisition2,54640.0,0.113403320312,-0.143676757812,0.817565917969,0.546020507812,14.625,-76.3125,7.125,-12.21,-2.43,-4.17
1455211010881416082,337,0,/imu_data_acquisition2,54653.0,0.116943359375,-0.143432617188,0.817687988281,0.545043945312,27.25,-33.875,3.75,-9.81,-4.78,-11.43
1455211010895226001,338,0,/imu_data_acquisition2,54665.0,0.116271972656,-0.137634277344,0.818481445312,0.545532226562,52.4375,45.8125,-6.375,-17.88,-2.59,-8.6
1455211010899900913,339,0,/imu_data_acquisition2,54672.0,0.112243652344,-0.12646484375,0.820129394531,0.546630859375,83.0625,115.375,-8.75,-17.88,-2.59,-8.6
1455211010910010099,340,0,/imu_data_acquisition2,54681.0,0.104370117188,-0.110900878906,0.821899414062,0.548889160156,100.0,182.625,-19.375,-12.27,0.16,-5.2
1455211010922275066,341,0,/imu_data_acquisition2,54692.0,0.094482421875,-0.0931396484375,0.8232421875,0.552001953125,106.25,217.625,-30.6875,-0.23,6.25,8.16
1455211010932492971,342,0,/imu_data_acquisition2,54704.0,0.0841064453125,-0.0784912109375,0.823608398438,0.555297851562,71.3125,200.75,-34.5,1.69,9.26,12.72
1455211010943749904,343,0,/imu_data_acquisition2,54714.0,0.0701293945312,-0.0689697265625,0.822570800781,0.560119628906,-4.375,202.6875,-50.25,1.69,9.26,12.72
1455211010948502063,344,0,/imu_data_acquisition2,54719.0,0.0540161132812,-0.0146484375,-6.103515625e-05,0.564636230469,-39.4375,208.6875,-45.375,0.85,12.19,2.49
1455211010959552049,345,0,/imu_data_acquisition2,54731.0,0.0359497070312,-0.0545654296875,0.821166992188,0.56689453125,-54.3125,223.3125,-14.0625,-6.8,8.83,18.13
1455211010972603082,346,0,/imu_data_acquisition2,54743.0,0.0166015625,-0.046875,0.822509765625,0.566589355469,-54.0,240.1875,21.0625,-10.21,3.26,27.92
1455211010980067014,347,0,/imu_data_acquisition2,54751.0,-0.001708984375,-0.041259765625,0.824157714844,0.564880371094,-66.5625,215.5,37.0,-8.26,-2.88,24.45
1455211010993228912,348,0,/imu_data_acquisition2,54764.0,-0.0165405273438,-0.038818359375,0.825439453125,0.562866210938,-75.1875,159.8125,35.375,-2.87,-17.28,17.44
1455211011000754117,349,0,/imu_data_acquisition2,54770.0,-0.02880859375,-0.0364990234375,0.825988769531,0.561706542969,-58.8125,135.3125,21.0625,-2.87,-17.28,17.44
1455211011011245012,350,0,/imu_data_acquisition2,54780.0,-0.039306640625,-0.030517578125,0.825500488281,0.562194824219,-11.5,142.4375,-1.5625,-8.4,-9.21,20.76
1455211011020910978,351,0,/imu_data_acquisition2,54793.0,-0.0452270507812,-0.0225219726562,0.824768066406,0.563232421875,39.0,111.5,-9.25,-5.84,2.75,16.53
1455211011030225038,352,0,/imu_data_acquisition2,54800.0,-0.0474853515625,-0.0164184570312,0.824279785156,0.56396484375,44.6875,63.875,-6.625,-4.0,5.35,14.28
1455211011041330099,353,0,/imu_data_acquisition2,54812.0,-0.0496826171875,-0.013427734375,0.823913574219,0.564331054688,15.0625,41.1875,-3.5625,-2.71,-2.87,15.34
1455211011049407005,354,0,/imu_data_acquisition2,54820.0,-0.0513916015625,-0.0130004882812,0.82373046875,0.564453125,-7.625,19.5,-1.75,-2.2,-0.01,-0.01
1455211011059326887,355,0,/imu_data_acquisition2,54830.0,-0.0523681640625,-0.0128173828125,0.82373046875,0.564392089844,-4.5625,10.8125,0.875,-1.06,0.26,11.14
1455211011067472934,356,0,/imu_data_acquisition2,54839.0,-0.0530395507812,-0.0120239257812,0.823974609375,0.564025878906,2.875,11.4375,5.5,-1.3,-0.45,12.73
1455211011080020904,357,0,/imu_data_acquisition2,54851.0,-0.00701904296875,-6.103515625e-05,-6.103515625e-05,0.5634765625,-1.75,10.9375,7.5625,-1.23,-1.37,11.52
1455211011090629100,358,0,/imu_data_acquisition2,54859.0,-0.0545654296875,-0.0115356445312,0.824584960938,0.56298828125,-3.8125,7.0,6.9375,-0.41,-0.97,10.81
1455211011098474025,359,0,/imu_data_acquisition2,54870.0,-0.0550537109375,-0.0112915039062,0.824890136719,0.5625,-1.6875,5.9375,6.9375,-0.67,-0.38,10.46
1455211011111170053,360,0,/imu_data_acquisition2,54882.0,-0.0556030273438,-0.010986328125,0.8251953125,0.56201171875,-1.125,7.25,7.125,-0.66,-0.3,10.65
1455211011119056940,361,0,/imu_data_acquisition2,54889.0,-0.0562744140625,-0.0108032226562,0.825439453125,0.561584472656,-2.625,7.25,5.9375,-1.05,-0.96,10.06
1455211011128959894,362,0,/imu_data_acquisition2,54901.0,-0.0570068359375,-0.0107421875,0.825622558594,0.561218261719,-4.8125,7.6875,5.25,-1.05,-0.96,-0.01
1455211011140013933,363,0,/imu_data_acquisition2,54910.0,-0.0578002929688,-0.0108032226562,0.825805664062,0.560913085938,-5.3125,7.0625,4.25,-0.77,-0.72,10.41
1455211011146929979,364,0,/imu_data_acquisition2,54919.0,-0.0584106445312,-0.0109252929688,0.825866699219,0.560729980469,-5.375,4.875,2.1875,-0.82,-0.92,9.98
1455211011158797979,365,0,/imu_data_acquisition2,54930.0,-0.0588989257812,-0.0111083984375,0.825866699219,0.560668945312,-5.0,4.0625,0.3125,-0.67,-0.83,10.2
1455211011168874025,366,0,/imu_data_acquisition2,54940.0,-0.0594482421875,-0.01123046875,0.825805664062,0.560668945312,-5.0,4.0625,0.3125,-0.93,-1.12,-0.01
1455211011178141117,367,0,/imu_data_acquisition2,54950.0,-0.0599365234375,-0.0113525390625,0.825805664062,0.560668945312,-4.5,4.375,0.4375,-1.08,-1.49,10.18
1455211011189636945,368,0,/imu_data_acquisition2,54959.0,-0.0604248046875,-0.0114135742188,0.825805664062,0.560546875,-3.5625,4.25,1.0625,-0.99,-1.26,9.74
1455211011199587106,369,0,/imu_data_acquisition2,54970.0,-0.060791015625,-0.0112915039062,0.825866699219,0.560424804688,-1.625,3.9375,1.75,-0.9,-1.4,10.32
1455211011208158969,370,0,/imu_data_acquisition2,54979.0,-0.06103515625,-0.0111083984375,0.825927734375,0.560302734375,-0.3125,3.375,1.6875,-0.56,-0.97,9.72
1455211011218887090,371,0,/imu_data_acquisition2,54990.0,-0.0613403320312,-0.0109252929688,0.826049804688,0.560119628906,-0.125,4.4375,2.9375,-1.21,-0.99,9.67
1455211011236823081,372,0,/imu_data_acquisition2,54999.0,-0.0615844726562,-0.0107421875,0.826171875,0.559997558594,-0.25,3.5625,2.25,-0.91,-1.06,10.03
1455211011238508939,373,0,/imu_data_acquisition2,55009.0,-0.0618286132812,-0.0105590820312,0.826171875,0.559875488281,-0.3125,3.1875,1.1875,-0.88,-0.93,9.58
1455211011250068902,374,0,/imu_data_acquisition2,55022.0,-0.06201171875,-0.0105590820312,0.825927734375,0.560241699219,-0.6875,2.3125,-5.0625,-0.77,-0.81,9.62
1455211011259490013,375,0,/imu_data_acquisition2,55029.0,-0.062255859375,-0.01025390625,0.825988769531,0.560119628906,0.6875,4.125,2.0,-0.83,-1.08,10.19
1455211011267898082,376,0,/imu_data_acquisition2,55039.0,-0.0625610351562,-0.00994873046875,0.826171875,0.559875488281,1.0625,4.75,3.5,-1.0,-0.93,9.58
1455211011280690908,377,0,/imu_data_acquisition2,55053.0,-0.0629272460938,-0.0096435546875,0.826293945312,0.559631347656,1.3125,5.125,3.8125,-1.02,-1.14,9.98
1455211011290038108,378,0,/imu_data_acquisition2,55059.0,-0.0632934570312,-0.00933837890625,0.826477050781,0.559326171875,1.5625,5.5,3.9375,-1.02,-1.11,9.58
1455211011299371957,379,0,/imu_data_acquisition2,55071.0,-0.0636596679688,-0.00897216796875,0.826599121094,0.55908203125,1.9375,5.5625,4.1875,-0.74,-1.11,9.82
1455211011309947967,380,0,/imu_data_acquisition2,55081.0,-0.0640869140625,-0.008544921875,0.826782226562,0.558776855469,2.3125,7.3125,4.8125,-0.92,-1.01,9.37
1455211011321660995,381,0,/imu_data_acquisition2,55092.0,-0.0645141601562,-0.00811767578125,0.827026367188,0.558410644531,3.0625,7.9375,5.4375,-0.74,-0.01,-0.01
1455211011328705072,382,0,/imu_data_acquisition2,55100.0,-0.0650024414062,-0.00750732421875,0.827209472656,0.558044433594,3.375,8.75,5.625,-0.92,-0.87,9.52
