%time,field.header.seq,field.header.stamp,field.header.frame_id,field.time_stamp,field.quat_x,field.quat_y,field.quat_z,field.quat_w,field.gyro_x,field.gyro_y,field.gyro_z,field.accel_x,field.accel_y,field.accel_z
1455211408501557111,1,0,/imu_data_acquisition2,44321.0,-0.0151977539062,-6.103515625e-05,-6.103515625e-05,0.494079589844,-1.5625,0.125,0.25,-0.94,-1.04,9.4
1455211408503475904,2,0,/imu_data_acquisition2,44329.0,-0.0621337890625,-0.0192260742188,0.867004394531,0.494079589844,-1.5625,0.125,0.25,-0.94,-1.04,9.4
1455211408512804985,3,0,/imu_data_acquisition2,44338.0,-0.0623168945312,-0.019287109375,0.867004394531,0.494018554688,-1.25,1.4375,0.875,-1.26,-1.24,9.94
1455211408524662017,4,0,/imu_data_acquisition2,44350.0,-0.0623168945312,-0.019287109375,0.867065429688,0.493896484375,-0.4375,0.375,1.0,-0.96,-0.84,9.56
1455211408538242101,5,0,/imu_data_acquisition2,44361.0,-0.0623168945312,-0.0192260742188,0.867126464844,0.493835449219,-0.75,0.9375,0.9375,-0.93,-0.91,9.92
1455211408546310901,6,0,/imu_data_acquisition2,44371.0,-0.0624389648438,-0.019287109375,0.867126464844,0.493774414062,-1.3125,1.3125,0.5,-1.3,-1.26,10.21
1455211408557363033,7,0,/imu_data_acquisition2,44381.0,-0.0626831054688,-0.019287109375,0.867126464844,0.493774414062,-1.3125,1.3125,0.5,-0.95,-1.1,9.72
1455211408565570116,8,0,/imu_data_acquisition2,44390.0,-0.0628662109375,-0.0193481445312,0.867126464844,0.493774414062,-0.5625,0.9375,0.5625,-0.89,-1.12,9.84
1455211408578164100,9,0,/imu_data_acquisition2,44403.0,-0.06298828125,-0.0193481445312,0.867126464844,0.493774414062,-0.3125,2.125,1.0625,-1.45,-1.07,9.48
1455211408589411973,10,0,/imu_data_acquisition2,44413.0,-0.0633544921875,-0.0192260742188,0.867126464844,0.49365234375,0.125,1.4375,1.0625,-0.89,-0.69,9.17
1455211408597610950,11,0,/imu_data_acquisition2,44421.0,-0.0634155273438,-0.0191650390625,0.8671875,0.493591308594,0.25,2.125,1.1875,-1.4,-1.21,10.07
1455211408605918884,12,0,/imu_data_acquisition2,44430.0,-0.0635986328125,-0.01904296875,0.8671875,0.493530273438,0.25,2.125,1.1875,-1.21,-1.09,9.96
1455211408614082098,13,0,/imu_data_acquisition2,44439.0,-0.0638427734375,-0.0189208984375,0.867248535156,0.493408203125,0.125,2.8125,1.125,-1.21,-1.09,9.96
1455211408631434917,14,0,/imu_data_acquisition2,44451.0,-0.0640869140625,-0.018798828125,0.867248535156,0.493347167969,-0.3125,2.625,0.5,-1.17,-0.01,-0.01
1455211408640000104,15,0,/imu_data_acquisition2,44461.0,-0.0642700195312,-0.0186767578125,0.867248535156,0.493408203125,0.0,1.9375,0.375,-0.81,-0.97,9.52
1455211408645581007,16,0,/imu_data_acquisition2,44471.0,-0.064453125,-0.0186157226562,0.867248535156,0.493408203125,0.125,3.4375,0.4375,-1.13,-1.18,10.0
1455211408655909061,17,0,/imu_data_acquisition2,44480.0,-0.064697265625,-0.0184936523438,0.8671875,0.493408203125,0.125,3.4375,0.4375,-1.1,-0.92,9.56
1455211408664052009,18,0,/imu_data_acquisition2,44489.0,-0.0650024414062,-0.0182495117188,0.867248535156,0.493347167969,0.9375,3.8125,1.0,-1.1,-0.92,9.56
1455211408675223112,19,0,/imu_data_acquisition2,44500.0,-0.0653076171875,-0.0179443359375,0.867248535156,0.493286132812,1.4375,4.3125,0.9375,-1.1,-0.98,-0.01
1455211408690864086,20,0,/imu_data_acquisition2,44513.0,-0.0657348632812,-0.017578125,0.867248535156,0.4931640625,1.5625,5.9375,1.3125,-1.16,-0.95,9.42
1455211408699013948,21,0,/imu_data_acquisition2,44522.0,-0.0661010742188,-0.0172119140625,0.867309570312,0.493103027344,1.9375,7.0625,1.625,-1.49,-1.1,9.75
1455211408705933094,22,0,/imu_data_acquisition2,44531.0,-0.0665283203125,-0.0167846679688,0.867309570312,0.492980957031,1.9375,7.0625,1.625,-1.14,-1.09,9.87
1455211408717652082,23,0,/imu_data_acquisition2,44542.0,-0.0670166015625,-0.0162353515625,0.867370605469,0.492858886719,2.5625,8.8125,2.125,-1.26,-1.03,10.12
1455211408728902101,24,0,/imu_data_acquisition2,44552.0,-0.0675659179688,-0.0156860351562,0.867370605469,0.492736816406,2.1875,10.25,2.4375,-0.98,-0.86,9.35
1455211408736886978,25,0,/imu_data_acquisition2,44561.0,-0.0682373046875,-0.0150756835938,0.867431640625,0.492614746094,2.5625,11.5,2.6875,-1.3,-1.19,9.91
1455211408748235940,26,0,/imu_data_acquisition2,44572.0,-0.0689697265625,-0.014404296875,0.867492675781,0.492431640625,3.5625,11.9375,3.125,-1.21,-1.1,9.45
1455211408754990100,27,0,/imu_data_acquisition2,44578.0,-0.06982421875,-0.013671875,0.867553710938,0.492248535156,3.5625,11.9375,3.125,-1.21,-0.01,-0.01
1455211408765389919,28,0,/imu_data_acquisition2,44590.0,-0.0707397460938,-0.0128173828125,0.867614746094,0.492004394531,4.1875,13.5,3.6875,-1.36,-1.28,9.82
1455211408776725053,29,0,/imu_data_acquisition2,44600.0,-0.0716552734375,-0.0119018554688,0.867553710938,0.492065429688,5.0,14.25,-0.0625,-1.3,-1.1,9.64
1455211408786894083,30,0,/imu_data_acquisition2,44611.0,-0.0726318359375,-0.0108032226562,0.867492675781,0.492004394531,6.6875,15.5625,1.4375,-1.21,-0.99,9.82
1455211408797161102,31,0,/imu_data_acquisition2,44622.0,-0.0735473632812,-0.009521484375,0.867553710938,0.491760253906,8.5625,17.125,5.5625,-1.95,-1.18,10.42
1455211408805457115,32,0,/imu_data_acquisition2,44629.0,-0.074462890625,-0.0081787109375,0.86767578125,0.491455078125,8.5625,17.125,5.5625,-1.95,-1.18,10.42
1455211408815037965,33,0,/imu_data_acquisition2,44640.0,-0.0753173828125,-0.00689697265625,0.867797851562,0.491088867188,7.9375,15.625,5.125,-1.26,-0.99,10.04
1455211408825432062,34,0,/imu_data_acquisition2,44650.0,-0.076171875,-0.00567626953125,0.867858886719,0.490844726562,7.0625,15.6875,4.125,-0.96,-0.78,9.83
1455211408838992118,35,0,/imu_data_acquisition2,44663.0,-0.0772094726562,-0.00445556640625,0.867919921875,0.490661621094,6.125,17.8125,3.3125,-0.73,-0.53,9.95
1455211408848280906,36,0,/imu_data_acquisition2,44671.0,-0.0785522460938,-0.00323486328125,0.867858886719,0.490539550781,4.4375,21.1875,2.5,-1.13,-0.8,10.01
1455211408857101917,37,0,/imu_data_acquisition2,44681.0,-0.0803833007812,-0.00189208984375,0.867736816406,0.490417480469,3.1875,26.8125,1.625,-1.78,-1.12,10.02
1455211408866173028,38,0,/imu_data_acquisition2,44689.0,-0.0827026367188,-0.00030517578125,0.867553710938,0.490417480469,2.625,33.0625,0.75,-1.78,-1.12,10.02
1455211408877180099,39,0,/imu_data_acquisition2,44701.0,-0.0853271484375,0.00140380859375,0.867248535156,0.490539550781,2.9375,37.1875,-1.9375,-0.73,-0.01,-0.01
1455211408887121915,40,0,/imu_data_acquisition2,44712.0,-0.0881958007812,0.00341796875,0.86669921875,0.490966796875,4.1875,41.3125,-5.1875,-2.3,-1.0,9.77
1455211408899130105,41,0,/imu_data_acquisition2,44722.0,-0.0908813476562,0.00567626953125,0.866149902344,0.491455078125,8.375,41.25,-5.75,-0.43,-0.9,9.76
1455211408904376983,42,0,/imu_data_acquisition2,44729.0,-0.093505859375,0.0076904296875,0.865051269531,0.492858886719,6.75,39.75,-18.875,-0.43,-0.9,9.76
1455211408915721893,43,0,/imu_data_acquisition2,44739.0,-0.0964965820312,0.010009765625,0.863891601562,0.494201660156,7.8125,45.5,-18.4375,-1.89,-0.66,10.63
1455211408925800085,44,0,/imu_data_acquisition2,44750.0,-0.0997924804688,0.0115356445312,0.862365722656,0.496154785156,-1.375,43.875,-27.3125,-1.43,-1.58,9.66
1455211408936902999,45,0,/imu_data_acquisition2,44762.0,-0.103332519531,0.0128173828125,0.861083984375,0.497619628906,-5.25,45.125,-21.5625,-1.46,-0.61,9.78
1455211408947498083,46,0,/imu_data_acquisition2,44772.0,-0.107055664062,0.0145263671875,0.860412597656,0.497985839844,-4.125,49.0,-5.8125,2.29,-0.56,10.68
1455211408953075885,47,0,/imu_data_acquisition2,44778.0,-0.112060546875,0.015869140625,0.859313964844,0.498718261719,-14.9375,60.0625,-13.25,2.29,-0.56,10.68
1455211408964528083,48,0,/imu_data_acquisition2,44789.0,-0.120849609375,0.0179443359375,0.858703613281,0.497680664062,-31.625,102.6875,8.0,5.87,-0.14,5.97
1455211408976303100,49,0,/imu_data_acquisition2,44801.0,-0.13818359375,0.0243530273438,0.858337402344,0.493530273438,-42.9375,215.625,45.5625,2.37,-1.44,8.19
1455211408987152099,50,0,/imu_data_acquisition2,44811.0,-0.00634765625,-6.103515625e-05,-6.103515625e-05,0.487426757812,-45.0625,312.875,65.8125,-1.01,-1.14,10.93
1455211408998231887,51,0,/imu_data_acquisition2,44822.0,-0.191223144531,0.0478515625,0.855102539062,0.479553222656,-48.1875,373.1875,80.875,0.62,2.02,15.21
1455211409007646083,52,0,/imu_data_acquisition2,44831.0,-0.223205566406,0.0629272460938,0.851745605469,0.469787597656,-49.1875,422.125,95.5,-6.3,-0.66,21.66
1455211409013396024,53,0,/imu_data_acquisition2,44838.0,-0.261657714844,0.0787353515625,0.845031738281,0.459716796875,-76.0625,501.625,77.625,-6.3,-0.66,21.66
1455211409025990962,54,0,/imu_data_acquisition2,44851.0,-0.303649902344,0.0948486328125,0.834411621094,0.450073242188,-87.4375,550.0625,49.5625,-2.35,-0.01,-0.01
1455211409038268089,55,0,/imu_data_acquisition2,44862.0,-0.343383789062,0.107727050781,0.822082519531,0.441223144531,-102.4375,515.9375,22.9375,-1.18,1.47,14.52
1455211409050602912,56,0,/imu_data_acquisition2,44872.0,-0.383544921875,0.119445800781,0.808471679688,0.430114746094,-123.875,522.4375,33.6875,-0.72,0.73,10.34
1455211409056951999,57,0,/imu_data_acquisition2,44880.0,-0.4248046875,0.130126953125,0.79296875,0.416931152344,-146.125,539.1875,37.625,-0.72,0.73,10.34
1455211409067147970,58,0,/imu_data_acquisition2,44891.0,-0.471984863281,0.140625,0.772644042969,0.400634765625,-184.5625,622.5,32.375,-9.06,-1.16,7.55
1455211409075634002,59,0,/imu_data_acquisition2,44900.0,-0.519836425781,0.149536132812,0.7490234375,0.382629394531,-207.625,642.75,23.3125,-27.1,-9.63,24.76
1455211409086741924,60,0,/imu_data_acquisition2,44912.0,-0.554138183594,0.158081054688,0.731079101562,0.365356445312,-154.0,484.3125,63.75,-8.15,-4.47,38.94
1455211409099548101,61,0,/imu_data_acquisition2,44924.0,-0.568542480469,0.164245605469,0.723754882812,0.355041503906,-63.1875,219.0,70.9375,-0.98,-5.13,28.7
1455211409104104995,62,0,/imu_data_acquisition2,44929.0,-0.570739746094,0.167907714844,0.723815917969,0.349426269531,-15.6875,44.5625,68.3125,-0.98,-5.13,28.7
1455211409116461992,63,0,/imu_data_acquisition2,44942.0,-0.566528320312,0.169738769531,0.727661132812,0.347412109375,12.0,-50.125,54.25,2.76,-5.55,12.72
1455211409127793073,64,0,/imu_data_acquisition2,44951.0,-0.558349609375,0.172424316406,0.732727050781,0.348693847656,55.25,-96.25,44.5,3.81,-3.43,7.65
1455211409139085054,65,0,/imu_data_acquisition2,44962.0,-0.54736328125,0.176879882812,0.738159179688,0.3525390625,98.125,-120.375,40.5,3.81,-0.54,3.82
1455211409147233009,66,0,/imu_data_acquisition2,44972.0,-0.535583496094,0.181701660156,0.743286132812,0.357299804688,111.3125,-126.1875,36.125,2.77,-0.24,4.64
1455211409158495903,67,0,/imu_data_acquisition2,44979.0,-0.523986816406,0.185546875,-6.103515625e-05,0.361755371094,100.5,-127.4375,31.5,2.77,-0.24,4.64
1455211409163919925,68,0,/imu_data_acquisition2,44989.0,-0.5126953125,0.187683105469,0.753845214844,0.365539550781,78.8125,-133.125,27.75,2.46,-0.58,5.39
1455211409176508903,69,0,/imu_data_acquisition2,45000.0,-0.501342773438,0.187744140625,0.759887695312,0.368713378906,55.125,-145.125,23.0625,2.28,-1.23,6.26
1455211409189873933,70,0,/imu_data_acquisition2,45012.0,-0.489685058594,0.185852050781,0.766479492188,0.371704101562,36.875,-158.75,17.125,0.76,-3.09,8.7
1455211409198055028,71,0,/imu_data_acquisition2,45022.0,-0.477355957031,0.182495117188,-6.103515625e-05,0.374877929688,27.0,-174.625,9.25,-1.23,-4.46,11.68
1455211409205883026,72,0,/imu_data_acquisition2,45030.0,-0.463684082031,0.177917480469,0.780883789062,0.378967285156,26.1875,-195.625,-0.75,-1.23,-4.46,11.68
1455211409214778900,73,0,/imu_data_acquisition2,45038.0,-0.448120117188,0.172485351562,0.788513183594,0.38427734375,32.1875,-221.4375,-12.0625,-3.09,-4.86,12.51
1455211409224508047,74,0,/imu_data_acquisition2,45049.0,-0.430419921875,0.166259765625,0.79638671875,0.390930175781,42.0,-248.6875,-23.125,-3.96,-4.7,12.04
1455211409237947940,75,0,/imu_data_acquisition2,45062.0,-0.41064453125,0.159484863281,0.804260253906,0.398803710938,51.8125,-273.6875,-33.125,-5.14,-3.28,8.88
1455211409249067068,76,0,/imu_data_acquisition2,45071.0,-0.389221191406,0.152099609375,0.81201171875,0.407409667969,57.8125,-0.0625,-0.0625,-5.14,-3.28,8.88
1455211409254779100,77,0,/imu_data_acquisition2,45080.0,-0.36669921875,0.143981933594,0.819458007812,0.416259765625,58.4375,-305.6875,-46.25,-5.5,-3.01,8.31
1455211409265914916,78,0,/imu_data_acquisition2,45090.0,-0.343688964844,0.135192871094,0.826416015625,0.425048828125,54.5,-311.875,-49.5625,-5.8,-3.03,8.14
1455211409274359941,79,0,/imu_data_acquisition2,45098.0,-0.320617675781,0.125732421875,0.832763671875,0.433471679688,47.75,-313.125,-52.0,-1.05,-0.01,-0.01
1455211409287127017,80,0,/imu_data_acquisition2,45112.0,-0.297668457031,0.115661621094,0.838439941406,0.441650390625,40.9375,-311.8125,-55.3125,-7.09,-3.4,9.65
1455211409299680948,81,0,/imu_data_acquisition2,45124.0,-0.27490234375,0.105041503906,0.843383789062,0.449523925781,34.25,-309.8125,-58.5,-7.67,-3.17,10.77
1455211409307461023,82,0,/imu_data_acquisition2,45130.0,-0.252319335938,0.0938720703125,0.847717285156,0.457092285156,27.75,-308.3125,-61.25,-7.67,-3.17,10.77
1455211409315610885,83,0,/imu_data_acquisition2,45140.0,-0.230041503906,0.0822143554688,0.851318359375,0.46435546875,21.3125,-306.0,-63.1875,-7.85,-2.97,11.82
1455211409326592922,84,0,/imu_data_acquisition2,45150.0,-0.208190917969,0.070068359375,0.854248046875,0.471130371094,13.75,-301.625,-64.1875,-7.93,-3.02,12.61
1455211409337392091,85,0,/imu_data_acquisition2,45161.0,-0.186889648438,0.0576171875,0.856567382812,0.4775390625,6.25,-295.625,-65.125,-7.97,-2.9,13.3
1455211409347790956,86,0,/imu_data_acquisition2,45173.0,-0.166259765625,0.0447998046875,0.858215332031,0.483581542969,-0.8125,-289.625,-65.8125,-7.98,-2.33,15.56
1455211409355895996,87,0,/imu_data_acquisition2,45180.0,-0.146179199219,0.03173828125,0.859313964844,0.489135742188,-7.6875,-283.875,-65.5625,-7.98,-2.33,15.56
1455211409365134954,88,0,/imu_data_acquisition2,45188.0,-0.126770019531,0.0184936523438,0.85986328125,0.494140625,-13.8125,-277.0,-63.4375,-8.36,-2.17,17.15
1455211409375327110,89,0,/imu_data_acquisition2,45200.0,-0.108093261719,0.00518798828125,0.860107421875,0.49853515625,-19.8125,-269.8125,-58.875,-9.15,-2.28,19.49
1455211409388869047,90,0,/imu_data_acquisition2,45213.0,-0.0897827148438,-0.00830078125,0.860046386719,0.502136230469,-24.0,-266.1875,-53.375,-11.34,-2.79,24.38
1455211409402342081,91,0,/imu_data_acquisition2,45223.0,-0.0709838867188,-0.0220336914062,0.85986328125,0.505065917969,-25.375,-272.25,-47.0625,-12.62,-3.33,26.42
1455211409407661914,92,0,/imu_data_acquisition2,45233.0,-0.0511474609375,-0.0361938476562,0.859558105469,0.507202148438,-23.5,-286.1875,-40.6875,-1.22,-0.01,-0.01
1455211409416893005,93,0,/imu_data_acquisition2,45239.0,-0.0294799804688,-0.0505981445312,0.859130859375,0.508422851562,-15.9375,-306.0,-33.125,-15.98,-3.46,24.72
1455211409423973083,94,0,/imu_data_acquisition2,45249.0,-0.0059814453125,-0.0648803710938,0.858642578125,0.508361816406,-4.3125,-325.125,-21.1875,-16.79,-2.7,21.95
1455211409437150955,95,0,/imu_data_acquisition2,45262.0,0.0186767578125,-0.0789184570312,0.858337402344,0.506591796875,5.375,-336.25,-3.9375,-17.43,-1.86,18.28
1455211409446875095,96,0,/imu_data_acquisition2,45270.0,0.0433959960938,-0.0928955078125,0.858215332031,0.5029296875,6.6875,-339.125,16.3125,-17.78,-0.84,9.54
1455211409454133987,97,0,/imu_data_acquisition2,45279.0,0.0670776367188,-0.107055664062,0.858276367188,0.497375488281,-0.4375,-331.25,38.1875,-17.71,-0.16,5.04
1455211409467576026,98,0,/imu_data_acquisition2,45289.0,0.0882568359375,-0.121826171875,0.8583984375,0.490417480469,-19.5625,-310.5625,56.75,-17.71,-0.15,1.05
1455211409476089954,99,0,/imu_data_acquisition2,45299.0,0.105529785156,-0.1376953125,0.858215332031,0.483093261719,-53.375,-278.4375,64.5625,-18.12,-3.51,-5.42
1455211409489125967,100,0,/imu_data_acquisition2,45313.0,0.118591308594,-0.154235839844,0.857116699219,0.476928710938,-87.25,-238.9375,55.5,-19.69,-4.33,-7.47
1455211409499155044,101,0,/imu_data_acquisition2,45322.0,0.127868652344,-0.0134887695312,-6.103515625e-05,0.473205566406,-104.1875,-191.75,30.5,-22.51,-5.31,-9.34
1455211409581226110,102,0,/imu_data_acquisition2,45328.0,0.13427734375,-0.182495117188,0.851745605469,0.472412109375,-98.375,-142.625,-2.8125,-23.41,-7.39,-11.88
1455211409584423065,103,0,/imu_data_acquisition2,45340.0,0.139282226562,-0.189208984375,0.849060058594,0.473205566406,-46.375,-90.4375,-24.125,-17.74,-1.28,-16.42
1455211409585619926,104,0,/imu_data_acquisition2,45351.0,0.142578125,-0.1875,0.848510742188,0.473876953125,33.0,-23.1875,-19.9375,-14.5,2.64,-13.63
1455211409586831092,105,0,/imu_data_acquisition2,45361.0,0.141418457031,-0.179992675781,0.850219726562,0.473999023438,72.5625,56.8125,-1.0625,-12.97,4.3,-7.08
1455211409589009046,106,0,/imu_data_acquisition2,45370.0,-6.103515625e-05,-6.103515625e-05,-6.103515625e-05,0.473754882812,66.625,128.0625,19.125,17.03,-0.01,-0.01
1455211409590441942,107,0,/imu_data_acquisition2,45378.0,0.123413085938,-0.154357910156,0.857177734375,0.4755859375,102.9375,212.4375,-0.875,-0.8,-4.18,24.21
1455211409592617988,108,0,/imu_data_acquisition2,45388.0,0.109252929688,-0.13232421875,0.861755371094,0.477478027344,149.6875,277.625,0.125,-4.1,2.9,23.32
1455211409594193935,109,0,/imu_data_acquisition2,45398.0,0.0980224609375,-0.112609863281,0.865173339844,0.478759765625,141.125,232.375,-1.3125,1.61,0.09,3.19
1455211409596961975,110,0,/imu_data_acquisition2,45408.0,0.0844116210938,-0.0985107421875,0.866638183594,0.481750488281,65.75,225.0,-20.5,0.03,0.8,1.88
1455211409599509000,111,0,/imu_data_acquisition2,45419.0,0.06689453125,-0.0866088867188,0.86669921875,0.486633300781,17.25,253.375,-41.1875,0.0,4.52,1.78
1455211409604541063,112,0,/imu_data_acquisition2,45430.0,0.0469970703125,-0.0755004882812,0.866333007812,0.491455078125,-4.75,273.1875,-39.6875,-1.75,11.16,7.03
1455211409613367080,113,0,/imu_data_acquisition2,45438.0,0.0242309570312,-0.0657958984375,0.8662109375,0.494689941406,-34.875,292.8125,-19.375,-13.26,13.35,26.82
1455211409624977111,114,0,/imu_data_acquisition2,45450.0,0.0009765625,-0.0584106445312,0.866577148438,0.49560546875,-60.3125,282.75,9.0625,-10.89,11.11,-0.01
1455211409640062093,115,0,/imu_data_acquisition2,45463.0,-0.0187377929688,-0.0537719726562,0.86767578125,0.493835449219,-67.5625,228.375,37.875,-5.57,2.45,18.51
1455211409645966053,116,0,/imu_data_acquisition2,45471.0,-0.0361328125,-0.0505981445312,0.869018554688,0.490905761719,-68.5,195.4375,49.8125,-6.74,-32.75,26.93
1455211409657013893,117,0,/imu_data_acquisition2,45481.0,-0.0508422851562,-0.0452880859375,0.869140625,0.489868164062,-31.0625,180.8125,22.6875,-14.36,-24.74,23.84
1455211409665783882,118,0,/imu_data_acquisition2,45488.0,-0.05810546875,-0.03662109375,0.86865234375,0.490661621094,46.75,126.125,-2.1875,-4.01,-1.9,12.39
1455211409674612998,119,0,/imu_data_acquisition2,45499.0,-0.0592651367188,-0.0266723632812,0.868469238281,0.491455078125,96.6875,69.875,-1.9375,-5.48,14.92,19.96
1455211409687619924,120,0,/imu_data_acquisition2,45510.0,-0.0601806640625,-0.0205078125,0.868469238281,0.491577148438,57.5625,45.6875,3.375,-4.01,-0.83,15.33
1455211409697470903,121,0,/imu_data_acquisition2,45519.0,-0.06201171875,-0.0208129882812,0.868408203125,0.491516113281,-13.75,16.5,0.6875,-1.5,-8.57,11.41
1455211409708004951,122,0,/imu_data_acquisition2,45533.0,-0.0628051757812,-0.0213012695312,0.868347167969,0.491455078125,-9.75,5.5,-0.375,-1.82,1.49,11.63
1455211409716939926,123,0,/imu_data_acquisition2,45539.0,-0.0630493164062,-0.021240234375,0.868530273438,0.491088867188,-0.9375,2.9375,4.875,-1.3,-0.2,12.24
1455211409728290081,124,0,/imu_data_acquisition2,45549.0,-0.0633544921875,-0.0211791992188,0.868713378906,0.49072265625,-0.9375,2.9375,4.875,-1.3,-1.65,11.18
1455211409736247062,125,0,/imu_data_acquisition2,45561.0,-0.0635986328125,-0.021484375,0.868835449219,0.490539550781,-5.0625,0.625,2.3125,-1.0,-2.06,10.9
1455211409745610952,126,0,/imu_data_acquisition2,45569.0,-0.063720703125,-0.0216674804688,0.868896484375,0.490356445312,-2.3125,0.3125,2.1875,-0.46,-0.15,10.1
1455211409753494977,127,0,/imu_data_acquisition2,45578.0,-0.0638427734375,-0.0216064453125,0.869018554688,0.490173339844,-0.625,1.625,2.5625,-0.9,-0.83,10.45
1455211409765486001,128,0,/imu_data_acquisition2,45589.0,-0.06396484375,-0.0216064453125,0.869079589844,0.490051269531,-0.6875,1.25,2.0,-0.67,-1.4,10.19
1455211409777585029,129,0,/imu_data_acquisition2,45599.0,-0.0640869140625,-0.0216064453125,0.869140625,0.489868164062,-0.6875,1.25,2.0,-0.84,-1.39,9.86
1455211409783864021,130,0,/imu_data_acquisition2,45608.0,-0.064208984375,-0.0216064453125,0.869201660156,0.48974609375,-0.625,1.375,1.625,-1.06,-0.91,-0.01
1455211409795722007,131,0,/imu_data_acquisition2,45619.0,-0.0643310546875,-0.0215454101562,0.869262695312,0.489685058594,-0.5625,0.875,0.9375,-1.04,-0.52,10.22
1455211409807389974,132,0,/imu_data_acquisition2,45629.0,-0.0643310546875,-0.0216064453125,0.869262695312,0.489685058594,-1.1875,0.25,0.1875,-0.98,-0.81,10.14
1455211409813756942,133,0,/imu_data_acquisition2,45639.0,-0.0643920898438,-0.021728515625,0.869201660156,0.48974609375,-1.6875,-0.4375,-0.875,-1.14,-1.37,10.12
1455211409825103044,134,0,/imu_data_acquisition2,45649.0,-0.0643920898438,-0.0219116210938,0.869201660156,0.489807128906,-1.3125,-1.0,-0.9375,-0.98,-1.51,10.17
1455211409835165977,135,0,/imu_data_acquisition2,45659.0,-0.0643310546875,-0.0220336914062,0.869140625,0.489868164062,-0.875,-1.3125,-1.0,-0.82,-1.28,9.75
1455211409843677043,136,0,/imu_data_acquisition2,45669.0,-0.0642700195312,-0.0220336914062,0.869140625,0.489868164062,-0.5,-1.0,-0.3125,-1.0,-1.07,10.13
1455211409854945898,137,0,/imu_data_acquisition2,45679.0,-0.0641479492188,-0.0220947265625,0.869140625,0.489868164062,-0.5625,-1.1875,-0.1875,-0.96,-0.97,9.8
1455211409870337009,138,0,/imu_data_acquisition2,45689.0,-0.0640258789062,-0.022216796875,0.869140625,0.489868164062,-0.5,-1.875,-0.25,-1.07,-1.05,9.99
1455211409875205993,139,0,/imu_data_acquisition2,45700.0,-0.0639038085938,-0.0222778320312,0.869140625,0.489868164062,-0.5,-1.875,-0.1875,-0.96,-1.21,9.78
1455211409886451959,140,0,/imu_data_acquisition2,45709.0,-0.0638427734375,-0.0223388671875,0.869201660156,0.489868164062,-0.5625,-1.5,-0.0625,-1.16,-0.01,-0.01
1455211409894635915,141,0,/imu_data_acquisition2,45718.0,-0.063720703125,-0.0223999023438,0.869201660156,0.489868164062,-0.125,-1.5625,0.125,-0.88,-0.01,-0.01
1455211409904882907,142,0,/imu_data_acquisition2,45729.0,-0.0636596679688,-0.0224609375,0.869201660156,0.489868164062,-0.25,-0.75,0.25,-1.07,-0.92,9.84
1455211409916243076,143,0,/imu_data_acquisition2,45740.0,-0.0636596679688,-0.0223999023438,0.869201660156,0.489868164062,-0.375,-0.4375,0.3125,-1.05,-0.91,9.6
1455211409924350023,144,0,/imu_data_acquisition2,45748.0,-0.0637817382812,-0.0224609375,0.869201660156,0.489868164062,-0.625,0.4375,0.5625,-1.13,-1.15,9.7
1455211409934592008,145,0,/imu_data_acquisition2,45759.0,-0.0639038085938,-0.0224609375,0.869201660156,0.489807128906,-0.3125,0.0,0.4375,-1.06,-1.17,9.35
1455211409946110963,146,0,/imu_data_acquisition2,45770.0,-0.0640869140625,-0.0223999023438,0.869140625,0.489807128906,-0.1875,0.875,0.5,-1.07,-1.13,9.92
1455211409955255031,147,0,/imu_data_acquisition2,45778.0,-0.064208984375,-0.0223388671875,0.869201660156,0.48974609375,0.125,0.9375,0.875,-1.05,-0.95,9.62
1455211409965130090,148,0,/imu_data_acquisition2,45790.0,-0.0643310546875,-0.0222778320312,0.869201660156,0.489685058594,0.1875,0.875,0.75,-1.13,-0.96,9.81
1455211409976819992,149,0,/imu_data_acquisition2,45800.0,-0.0645751953125,-0.0221557617188,0.869262695312,0.489624023438,-0.0625,0.75,0.625,-1.31,-0.97,9.42
1455211409983433961,150,0,/imu_data_acquisition2,45808.0,-0.0648193359375,-0.0220947265625,0.869201660156,0.489624023438,-0.125,1.3125,0.4375,-1.06,-1.32,10.24
1455211409995500087,151,0,/imu_data_acquisition2,45819.0,-0.0650024414062,-0.0220336914062,0.869201660156,0.489624023438,0.25,1.25,0.3125,-1.04,-1.02,9.22
1455211410006074905,152,0,/imu_data_acquisition2,45830.0,-0.065185546875,-0.02197265625,0.869262695312,0.489562988281,0.5625,1.8125,0.875,-0.95,-1.18,9.82
1455211410014578104,153,0,/imu_data_acquisition2,45839.0,-0.0652465820312,-0.0217895507812,0.869262695312,0.489501953125,1.3125,2.125,1.25,-0.79,-1.09,9.47
1455211410025530099,154,0,/imu_data_acquisition2,45850.0,-0.0654907226562,-0.021484375,0.869323730469,0.489379882812,1.875,3.5625,1.8125,-1.17,-1.22,9.95
1455211410035556077,155,0,/imu_data_acquisition2,45860.0,-0.0656127929688,-0.0211181640625,0.869445800781,0.4892578125,2.5,3.6875,2.125,-0.91,-1.02,9.63
1455211410052994012,156,0,/imu_data_acquisition2,45876.0,-0.0660400390625,-0.0206909179688,0.869506835938,0.489074707031,2.625,5.5625,2.5625,-1.22,-1.09,9.74
1455211410058653116,157,0,/imu_data_acquisition2,45884.0,-0.0663452148438,-0.020263671875,0.869567871094,0.488891601562,2.625,5.625,2.5625,-1.03,-0.96,10.19
1455211410065396070,158,0,/imu_data_acquisition2,45889.0,-0.066650390625,-0.019775390625,0.86962890625,0.48876953125,2.6875,6.0625,2.0625,-0.91,-0.88,9.51
1455211410074446916,159,0,/imu_data_acquisition2,45899.0,-0.067138671875,-0.019287109375,0.869689941406,0.488647460938,2.375,7.5,1.9375,-1.44,-0.97,10.16
1455211410086910009,160,0,/imu_data_acquisition2,45910.0,-0.0674438476562,-0.018798828125,0.869689941406,0.488586425781,2.9375,6.1875,1.1875,-0.87,-0.88,9.61
1455211410096292972,161,0,/imu_data_acquisition2,45919.0,-0.0679321289062,-0.0182495117188,0.869689941406,0.488525390625,2.75,8.1875,1.3125,-1.24,-1.22,9.31
1455211410105256080,162,0,/imu_data_acquisition2,45930.0,-0.0059814453125,-6.103515625e-05,-6.103515625e-05,0.488464355469,3.25,8.75,1.3125,-1.02,-0.9,9.29
1455211410115792036,163,0,/imu_data_acquisition2,45939.0,-0.0691528320312,-0.0169677734375,0.869750976562,0.488342285156,3.0625,11.1875,2.0,-1.22,-1.0,10.03
1455211410124181985,164,0,/imu_data_acquisition2,45948.0,-0.0698852539062,-0.0161743164062,0.869750976562,0.488220214844,3.375,11.875,2.5,-1.23,-1.12,9.71
1455211410135082960,165,0,/imu_data_acquisition2,45959.0,-0.0708618164062,-0.0153198242188,0.869812011719,0.488037109375,4.25,12.5,2.5625,-1.52,-1.19,9.63
1455211410147054910,166,0,/imu_data_acquisition2,45969.0,-0.0716552734375,-0.0144653320312,0.869873046875,0.487854003906,4.375,13.375,3.0625,-1.14,-1.23,10.08
1455211410155560970,167,0,/imu_data_acquisition2,45979.0,-0.072509765625,-0.0134887695312,0.869934082031,0.487670898438,4.9375,14.1875,3.5625,-1.21,-1.1,9.51
1455211410165143966,168,0,/imu_data_acquisition2,45990.0,-0.0734252929688,-0.0123901367188,0.869995117188,0.487426757812,5.125,15.9375,4.0625,-1.59,-1.36,9.85
1455211410177035093,169,0,/imu_data_acquisition2,45999.0,-0.0745849609375,-0.0114135742188,0.869995117188,0.487243652344,5.8125,16.75,3.0,-1.12,-1.23,9.98
1455211410185941934,170,0,/imu_data_acquisition2,46009.0,-0.0756225585938,-0.0101928710938,0.869934082031,0.487182617188,6.4375,17.8125,1.5,-1.24,-0.77,9.62
1455211410195497035,171,0,/imu_data_acquisition2,46019.0,-0.0767211914062,-0.00897216796875,0.870056152344,0.486877441406,6.0,18.3125,4.4375,-1.53,-0.9,10.38
1455211410207669019,172,0,/imu_data_acquisition2,46030.0,-0.0779418945312,-0.00775146484375,0.8701171875,0.486633300781,4.9375,19.3125,4.4375,-0.92,-0.71,9.73
1455211410214283943,173,0,/imu_data_acquisition2,46039.0,-0.0794677734375,-0.0064697265625,0.8701171875,0.486389160156,4.3125,23.3125,4.0,-0.94,-0.47,10.11
1455211410225116014,174,0,/imu_data_acquisition2,46049.0,-0.0814819335938,-0.00494384765625,0.870056152344,0.486206054688,3.875,28.875,2.875,-1.05,-0.01,-0.01
1455211410238114118,175,0,/imu_data_acquisition2,46060.0,-0.083740234375,-0.00335693359375,0.869873046875,0.486145019531,3.5,33.125,1.3125,-0.82,0.13,10.04
1455211410243550062,176,0,/imu_data_acquisition2,46068.0,-0.0863647460938,-0.00152587890625,0.869567871094,0.486145019531,3.75,37.8125,0.125,-1.1,-1.3,9.67
1455211410255316019,177,0,/imu_data_acquisition2,46079.0,-0.089111328125,0.00054931640625,0.869201660156,0.486389160156,5.125,40.5625,-2.5,-0.68,-0.67,10.58
1455211410267766952,178,0,/imu_data_acquisition2,46089.0,-0.0913696289062,0.002685546875,0.868530273438,0.487121582031,8.5625,41.625,-8.8125,-1.34,-0.62,10.0
1455211410274919033,179,0,/imu_data_acquisition2,46099.0,-0.0940551757812,0.0050048828125,0.867553710938,0.48828125,9.375,42.25,-15.25,-1.87,-0.88,8.72
1455211410286392927,180,0,/imu_data_acquisition2,46110.0,-0.0968627929688,0.0068359375,0.866333007812,0.489990234375,4.4375,40.8125,-22.4375,-1.18,-0.95,9.63
1455211410294876098,181,0,/imu_data_acquisition2,46119.0,-0.0999145507812,0.00830078125,0.865112304688,0.491516113281,-0.625,40.8125,-21.375,-2.18,-1.76,9.99
1455211410304522991,182,0,/imu_data_acquisition2,46129.0,-0.103210449219,0.009521484375,0.864196777344,0.492370605469,-5.4375,41.8125,-12.75,-0.77,-0.83,9.87
1455211410316737890,183,0,/imu_data_acquisition2,46141.0,-0.10693359375,0.0106811523438,0.863708496094,0.492370605469,-9.9375,45.125,-2.3125,0.36,-1.22,-0.01
1455211410324888944,184,0,/imu_data_acquisition2,46149.0,-0.112426757812,0.0125122070312,0.863220214844,0.491943359375,-13.875,67.25,3.1875,-2.27,-0.83,9.22
1455211410334507942,185,0,/imu_data_acquisition2,46159.0,-0.118835449219,0.01416015625,0.8623046875,0.492065429688,-20.4375,76.6875,-5.5,-0.63,-1.28,9.61
1455211410345949888,186,0,/imu_data_acquisition2,46170.0,-0.129211425781,0.017578125,0.861328125,0.491027832031,-26.5,127.375,8.3125,6.61,-0.76,7.43
1455211410358092069,187,0,/imu_data_acquisition2,46180.0,-0.147644042969,0.025146484375,0.8603515625,0.487182617188,-35.4375,234.125,41.4375,2.54,-1.62,8.35
1455211410363908052,188,0,/imu_data_acquisition2,46189.0,-0.171264648438,0.0359497070312,0.859252929688,0.480651855469,-37.375,306.6875,71.9375,-1.44,-0.56,10.93
1455211410376384019,189,0,/imu_data_acquisition2,46201.0,-0.197875976562,0.048583984375,0.857482910156,0.472412109375,-39.1875,350.0,88.0,-0.45,0.26,-0.01
1455211410384558916,190,0,/imu_data_acquisition2,46209.0,-0.228393554688,0.062255859375,0.854309082031,0.462707519531,-52.8125,399.875,95.5625,2.2,2.17,14.02
1455211410398780107,191,0,/imu_data_acquisition2,46223.0,-0.266052246094,0.0764770507812,0.847839355469,0.452270507812,-85.5,484.25,80.8125,-5.91,-0.56,18.11
1455211410407321929,192,0,/imu_data_acquisition2,46231.0,-0.306213378906,0.0900268554688,0.838195800781,0.442199707031,-101.9375,515.4375,55.5,-6.07,-0.22,21.99
1455211410414892911,193,0,/imu_data_acquisition2,46239.0,-0.344177246094,0.100280761719,0.827270507812,0.432556152344,-120.5625,480.875,35.625,-3.34,-0.09,18.27
1455211410424271106,194,0,/imu_data_acquisition2,46249.0,-0.38232421875,0.110656738281,0.815368652344,0.42041015625,-129.625,490.375,54.9375,-2.57,-0.8,14.23
1455211410437402009,195,0,/imu_data_acquisition2,46261.0,-0.421691894531,0.121398925781,0.801513671875,0.406188964844,-138.25,515.375,65.375,4.5,1.85,10.81
1455211410444526910,196,0,/imu_data_acquisition2,46268.0,-0.466186523438,0.132995605469,0.783142089844,0.389404296875,-161.6875,594.625,64.5,-4.03,0.36,10.51
1455211410455291032,197,0,/imu_data_acquisition2,46280.0,-0.513061523438,0.143859863281,0.760620117188,0.370849609375,-182.125,639.3125,54.6875,-9.08,-1.92,6.96
1455211410466028928,198,0,/imu_data_acquisition2,46290.0,-0.551513671875,0.154541015625,0.740356445312,0.351867675781,-153.8125,549.3125,81.3125,-19.48,-7.84,39.81
1455211410475688934,199,0,/imu_data_acquisition2,46299.0,-0.568969726562,0.162292480469,0.731323242188,0.33935546875,-69.8125,266.9375,90.375,-11.3,-6.12,39.81
1455211410486177921,200,0,/imu_data_acquisition2,46311.0,-0.572265625,0.167236328125,0.730895996094,0.33203125,-19.0625,65.4375,88.875,-8.0,-6.12,39.24
1455211410495764017,201,0,/imu_data_acquisition2,46319.0,-0.00457763671875,-6.103515625e-05,-6.103515625e-05,0.328796386719,0.9375,-67.8125,68.5625,2.82,-6.56,19.76
1455211410506046056,202,0,/imu_data_acquisition2,46329.0,-0.557800292969,0.169311523438,0.742980957031,0.328918457031,28.5625,-124.9375,48.75,3.03,-6.57,12.09
1455211410515378952,203,0,/imu_data_acquisition2,46340.0,-0.545715332031,0.171142578125,0.750122070312,0.33203125,68.8125,-152.5,36.375,4.49,-4.94,6.52
1455211410526113986,204,0,/imu_data_acquisition2,46350.0,-0.532897949219,0.173889160156,0.756530761719,0.336791992188,93.125,-154.25,26.5,4.64,-3.11,3.48
1455211410534522056,205,0,/imu_data_acquisition2,46359.0,-0.532897949219,0.173889160156,0.756530761719,0.336791992188,89.5,-145.625,16.625,4.29,-1.08,2.46
1455211410545780897,206,0,/imu_data_acquisition2,46370.0,-0.509643554688,0.176940917969,0.767395019531,0.346496582031,69.0625,-138.5625,7.5,3.34,-1.12,4.3
1455211410558547019,207,0,/imu_data_acquisition2,46380.0,-0.498962402344,0.175720214844,0.772827148438,0.3505859375,45.875,-143.8125,-0.625,2.48,-1.53,6.47
1455211410564954042,208,0,/imu_data_acquisition2,46389.0,-0.498962402344,0.175720214844,0.772827148438,0.3505859375,27.1875,-159.125,-9.3125,0.98,-2.74,10.5
1455211410576033115,209,0,/imu_data_acquisition2,46400.0,-0.487854003906,0.17236328125,0.778747558594,0.354675292969,16.5625,-180.875,-19.4375,-0.24,-3.77,12.13
1455211410587641954,210,0,/imu_data_acquisition2,46411.0,-0.461669921875,0.160705566406,0.792358398438,0.364929199219,17.25,-208.75,-31.5625,-1.4,-4.54,12.97
1455211410594743967,211,0,/imu_data_acquisition2,46419.0,-0.461669921875,0.160705566406,0.792358398438,0.364929199219,27.8125,-240.125,-44.0625,-2.81,-4.43,12.17
1455211410606740951,212,0,/imu_data_acquisition2,46430.0,-0.445251464844,0.153442382812,0.7998046875,0.372131347656,41.625,-266.75,-54.125,-3.45,-3.69,11.21
1455211410616527080,213,0,/imu_data_acquisition2,46440.0,-0.426513671875,0.145751953125,0.807373046875,0.380737304688,51.875,-285.5625,-60.875,-4.09,-2.8,10.42
1455211410624692916,214,0,/imu_data_acquisition2,46450.0,-0.406005859375,0.137878417969,0.814819335938,0.39013671875,55.8125,-298.625,-63.6875,-4.67,-1.53,8.86
1455211410636579036,215,0,/imu_data_acquisition2,46460.0,-0.384216308594,0.129699707031,0.822021484375,0.399780273438,55.0,-305.625,-62.8125,-4.93,-1.17,8.57
1455211410647622108,216,0,/imu_data_acquisition2,46470.0,-0.361694335938,0.12109375,0.828918457031,0.409118652344,51.25,-0.0625,-0.0625,-5.22,-0.94,8.76
1455211410654750108,217,0,/imu_data_acquisition2,46480.0,-0.338806152344,0.112121582031,0.83544921875,0.417907714844,45.3125,-310.25,-55.5625,-5.54,-0.65,9.19
1455211410666932106,218,0,/imu_data_acquisition2,46490.0,-0.315734863281,0.102783203125,0.841674804688,0.425903320312,38.1875,-311.1875,-50.375,-6.27,-0.56,10.42
1455211410677424907,219,0,/imu_data_acquisition2,46500.0,-0.292541503906,0.0928955078125,0.847473144531,0.433044433594,30.1875,-312.5625,-45.125,-6.51,-0.61,11.01
1455211410685230970,220,0,/imu_data_acquisition2,46510.0,-0.269348144531,0.08251953125,0.85302734375,0.439331054688,22.0,-313.625,-40.5,-6.73,-0.94,11.48
1455211410696908950,221,0,/imu_data_acquisition2,46520.0,-0.24609375,0.0714721679688,0.858215332031,0.444763183594,16.4375,-312.625,-37.375,-6.79,-2.06,12.32
1455211410710016965,222,0,/imu_data_acquisition2,46532.0,-0.200073242188,0.0487670898438,0.866943359375,0.453918457031,14.4375,-308.5625,-36.5625,-6.88,-2.35,13.13
1455211410716489076,223,0,/imu_data_acquisition2,46541.0,-0.177429199219,0.0376586914062,0.870239257812,0.4580078125,15.25,-302.5625,-37.25,-7.01,-2.24,14.25
1455211410727063894,224,0,/imu_data_acquisition2,46550.0,-0.177429199219,0.0376586914062,0.870239257812,0.4580078125,15.6875,-297.1875,-38.1875,-7.6,-1.78,16.48
1455211410738737106,225,0,/imu_data_acquisition2,46561.0,-0.014404296875,-6.103515625e-05,-6.103515625e-05,0.461853027344,14.875,-294.1875,-37.6875,-7.73,-1.7,16.74
1455211410745136976,226,0,/imu_data_acquisition2,46570.0,-0.1328125,0.015869140625,0.875,0.46533203125,12.5625,-289.75,-35.5625,-7.64,-1.61,16.61
1455211410757643938,227,0,/imu_data_acquisition2,46580.0,-6.103515625e-05,-6.103515625e-05,-6.103515625e-05,0.468322753906,8.6875,-279.6875,-31.75,-8.09,-1.17,17.41
1455211410766894102,228,0,/imu_data_acquisition2,46589.0,-0.08984375,-0.0057373046875,0.877685546875,0.470764160156,8.6875,-279.6875,-31.75,-9.43,-1.27,19.39
1455211410775336027,229,0,/imu_data_acquisition2,46600.0,-6.103515625e-05,-6.103515625e-05,-6.103515625e-05,0.472473144531,0.75,-263.1875,-26.1875,-11.49,-2.05,-0.01
1455211410788697004,230,0,/imu_data_acquisition2,46610.0,-0.0523071289062,-0.0270385742188,0.87890625,0.473388671875,-13.25,-237.5625,-10.75,-14.41,-3.23,25.48
1455211410795100927,231,0,/imu_data_acquisition2,46620.0,-0.03515625,-0.0375366210938,0.879272460938,0.473510742188,-7.4375,-243.125,1.5,-22.18,-5.71,31.49
1455211410807389020,232,0,/imu_data_acquisition2,46631.0,-0.0173950195312,-0.0477905273438,0.8798828125,0.472473144531,4.5625,-271.5625,14.9375,-25.05,-6.07,30.66
1455211410820012092,233,0,/imu_data_acquisition2,46640.0,0.0029296875,-0.0582885742188,0.880615234375,0.470153808594,4.5625,-271.5625,14.9375,-26.05,-5.74,25.51
1455211410825074911,234,0,/imu_data_acquisition2,46650.0,0.0270385742188,-0.0696411132812,0.881408691406,0.466369628906,19.3125,-354.625,40.8125,-24.19,-3.94,7.45
1455211410836360931,235,0,/imu_data_acquisition2,46661.0,0.053955078125,-0.082275390625,0.881958007812,0.460998535156,3.625,-357.6875,46.1875,-21.85,-3.91,-1.91
1455211410850142955,236,0,/imu_data_acquisition2,46671.0,0.0803833007812,-0.0960693359375,0.881713867188,0.454833984375,-28.25,-321.25,35.4375,-19.25,-5.05,-9.58
1455211410855860948,237,0,/imu_data_acquisition2,46681.0,0.102905273438,-0.110717773438,0.88037109375,0.449584960938,-53.1875,-255.3125,9.125,-18.16,-7.26,-16.57
1455211410867105007,238,0,/imu_data_acquisition2,46692.0,0.130981445312,-0.134643554688,0.874450683594,0.447265625,-52.625,-174.625,-23.3125,-19.7,-6.44,-15.56
1455211410875987052,239,0,/imu_data_acquisition2,46699.0,0.130981445312,-0.134643554688,0.874450683594,0.447265625,-52.625,-174.625,-23.3125,-19.7,-6.44,-15.56
1455211410885205984,240,0,/imu_data_acquisition2,46710.0,0.137451171875,-0.139770507812,0.871154785156,0.450256347656,12.5,-29.4375,-61.6875,-22.16,-3.54,-10.02
1455211410897475957,241,0,/imu_data_acquisition2,46721.0,0.140808105469,-0.139221191406,0.868591308594,0.454284667969,49.5,20.0,-53.625,-17.54,0.1,-8.42
1455211410908822059,242,0,/imu_data_acquisition2,46731.0,0.141845703125,-0.134155273438,0.867309570312,0.457824707031,67.25,93.625,-40.375,-8.72,-4.27,-23.24
1455211410915160894,243,0,/imu_data_acquisition2,46740.0,0.138061523438,-0.125122070312,0.867614746094,0.461059570312,67.25,93.625,-40.375,-0.24,-0.95,-1.76
1455211410926304101,244,0,/imu_data_acquisition2,46750.0,0.124816894531,-0.108459472656,0.869323730469,0.465759277344,93.875,237.0625,-46.375,4.97,12.05,17.27
1455211410939101934,245,0,/imu_data_acquisition2,46761.0,0.112976074219,-0.0892944335938,0.871520996094,0.468688964844,44.4375,222.625,-50.875,7.13,6.81,16.24
1455211410945635080,246,0,/imu_data_acquisition2,46771.0,0.0987548828125,-0.0767211914062,0.871826171875,0.4736328125,-55.75,245.4375,-77.125,-1.62,4.22,9.0
1455211410957559108,247,0,/imu_data_acquisition2,46782.0,0.0789184570312,-0.0703125,0.870178222656,0.481262207031,-85.5625,251.0625,-70.6875,0.77,8.2,-2.6
1455211410965224981,248,0,/imu_data_acquisition2,46788.0,-6.103515625e-05,-6.103515625e-05,-6.103515625e-05,0.488342285156,-85.5625,251.0625,-70.6875,0.77,8.2,-2.6
1455211410975253105,249,0,/imu_data_acquisition2,46800.0,0.0341796875,-0.0594482421875,0.867736816406,0.492309570312,-62.1875,305.5625,4.9375,-13.57,9.47,30.8
1455211410988992929,250,0,/imu_data_acquisition2,46812.0,0.0091552734375,-0.00445556640625,-6.103515625e-05,0.493469238281,-72.625,249.875,24.625,-12.03,4.72,28.77
1455211410998169898,251,0,/imu_data_acquisition2,46821.0,-0.0123291015625,-6.103515625e-05,-6.103515625e-05,0.492736816406,-72.625,249.875,24.625,-0.93,-11.52,13.24
1455211411006479978,252,0,/imu_data_acquisition2,46831.0,-0.0296630859375,-0.043701171875,0.86962890625,0.490844726562,-52.875,185.8125,17.875,-5.25,-24.66,25.07
1455211411016753911,253,0,/imu_data_acquisition2,46840.0,-0.0455932617188,-0.0398559570312,0.86962890625,0.489990234375,-52.875,185.8125,17.875,-17.75,-15.16,30.87
1455211411025995969,254,0,/imu_data_acquisition2,46848.0,-0.0568237304688,-0.0316162109375,0.868774414062,0.490905761719,19.4375,164.25,-4.1875,-17.75,-15.16,30.87
1455211411036000013,255,0,/imu_data_acquisition2,46861.0,-0.0593872070312,-0.0244140625,0.868591308594,0.491333007812,36.875,41.4375,-1.6875,-4.48,10.36,17.59
1455211411047380924,256,0,/imu_data_acquisition2,46871.0,-0.0140380859375,-6.103515625e-05,-6.103515625e-05,0.491760253906,-19.4375,21.375,-0.75,-3.3,-2.48,14.3
1455211411061398029,257,0,/imu_data_acquisition2,46882.0,-0.0632934570312,-0.0205688476562,0.868225097656,0.491760253906,-20.125,8.875,-1.1875,-1.51,-3.13,11.69
1455211411066503047,258,0,/imu_data_acquisition2,46892.0,-0.0653686523438,-0.0211791992188,0.8681640625,0.491455078125,1.4375,8.9375,3.75,-1.8,0.92,12.25
1455211411076502084,259,0,/imu_data_acquisition2,46900.0,-0.0653686523438,-0.0211791992188,0.8681640625,0.491455078125,1.4375,8.9375,3.75,-1.97,-0.24,11.92
1455211411087769985,260,0,/imu_data_acquisition2,46911.0,-0.0657958984375,-0.0209350585938,0.868347167969,0.491088867188,-3.5,0.4375,2.9375,-0.55,-1.9,10.37
1455211411096802949,261,0,/imu_data_acquisition2,46921.0,-0.06591796875,-0.0211791992188,0.868469238281,0.490844726562,-0.6875,-1.0625,2.0,-0.76,-1.09,10.44
1455211411108187913,262,0,/imu_data_acquisition2,46932.0,-0.0658569335938,-0.021240234375,0.868591308594,0.49072265625,1.3125,0.375,2.9375,-0.86,-0.62,10.55
1455211411114871025,263,0,/imu_data_acquisition2,46939.0,-0.0658569335938,-0.0211181640625,0.868713378906,0.490478515625,1.3125,0.375,2.9375,-0.86,-0.62,10.55
1455211411125566005,264,0,/imu_data_acquisition2,46950.0,-0.0657958984375,-0.02099609375,0.868835449219,0.490295410156,1.375,-0.0625,2.6875,-0.75,-1.95,10.47
1455211411138214111,265,0,/imu_data_acquisition2,46962.0,-0.0658569335938,-0.02099609375,0.868896484375,0.490112304688,0.0625,0.8125,2.3125,-0.61,-1.08,9.6
1455211411146877050,266,0,/imu_data_acquisition2,46971.0,-0.06591796875,-0.0209350585938,0.869018554688,0.489990234375,0.6875,1.9375,2.0625,-1.1,-0.62,10.41
1455211411156656026,267,0,/imu_data_acquisition2,46982.0,-0.0660400390625,-0.020751953125,0.869079589844,0.489807128906,0.3125,1.375,1.25,-1.01,-0.45,10.39
1455211411170501947,268,0,/imu_data_acquisition2,46993.0,-0.066162109375,-0.0206909179688,0.869140625,0.48974609375,0.375,0.3125,0.25,-0.85,-0.65,10.19
1455211411176422119,269,0,/imu_data_acquisition2,47001.0,-6.103515625e-05,-6.103515625e-05,-6.103515625e-05,0.48974609375,-0.75,-0.3125,-1.25,-1.34,-0.93,10.01
1455211411186835050,270,0,/imu_data_acquisition2,47012.0,-0.066162109375,-0.020751953125,0.869079589844,0.489807128906,-1.75,-1.375,-1.6875,-0.86,-1.12,9.39
1455211411199832916,271,0,/imu_data_acquisition2,47022.0,-0.066162109375,-0.02099609375,0.869018554688,0.489929199219,-1.75,-1.375,-1.6875,-1.23,-1.15,10.03
1455211411207148075,272,0,/imu_data_acquisition2,47031.0,-0.0660400390625,-0.0211791992188,0.868896484375,0.490051269531,-1.5625,-1.6875,-1.5,-0.79,-1.06,9.91
1455211411216490983,273,0,/imu_data_acquisition2,47041.0,-0.0659790039062,-0.0214233398438,0.868835449219,0.490173339844,-1.5625,-1.6875,-1.5,-0.79,-1.06,9.91
1455211411226466894,274,0,/imu_data_acquisition2,47049.0,-0.06591796875,-0.0216064453125,0.868835449219,0.490234375,-1.5625,-1.75,-1.4375,-0.94,-1.26,-0.01
1455211411235905885,275,0,/imu_data_acquisition2,47061.0,-0.06591796875,-0.0217895507812,0.868774414062,0.490295410156,-1.625,-1.3125,-0.875,-1.14,-1.35,9.74
1455211411248028993,276,0,/imu_data_acquisition2,47073.0,-0.0658569335938,-0.0219116210938,0.868774414062,0.490295410156,-1.5,-1.0,0.0625,-1.13,-1.31,9.68
1455211411258697032,277,0,/imu_data_acquisition2,47083.0,-0.06591796875,-0.0221557617188,0.868774414062,0.490295410156,-1.5,-1.0,0.0625,-0.87,-0.97,9.77
1455211411265230894,278,0,/imu_data_acquisition2,47090.0,-0.06591796875,-0.0222778320312,0.868774414062,0.490295410156,-1.25,-1.3125,0.5,-0.87,-0.97,9.77
1455211411277107000,279,0,/imu_data_acquisition2,47100.0,-0.0657958984375,-0.0223999023438,0.868774414062,0.490295410156,-0.6875,-1.5625,0.25,-0.97,-0.84,9.82
1455211411288733005,280,0,/imu_data_acquisition2,47112.0,-6.103515625e-05,-6.103515625e-05,-6.103515625e-05,0.490295410156,-0.625,-1.1875,0.4375,-1.09,-1.2,9.9
1455211411297395944,281,0,/imu_data_acquisition2,47122.0,-0.0657348632812,-0.022705078125,0.868774414062,0.490234375,-0.9375,-0.8125,-0.1875,-1.02,-1.03,9.56
1455211411309720993,282,0,/imu_data_acquisition2,47133.0,-0.0657348632812,-0.022705078125,0.868774414062,0.490234375,-0.9375,-0.8125,-0.1875,-1.12,-0.95,9.87
1455211411317060947,283,0,/imu_data_acquisition2,47139.0,-0.0658569335938,-0.022705078125,0.868774414062,0.490234375,-0.875,-0.5,-0.0625,-1.12,-0.95,9.87
1455211411326484918,284,0,/imu_data_acquisition2,47151.0,-0.0658569335938,-0.0228271484375,0.868774414062,0.490234375,-1.25,0.125,-0.1875,-1.07,-1.02,9.43
1455211411338591098,285,0,/imu_data_acquisition2,47163.0,-0.0659790039062,-0.00726318359375,-6.103515625e-05,0.490234375,-1.25,0.125,-0.1875,-1.0,-1.22,9.81
1455211411349113941,286,0,/imu_data_acquisition2,47172.0,-0.0661010742188,-0.02294921875,0.868774414062,0.490234375,-1.0625,0.875,0.0,-1.11,-1.15,9.4
1455211411356868028,287,0,/imu_data_acquisition2,47182.0,-0.0662841796875,-0.00732421875,-6.103515625e-05,0.490234375,-0.75,1.0625,0.3125,-0.92,-1.22,9.67
1455211411367094993,288,0,/imu_data_acquisition2,47189.0,-0.0664672851562,-0.0228881835938,0.868774414062,0.490173339844,-0.4375,1.5625,0.625,-0.92,-1.22,9.67
1455211411373989105,289,0,/imu_data_acquisition2,47199.0,-0.0665893554688,-0.0228881835938,0.868774414062,0.490173339844,0.1875,1.5,0.5,-0.71,-1.23,9.78
1455211411385060071,290,0,/imu_data_acquisition2,47209.0,-0.0667724609375,-0.0227661132812,0.868835449219,0.490112304688,0.5625,2.5,1.125,-1.03,-1.02,9.65
1455211411400644063,291,0,/imu_data_acquisition2,47222.0,-0.067138671875,-0.0225219726562,0.868835449219,0.489990234375,1.0625,4.25,1.875,-1.05,-1.31,9.61
1455211411407821893,292,0,/imu_data_acquisition2,47232.0,-0.0674438476562,-0.022216796875,0.868896484375,0.489868164062,1.6875,4.4375,1.875,-1.23,-1.03,9.74
1455211411415704965,293,0,/imu_data_acquisition2,47239.0,-0.0677490234375,-0.0218505859375,0.868957519531,0.48974609375,2.125,5.25,1.9375,-1.23,-1.03,9.74
1455211411428432941,294,0,/imu_data_acquisition2,47250.0,-0.068115234375,-0.0214233398438,0.869018554688,0.489562988281,2.3125,6.125,2.1875,-0.98,-0.95,-0.01
1455211411433912038,295,0,/imu_data_acquisition2,47258.0,-0.0684814453125,-0.0208740234375,0.869079589844,0.489440917969,3.125,6.3125,2.1875,-1.09,-0.01,-0.01
1455211411447192907,296,0,/imu_data_acquisition2,47272.0,-0.0690307617188,-0.020263671875,0.869140625,0.4892578125,3.0625,8.5,2.625,-0.79,-1.09,9.86
1455211411459491968,297,0,/imu_data_acquisition2,47281.0,-0.069580078125,-0.0195922851562,0.869201660156,0.489135742188,3.4375,9.8125,2.6875,-0.79,-1.09,9.86
1455211411464318037,298,0,/imu_data_acquisition2,47289.0,-0.0702514648438,-0.0188598632812,0.869262695312,0.488952636719,4.0625,10.4375,2.75,-1.32,-1.05,9.42
1455211411475456953,299,0,/imu_data_acquisition2,47299.0,-0.0709838867188,-0.0180053710938,0.869323730469,0.48876953125,4.1875,12.5,3.0,-1.1,-1.17,10.07
1455211411489837884,300,0,/imu_data_acquisition2,47312.0,-0.07177734375,-0.01708984375,0.869384765625,0.488586425781,4.5,13.0,3.0625,-1.4,-1.14,9.97
1455211411498986959,301,0,/imu_data_acquisition2,47322.0,-0.0725708007812,-0.01611328125,0.869445800781,0.488403320312,5.3125,13.5,3.4375,-0.93,-1.13,9.48
1455211411659359931,302,0,/imu_data_acquisition2,47332.0,-0.0734252929688,-0.01513671875,0.869506835938,0.488159179688,5.625,14.375,3.8125,-1.54,-1.26,10.08
1455211411661660909,303,0,/imu_data_acquisition2,47339.0,-0.0743408203125,-0.0140991210938,0.869567871094,0.487976074219,6.0,15.3125,3.625,-1.54,-1.26,10.08
1455211411664570093,304,0,/imu_data_acquisition2,47352.0,-0.0752563476562,-0.0131225585938,0.869506835938,0.488037109375,6.1875,15.0625,0.5,-1.56,-1.03,9.79
1455211411666450023,305,0,/imu_data_acquisition2,47360.0,-0.0761108398438,-0.0120239257812,0.869445800781,0.487976074219,7.3125,14.9375,1.6875,-1.56,-1.03,9.79
1455211411667634010,306,0,/imu_data_acquisition2,47371.0,-0.0770263671875,-0.0106811523438,0.869506835938,0.487731933594,7.8125,17.1875,4.3125,-1.22,-0.71,10.09
1455211411670236110,307,0,/imu_data_acquisition2,47382.0,-0.0780029296875,-0.009521484375,0.869567871094,0.487548828125,6.5625,16.625,2.8125,-1.22,-0.71,10.09
1455211411673922061,308,0,/imu_data_acquisition2,47388.0,-0.0790405273438,-0.00836181640625,0.869567871094,0.487365722656,5.6875,17.1875,3.0,-1.19,-0.73,10.02
1455211411674578905,309,0,/imu_data_acquisition2,47398.0,-0.0802612304688,-0.00714111328125,0.869506835938,0.487243652344,5.125,19.5625,2.1875,-0.73,-0.45,9.93
1455211411675250053,310,0,/imu_data_acquisition2,47408.0,-0.0818481445312,-0.00579833984375,-6.103515625e-05,0.487243652344,4.5,24.6875,1.25,-1.42,-0.76,9.22
1455211411676242113,311,0,/imu_data_acquisition2,47421.0,-0.083984375,-0.0042724609375,0.869201660156,0.487243652344,3.375,30.6875,-0.1875,-0.73,0.14,9.33
1455211411678180932,312,0,/imu_data_acquisition2,47432.0,-0.0863647460938,-0.00262451171875,0.868896484375,0.487365722656,3.75,34.125,-0.9375,-0.93,-1.2,9.76
1455211411679842948,313,0,/imu_data_acquisition2,47438.0,-0.0889282226562,-0.0006103515625,0.86865234375,0.487426757812,5.75,38.375,0.4375,-1.11,-0.67,10.62
1455211411681180953,314,0,/imu_data_acquisition2,47448.0,-0.0914306640625,0.00164794921875,0.868041992188,0.487976074219,9.0,39.125,-6.3125,-1.67,-0.5,9.71
1455211411682353019,315,0,/imu_data_acquisition2,47458.0,-0.0940551757812,0.00396728515625,0.867126464844,0.489135742188,9.875,41.375,-15.375,-2.25,-0.82,9.02
1455211411683722019,316,0,/imu_data_acquisition2,47471.0,-0.0968017578125,0.00579833984375,0.865783691406,0.490905761719,5.0625,40.375,-23.75,-3.06,-1.62,10.13
1455211411684809923,317,0,/imu_data_acquisition2,47481.0,-0.099853515625,0.00732421875,0.864562988281,0.492492675781,0.125,41.25,-21.625,-0.62,-1.21,9.81
1455211411686743021,318,0,/imu_data_acquisition2,47488.0,-0.102722167969,0.00848388671875,0.863525390625,0.49365234375,-3.5,37.125,-16.8125,-1.71,-1.35,10.08
1455211411689604997,319,0,/imu_data_acquisition2,47498.0,-0.106079101562,0.009521484375,0.862670898438,0.494384765625,-7.875,41.3125,-11.625,0.0,-0.81,10.24
1455211411690911054,320,0,/imu_data_acquisition2,47513.0,-0.110656738281,0.0106201171875,0.8623046875,0.494079589844,-15.9375,53.5625,1.8125,2.84,-0.6,8.24
1455211411708189010,322,0,/imu_data_acquisition2,47533.0,-0.129150390625,0.0162963867188,0.860473632812,0.492614746094,-29.4375,135.875,8.375,1.98,-0.67,8.79
1455211411717519044,323,0,/imu_data_acquisition2,47541.0,-0.1474609375,0.023681640625,0.859497070312,0.488830566406,-37.3125,232.1875,40.625,1.98,-0.67,8.79
1455211411723046064,324,0,/imu_data_acquisition2,47548.0,-0.171264648438,0.0341796875,0.858459472656,0.482238769531,-41.625,306.3125,72.25,-1.96,-0.7,11.54
1455211411736063003,325,0,/imu_data_acquisition2,47559.0,-0.198913574219,0.046630859375,0.856628417969,0.473754882812,-48.0,359.625,90.1875,2.92,2.09,12.85
1455211411748940944,326,0,/imu_data_acquisition2,47572.0,-0.231201171875,0.0602416992188,0.853393554688,0.463256835938,-66.125,417.3125,102.625,-1.22,1.94,14.88
1455211411758057117,327,0,/imu_data_acquisition2,47583.0,-0.271423339844,0.0736083984375,0.8466796875,0.451721191406,-111.8125,506.6875,87.25,-7.61,0.02,22.27
1455211411764833927,328,0,/imu_data_acquisition2,47589.0,-0.313903808594,0.0850830078125,0.836486816406,0.441040039062,-138.1875,530.0625,52.5625,-5.69,-0.04,21.32
1455211411773711919,329,0,/imu_data_acquisition2,47599.0,-0.353149414062,0.09228515625,0.824890136719,0.431701660156,-156.4375,479.375,19.5625,-2.44,-0.27,14.73
1455211411785525083,330,0,/imu_data_acquisition2,47610.0,-0.392333984375,0.09912109375,0.812316894531,0.419982910156,-169.125,482.8125,36.0625,5.55,2.73,10.78
1455211411799602031,331,0,/imu_data_acquisition2,47624.0,-0.432556152344,0.105773925781,0.798095703125,0.405822753906,-185.1875,503.5625,48.75,-9.85,-0.87,7.35
1455211411806119918,332,0,/imu_data_acquisition2,47631.0,-0.478576660156,0.112731933594,0.779357910156,0.388427734375,-221.0,586.75,52.5625,-9.85,-0.87,7.35
1455211411815392971,333,0,/imu_data_acquisition2,47639.0,-0.526794433594,0.118957519531,0.756774902344,0.368286132812,-248.9375,629.0625,52.75,-17.39,-8.55,17.27
1455211411828372001,334,0,/imu_data_acquisition2,47649.0,-0.566162109375,0.125305175781,0.736938476562,0.347412109375,-217.4375,534.0,85.0625,-12.42,-8.26,37.98
1455211411834784030,335,0,/imu_data_acquisition2,47659.0,-0.586608886719,0.129699707031,0.72705078125,0.332336425781,-131.6875,285.9375,89.625,-10.11,-9.41,39.64
1455211411849070072,336,0,/imu_data_acquisition2,47673.0,-0.593200683594,0.132629394531,0.725280761719,0.323181152344,-61.625,94.3125,82.3125,-2.22,-8.83,31.75
1455211411859265089,337,0,/imu_data_acquisition2,47682.0,-0.012939453125,-6.103515625e-05,-6.103515625e-05,0.319213867188,-11.3125,-28.5625,60.5,2.03,-8.92,16.44
1455211411864242076,338,0,/imu_data_acquisition2,47689.0,-0.584350585938,0.136596679688,0.733154296875,0.319946289062,43.75,-82.75,38.5,2.8,-6.81,10.63
1455211411875309944,339,0,/imu_data_acquisition2,47699.0,-0.573974609375,0.141235351562,0.738220214844,0.325073242188,106.8125,-115.75,23.8125,3.51,-4.02,7.21
1455211411885083913,340,0,/imu_data_acquisition2,47709.0,-0.561645507812,0.1474609375,0.743041992188,0.332641601562,145.0,-129.3125,15.25,3.26,-0.5,4.6
1455211411895261049,341,0,/imu_data_acquisition2,47720.0,-0.548950195312,0.153381347656,0.747741699219,0.340637207031,146.9375,-5.3125,-0.0625,2.68,0.0,4.79
1455211411907728910,342,0,/imu_data_acquisition2,47732.0,-6.103515625e-05,-6.103515625e-05,-6.103515625e-05,0.347839355469,125.8125,-136.625,5.0,2.16,-0.1,5.36
1455211411914540052,343,0,/imu_data_acquisition2,47738.0,-0.5244140625,0.159484863281,0.757751464844,0.35400390625,96.25,-145.75,1.8125,1.4,-1.18,7.42
1455211411924762964,344,0,/imu_data_acquisition2,47749.0,-0.51220703125,0.158996582031,0.763732910156,0.359252929688,68.0,-158.1875,-1.8125,0.42,-2.28,9.11
1455211411935698032,345,0,/imu_data_acquisition2,47760.0,-0.499633789062,0.156494140625,0.770324707031,0.364013671875,47.625,-173.375,-7.0,-0.53,-3.53,10.66
1455211411944420099,346,0,/imu_data_acquisition2,47768.0,-0.485900878906,0.152526855469,0.777404785156,0.369140625,39.75,-193.5625,-14.3125,-1.6,-2.2,-0.01
1455211411955975055,347,0,/imu_data_acquisition2,47781.0,-0.470336914062,0.147766113281,0.784851074219,0.375366210938,46.1875,-218.375,-24.0,-2.89,-5.72,11.45
1455211411965917110,348,0,/imu_data_acquisition2,47789.0,-0.45263671875,0.142761230469,0.79248046875,0.383056640625,62.1875,-242.875,-33.9375,-3.59,-5.43,11.01
1455211411974535942,349,0,/imu_data_acquisition2,47799.0,-0.432800292969,0.138000488281,0.799987792969,0.391967773438,80.0625,-262.75,-42.125,-4.11,-4.83,10.58
1455211411984384059,350,0,/imu_data_acquisition2,47809.0,-0.411376953125,0.133178710938,0.807250976562,0.401733398438,92.0,-278.625,-47.9375,-5.05,-3.31,10.05
1455211411996467113,351,0,/imu_data_acquisition2,47821.0,-0.388671875,0.1279296875,0.814331054688,0.41162109375,94.875,-291.8125,-50.9375,-5.48,-2.82,9.82
1455211412011127948,352,0,/imu_data_acquisition2,47831.0,-0.365112304688,0.121887207031,0.821228027344,0.421203613281,89.9375,-302.9375,-50.9375,-5.82,-2.58,9.57
1455211412015310049,353,0,/imu_data_acquisition2,47840.0,-0.341064453125,0.11474609375,0.827941894531,0.43017578125,79.9375,-311.625,-49.875,-6.0,-2.71,8.94
1455211412026906013,354,0,/imu_data_acquisition2,47851.0,-0.316772460938,0.106628417969,0.834289550781,0.438415527344,68.75,-316.6875,-48.1875,-0.92,-0.01,-0.01
1455211412037045001,355,0,/imu_data_acquisition2,47859.0,-0.292602539062,0.0977783203125,0.840209960938,0.445922851562,58.5,-316.625,-46.125,-6.11,-2.78,9.35
1455211412045384883,356,0,/imu_data_acquisition2,47871.0,-6.103515625e-05,-6.103515625e-05,-6.103515625e-05,0.452697753906,49.0,-313.125,-43.9375,-6.2,-2.58,9.98
1455211412057516098,357,0,/imu_data_acquisition2,47882.0,-0.245544433594,0.078369140625,0.850402832031,0.458679199219,38.8125,-307.875,-41.75,-6.82,-2.22,11.9
1455211412064903020,358,0,/imu_data_acquisition2,47888.0,-0.222839355469,0.0678100585938,0.854675292969,0.463989257812,28.75,-303.1875,-39.125,-6.8,-1.93,12.39
1455211412074246883,359,0,/imu_data_acquisition2,47899.0,-0.200500488281,0.056884765625,0.858581542969,0.468444824219,20.6875,-300.125,-34.8125,-6.74,-1.6,12.89
1455211412085318088,360,0,/imu_data_acquisition2,47910.0,-0.178649902344,0.0457153320312,0.862121582031,0.471984863281,13.3125,-294.8125,-28.4375,-7.07,-1.26,14.66
1455211412097058057,361,0,/imu_data_acquisition2,47920.0,-0.157470703125,0.0342407226562,0.865356445312,0.474548339844,5.25,-288.6875,-20.6875,-7.26,-1.4,15.28
1455211412112318038,362,0,/imu_data_acquisition2,47933.0,-0.136840820312,0.0224609375,0.868347167969,0.476135253906,-2.875,-283.625,-12.9375,-7.16,-1.66,15.37
1455211412117955923,363,0,/imu_data_acquisition2,47940.0,-0.116760253906,0.0104370117188,0.87109375,0.476867675781,-10.5,-279.0,-6.0,-6.63,-1.5,14.17
1455211412128485918,364,0,/imu_data_acquisition2,47949.0,-0.09765625,-0.001708984375,0.873596191406,0.476745605469,-17.75,-268.9375,0.8125,-6.66,-1.18,13.77
1455211412135124921,365,0,/imu_data_acquisition2,47960.0,-0.0802001953125,-0.013916015625,0.875793457031,0.475769042969,-12.6875,-0.0625,-0.0625,-7.17,-1.0,13.92
1455211412147439002,366,0,/imu_data_acquisition2,47971.0,-0.0650024414062,-0.0263671875,0.877807617188,0.473876953125,-45.0625,-229.875,16.1875,-8.18,-1.17,14.78
1455211412154949903,367,0,/imu_data_acquisition2,47978.0,-6.103515625e-05,-6.103515625e-05,-6.103515625e-05,0.47119140625,-65.25,-206.25,24.125,-12.41,-3.01,20.14
1455211412164573907,368,0,/imu_data_acquisition2,47989.0,-0.0418701171875,-0.0529174804688,0.881225585938,0.467834472656,-84.0625,-187.3125,30.8125,-16.3,-4.74,25.61
1455211412175960063,369,0,/imu_data_acquisition2,48000.0,-0.0303344726562,-0.06884765625,0.882507324219,0.464233398438,-103.25,-211.6875,29.375,-21.23,-6.72,31.57
1455211412183954954,370,0,/imu_data_acquisition2,48008.0,-0.0187377929688,-0.0847778320312,0.883422851562,0.46044921875,-103.25,-211.6875,29.375,-28.3,-9.74,31.98
1455211412203232049,371,0,/imu_data_acquisition2,48024.0,-0.00213623046875,-0.102172851562,0.883422851562,0.457275390625,-92.25,-272.0,13.25,-27.86,-9.32,12.82
1455211412210753917,372,0,/imu_data_acquisition2,48035.0,0.0206298828125,-0.119689941406,0.882385253906,0.454528808594,-61.625,-336.6875,-5.0,-22.73,-7.02,-8.02
1455211412215629100,373,0,/imu_data_acquisition2,48040.0,0.0477905273438,-0.13525390625,0.880249023438,0.452331542969,-18.75,-370.75,-23.875,-22.73,-7.02,-8.02
1455211412226118087,374,0,/imu_data_acquisition2,48051.0,0.0719604492188,-0.141357421875,0.877319335938,0.452941894531,60.5625,-285.5,-57.125,-21.3,-5.04,-1.93
1455211412236062049,375,0,/imu_data_acquisition2,48060.0,0.0960693359375,-0.147399902344,0.873840332031,0.453247070312,60.5625,-285.5,-57.125,-20.09,-3.07,-19.22
1455211412243103981,376,0,/imu_data_acquisition2,48068.0,0.108947753906,-0.1455078125,0.871459960938,0.45556640625,81.875,-121.4375,-61.0625,-18.24,1.6,-20.39
1455211412256402969,377,0,/imu_data_acquisition2,48081.0,0.113952636719,-0.141906738281,0.869934082031,0.458374023438,58.125,-29.875,-50.4375,-17.29,1.13,-20.43
1455211412267659902,378,0,/imu_data_acquisition2,48091.0,0.107421875,-0.133239746094,0.86962890625,0.463012695312,46.75,121.9375,-50.3125,-11.47,-4.48,-30.36
1455211412273562908,379,0,/imu_data_acquisition2,48098.0,0.0918579101562,-0.116333007812,0.870422363281,0.469421386719,81.8125,263.875,-58.75,-14.63,-7.27,-17.42
1455211412285989999,380,0,/imu_data_acquisition2,48110.0,0.0797729492188,-0.095947265625,0.870971679688,0.475158691406,137.875,246.5625,-61.375,0.13,9.45,14.63
