%time,field.header.seq,field.header.stamp,field.header.frame_id,field.time_stamp,field.quat_x,field.quat_y,field.quat_z,field.quat_w,field.gyro_x,field.gyro_y,field.gyro_z,field.accel_x,field.accel_y,field.accel_z
1455211769925679922,1,0,/imu_data_acquisition2,44727.0,-0.032470703125,-0.0279541015625,0.93505859375,0.351928710938,25.5,9.5625,0.625,-1.23,-0.01,-0.01
1455211769928087949,2,0,/imu_data_acquisition2,44730.0,-0.0324096679688,-0.0264892578125,0.935119628906,0.351867675781,16.9375,4.875,1.6875,-1.23,-0.46,11.7
1455211769937099933,3,0,/imu_data_acquisition2,44740.0,-0.0322875976562,-0.0256958007812,0.935180664062,0.351684570312,8.75,1.75,2.125,-0.8,-1.45,10.95
1455211769948237895,4,0,/imu_data_acquisition2,44751.0,-0.0321655273438,-0.0250854492188,0.935302734375,0.351501464844,7.3125,1.6875,2.6875,-0.71,-0.92,10.37
1455211769957547903,5,0,/imu_data_acquisition2,44760.0,-0.0322265625,-0.0245971679688,0.935424804688,0.351257324219,5.0,2.625,3.1875,-1.2,-0.45,10.3
1455211769972851037,6,0,/imu_data_acquisition2,44776.0,-0.0322875976562,-0.0244140625,0.935485839844,0.35107421875,1.875,0.9375,2.5625,-0.62,-0.44,10.6
1455211769981348037,7,0,/imu_data_acquisition2,44782.0,-0.0324096679688,-0.0244750976562,0.935546875,0.350891113281,-1.1875,1.0625,1.9375,-0.85,-0.31,9.95
1455211769988616943,8,0,/imu_data_acquisition2,44791.0,-0.0325927734375,-0.0247192382812,0.935546875,0.350830078125,-3.6875,0.6875,1.0625,-1.01,-0.95,10.88
1455211770001228094,9,0,/imu_data_acquisition2,44801.0,-0.0326538085938,-0.0250244140625,0.935546875,0.350830078125,-3.5,-0.1875,0.0,-0.94,-0.01,-0.01
1455211770008238077,10,0,/imu_data_acquisition2,44811.0,-0.0327758789062,-0.0252075195312,0.935546875,0.350830078125,-2.625,-0.4375,-0.4375,-0.8,-0.01,-0.01
1455211770021277904,11,0,/imu_data_acquisition2,44822.0,-0.0327758789062,-0.0253295898438,0.935546875,0.350830078125,-1.3125,0.0,-0.375,-0.88,-0.01,-0.01
1455211770029732942,12,0,/imu_data_acquisition2,44831.0,-0.0327758789062,-0.0253295898438,0.935546875,0.350830078125,-0.5625,0.1875,-0.375,-0.77,-1.59,9.84
1455211770038765907,13,0,/imu_data_acquisition2,44841.0,-0.0327758789062,-0.0252685546875,0.935546875,0.350830078125,1.1875,0.3125,-0.5625,-0.82,-1.14,9.54
1455211770054651975,14,0,/imu_data_acquisition2,44852.0,-6.103515625e-05,-6.103515625e-05,-6.103515625e-05,0.350830078125,2.125,0.5625,0.0,-0.65,-1.31,10.07
1455211770060983896,15,0,/imu_data_acquisition2,44861.0,-0.03271484375,-0.0247802734375,0.935546875,0.350769042969,2.9375,1.3125,0.875,-1.06,-1.09,9.29
1455211770071341991,16,0,/imu_data_acquisition2,44874.0,-0.03271484375,-0.0244750976562,0.935607910156,0.350646972656,3.25,1.0,1.25,-0.93,-0.89,9.49
1455211770080895900,17,0,/imu_data_acquisition2,44881.0,-0.0327758789062,-0.024169921875,0.935668945312,0.350524902344,3.25,1.875,1.9375,-0.8,-1.23,9.84
1455211770088521957,18,0,/imu_data_acquisition2,44891.0,-0.0328369140625,-0.0238647460938,0.935729980469,0.350341796875,3.375,1.875,2.5,-0.94,-1.21,10.01
1455211770101336002,19,0,/imu_data_acquisition2,44901.0,-0.033447265625,-0.023681640625,0.935852050781,0.35009765625,3.125,2.8125,3.25,-0.98,-0.99,9.89
1455211770108079910,20,0,/imu_data_acquisition2,44910.0,-0.033935546875,-0.0234985351562,0.935913085938,0.349792480469,2.8125,2.3125,3.25,-0.88,-0.01,-0.01
1455211770120839118,21,0,/imu_data_acquisition2,44922.0,-0.0341186523438,-0.0232543945312,0.935974121094,0.349609375,2.1875,2.625,3.1875,-0.83,-0.73,9.49
1455211770131731033,22,0,/imu_data_acquisition2,44932.0,-0.0343627929688,-0.0230102539062,0.936096191406,0.349365234375,1.625,3.3125,3.1875,-1.04,-0.91,9.8
1455211770137948989,23,0,/imu_data_acquisition2,44940.0,-0.0346069335938,-0.0227661132812,0.936157226562,0.34912109375,1.1875,4.0,3.0625,-1.07,-0.84,10.13
1455211770150192022,24,0,/imu_data_acquisition2,44950.0,-0.0349731445312,-0.0069580078125,-6.103515625e-05,0.348937988281,0.625,4.3125,2.5625,-1.05,-0.73,10.02
1455211770162041902,25,0,/imu_data_acquisition2,44962.0,-0.0357666015625,-0.0225219726562,0.936279296875,0.348754882812,0.0625,4.0625,2.125,-0.93,-1.07,9.54
1455211770168503046,26,0,/imu_data_acquisition2,44971.0,-0.0368041992188,-0.0224609375,0.936279296875,0.348510742188,0.0625,5.125,2.3125,-1.2,-1.08,9.83
1455211770181189060,27,0,/imu_data_acquisition2,44982.0,-0.0377197265625,-0.0223999023438,0.936340332031,0.348327636719,0.5625,5.4375,2.5,-0.9,-0.88,9.7
1455211770191193103,28,0,/imu_data_acquisition2,44992.0,-0.0386962890625,-0.022216796875,0.936401367188,0.34814453125,0.6875,6.0625,2.5625,-1.14,-0.84,9.68
1455211770198013067,29,0,/imu_data_acquisition2,45000.0,-0.0397338867188,-0.0220336914062,0.936401367188,0.347900390625,1.0,6.6875,2.6875,-1.12,-1.14,9.69
1455211770209997892,30,0,/imu_data_acquisition2,45012.0,-0.0406494140625,-0.0217895507812,0.936462402344,0.347717285156,1.9375,7.0,2.6875,-0.94,-0.97,9.61
1455211770221882104,31,0,/imu_data_acquisition2,45022.0,-0.0416870117188,-0.0214233398438,0.9365234375,0.347473144531,2.125,8.6875,3.0,-1.08,-0.89,9.67
1455211770228243112,32,0,/imu_data_acquisition2,45031.0,-0.0427856445312,-0.0210571289062,0.936584472656,0.347290039062,2.25,9.375,2.9375,-1.15,-0.91,9.63
1455211770240662097,33,0,/imu_data_acquisition2,45042.0,-0.0438842773438,-0.0206909179688,0.936584472656,0.347045898438,2.25,9.6875,2.8125,-1.11,-1.14,10.24
1455211770252115964,34,0,/imu_data_acquisition2,45052.0,-0.0448608398438,-0.020263671875,0.936645507812,0.346862792969,2.6875,10.5,2.9375,-0.9,-0.01,-0.01
1455211770258028030,35,0,/imu_data_acquisition2,45061.0,-0.0460205078125,-0.0197143554688,0.936645507812,0.346618652344,2.875,12.25,2.875,-1.09,-0.93,9.38
1455211770270035028,36,0,/imu_data_acquisition2,45072.0,-0.0473022460938,-0.0192260742188,0.936706542969,0.346435546875,3.625,13.375,3.125,-0.97,-1.15,9.61
1455211770283468961,37,0,/imu_data_acquisition2,45082.0,-0.0484008789062,-0.0184326171875,0.936767578125,0.346130371094,4.0625,15.25,4.0625,-0.93,-0.81,9.53
1455211770288569927,38,0,/imu_data_acquisition2,45091.0,-0.0496215820312,-0.017578125,0.936828613281,0.345825195312,4.1875,16.9375,4.8125,-1.26,-1.08,9.88
1455211770302443981,39,0,/imu_data_acquisition2,45102.0,-0.05078125,-0.0166625976562,0.936889648438,0.345458984375,5.0,16.6875,4.875,-0.93,-0.94,9.71
1455211770313437938,40,0,/imu_data_acquisition2,45115.0,-0.0523681640625,-0.0158081054688,0.936950683594,0.345092773438,5.25,18.25,5.3125,-1.41,-0.8,9.66
1455211770318455934,41,0,/imu_data_acquisition2,45121.0,-0.0537719726562,-0.0148315429688,0.937072753906,0.3447265625,4.75,19.1875,5.125,-1.44,-0.89,10.29
1455211770330213069,42,0,/imu_data_acquisition2,45132.0,-0.0551147460938,-0.0138549804688,0.937133789062,0.344360351562,4.5625,19.1875,4.9375,-1.57,-0.92,10.42
1455211770339694976,43,0,/imu_data_acquisition2,45141.0,-0.056396484375,-0.012939453125,0.937133789062,0.344055175781,4.625,17.75,4.25,-1.89,-0.77,10.1
1455211770348714113,44,0,/imu_data_acquisition2,45151.0,-0.0575561523438,-0.01220703125,0.937194824219,0.343872070312,4.0,15.5625,2.875,-1.84,-1.09,10.42
1455211770362519025,45,0,/imu_data_acquisition2,45164.0,-0.0585327148438,-0.0114135742188,0.937133789062,0.343811035156,4.25,14.0,1.375,-1.65,-0.89,9.84
1455211770372309923,46,0,/imu_data_acquisition2,45173.0,-0.0595703125,-0.0106811523438,0.937133789062,0.34375,4.1875,14.625,0.9375,-1.34,-0.86,10.11
1455211770378597021,47,0,/imu_data_acquisition2,45181.0,-0.0606689453125,-0.0098876953125,0.93701171875,0.343811035156,4.25,15.8125,0.25,-1.18,-0.89,9.74
1455211770389717102,48,0,/imu_data_acquisition2,45191.0,-0.06201171875,-0.009033203125,0.936950683594,0.343811035156,3.75,18.3125,-0.25,-1.18,-1.01,9.85
1455211770398694992,49,0,/imu_data_acquisition2,45200.0,-0.0635986328125,-0.0081787109375,0.936767578125,0.343994140625,3.4375,21.0625,-2.0,-0.8,-0.63,9.92
1455211770409465074,50,0,/imu_data_acquisition2,45211.0,-0.0655517578125,-0.0072021484375,0.9365234375,0.344299316406,3.125,25.6875,-3.125,-1.79,-1.01,9.91
1455211770420521020,51,0,/imu_data_acquisition2,45222.0,-0.067626953125,-0.006103515625,0.936279296875,0.344665527344,3.625,28.0,-4.4375,-1.32,-0.83,10.01
1455211770430205106,52,0,/imu_data_acquisition2,45231.0,-0.070068359375,-0.0050048828125,0.935913085938,0.34521484375,4.0,30.875,-6.125,-1.58,-0.74,9.89
1455211770439627885,53,0,/imu_data_acquisition2,45242.0,-0.0725708007812,-0.003662109375,0.935424804688,0.345947265625,4.875,33.5,-8.3125,-1.84,-0.55,10.1
1455211770450475931,54,0,/imu_data_acquisition2,45252.0,-0.0751953125,-0.00244140625,0.934814453125,0.347045898438,3.875,34.375,-13.4375,-1.51,-0.71,9.53
1455211770460182905,55,0,/imu_data_acquisition2,45260.0,-0.0778198242188,-0.00115966796875,0.934143066406,0.348266601562,4.375,34.8125,-15.6875,-1.32,-0.9,9.85
1455211770470012903,56,0,/imu_data_acquisition2,45272.0,-0.0803833007812,0.000244140625,0.933471679688,0.349487304688,5.6875,35.3125,-14.8125,-2.62,0.03,9.3
1455211770482173919,57,0,/imu_data_acquisition2,45283.0,-0.0828247070312,0.0015869140625,0.932922363281,0.350402832031,5.625,32.875,-10.9375,-2.64,-0.71,9.74
1455211770488306999,58,0,/imu_data_acquisition2,45290.0,-0.0848388671875,0.00250244140625,0.932373046875,0.351379394531,2.5,26.5,-12.25,-0.98,-0.58,9.7
1455211770501739978,59,0,/imu_data_acquisition2,45302.0,-0.0867309570312,0.00299072265625,0.931701660156,0.352722167969,-0.9375,23.5625,-17.5,-1.06,-0.7,9.35
1455211770510057926,60,0,/imu_data_acquisition2,45310.0,-0.089111328125,0.003173828125,0.930847167969,0.354370117188,-6.0,27.6875,-21.25,-2.11,-1.15,9.57
1455211770520416975,61,0,/imu_data_acquisition2,45322.0,-0.0918579101562,0.00323486328125,0.930053710938,0.355712890625,-9.3125,31.625,-17.875,-1.34,-1.15,9.83
1455211770532743930,62,0,/imu_data_acquisition2,45332.0,-0.0955810546875,0.00341796875,0.929382324219,0.356567382812,-12.8125,42.4375,-12.25,0.95,-0.92,-0.01
1455211770538065910,63,0,/imu_data_acquisition2,45340.0,-0.101623535156,0.00360107421875,0.928527832031,0.357055664062,-22.75,67.5,-9.375,-0.66,-1.44,9.59
1455211770551213979,64,0,/imu_data_acquisition2,45353.0,-0.110534667969,0.00421142578125,0.927490234375,0.357055664062,-31.375,102.1875,-3.375,1.68,-2.56,9.11
1455211770586134910,65,0,/imu_data_acquisition2,45362.0,-0.126403808594,0.007080078125,0.926452636719,0.354431152344,-6.5,-0.0625,-0.0625,1.93,-0.72,8.32
1455211770588366985,66,0,/imu_data_acquisition2,45370.0,-0.148010253906,0.0122680664062,0.92529296875,0.348999023438,-41.75,261.5,60.9375,0.65,-0.13,9.42
1455211770590018987,67,0,/imu_data_acquisition2,45381.0,-0.174926757812,0.0197143554688,0.923400878906,0.341186523438,-43.25,329.5625,86.9375,-0.11,-0.09,10.23
1455211770591634988,68,0,/imu_data_acquisition2,45390.0,-0.205322265625,0.0287475585938,0.920471191406,0.331359863281,-43.25,377.4375,107.1875,0.7,1.7,12.82
1455211770597723960,69,0,/imu_data_acquisition2,45400.0,-0.239624023438,0.0369262695312,0.915222167969,0.32177734375,-67.0,422.4375,92.3125,-2.52,0.28,14.59
1455211770607161998,70,0,/imu_data_acquisition2,45410.0,-0.278747558594,0.0437622070312,0.906860351562,0.31298828125,-96.625,478.125,65.6875,-7.98,-0.52,14.55
1455211770618885040,71,0,/imu_data_acquisition2,45420.0,-0.31787109375,0.0496826171875,0.896118164062,0.305786132812,-99.5,481.0625,36.5625,-4.68,-0.5,21.09
1455211770628262042,72,0,/imu_data_acquisition2,45431.0,-0.354370117188,0.0537719726562,0.884155273438,0.299743652344,-104.375,451.625,14.8125,-2.08,-0.21,14.99
1455211770639344930,73,0,/imu_data_acquisition2,45441.0,-0.392211914062,0.058837890625,0.870361328125,0.291809082031,-106.0625,476.875,31.25,-2.64,-0.32,13.95
1455211770647368907,74,0,/imu_data_acquisition2,45450.0,-0.430541992188,0.0646362304688,0.854736328125,0.282592773438,-104.25,494.5,41.25,2.55,0.96,12.4
1455211770660882949,75,0,/imu_data_acquisition2,45463.0,-0.473693847656,0.0703735351562,0.834655761719,0.272094726562,-124.4375,566.8125,35.0625,-2.41,-0.52,9.21
1455211770669300079,76,0,/imu_data_acquisition2,45470.0,-0.520751953125,0.0761108398438,0.809875488281,0.258972167969,-148.4375,634.625,42.625,-28.08,-9.56,24.06
1455211770678967952,77,0,/imu_data_acquisition2,45481.0,-0.5537109375,0.0828857421875,0.790954589844,0.246826171875,-94.25,464.875,71.0,-25.38,-9.73,38.41
1455211770689446926,78,0,/imu_data_acquisition2,45491.0,-0.569702148438,0.0888671875,0.781311035156,0.238891601562,-32.8125,237.6875,69.625,-8.27,-4.2,38.97
1455211770698004007,79,0,/imu_data_acquisition2,45500.0,-0.574890136719,0.09423828125,0.77880859375,0.232604980469,-4.5625,87.25,81.5,-5.58,-0.94,-0.01
1455211770710612058,80,0,/imu_data_acquisition2,45512.0,-0.570190429688,0.0986938476562,0.782592773438,0.229431152344,27.9375,-53.5,75.4375,0.41,-3.71,23.89
1455211770720185995,81,0,/imu_data_acquisition2,45521.0,-0.561401367188,0.102111816406,0.788879394531,0.228210449219,39.75,-113.125,61.625,3.43,-4.31,9.66
1455211770728501081,82,0,/imu_data_acquisition2,45531.0,-0.55078125,0.105529785156,0.795776367188,0.228515625,54.375,-136.5,51.1875,3.87,-3.84,5.6
1455211770739945888,83,0,/imu_data_acquisition2,45541.0,-0.53955078125,0.109375,0.802490234375,0.230224609375,69.0625,-141.0,41.125,3.83,-3.18,3.42
1455211770752197027,84,0,/imu_data_acquisition2,45552.0,-0.528442382812,0.113098144531,0.80859375,0.232666015625,73.5625,-137.625,31.3125,3.99,-2.84,2.68
1455211770758101940,85,0,/imu_data_acquisition2,45560.0,-0.517883300781,0.116333007812,0.814086914062,0.235778808594,71.8125,-130.8125,20.0625,3.09,-3.45,4.68
1455211770770025968,86,0,/imu_data_acquisition2,45572.0,-0.507385253906,0.119018554688,0.819213867188,0.239440917969,70.75,-129.75,9.6875,1.83,-3.98,6.91
1455211770783797979,87,0,/imu_data_acquisition2,45584.0,-0.49609375,0.121215820312,0.824401855469,0.244140625,74.5,-141.0,-1.25,0.75,-4.32,9.07
1455211770789067029,88,0,/imu_data_acquisition2,45592.0,-0.483215332031,0.122863769531,0.830017089844,0.25,79.4375,-162.5625,-12.8125,-1.07,-4.18,12.6
1455211770803293943,89,0,/imu_data_acquisition2,45603.0,-0.46826171875,0.123657226562,0.836303710938,0.256958007812,82.8125,-190.3125,-23.625,-2.3,-3.89,13.93
1455211770811995029,90,0,/imu_data_acquisition2,45611.0,-0.46826171875,0.123657226562,0.836303710938,0.256958007812,85.0,-224.625,-33.625,-3.24,-3.43,14.24
1455211770818399906,91,0,/imu_data_acquisition2,45621.0,-0.450805664062,0.123474121094,0.843383789062,0.264953613281,84.6875,-261.1875,-40.875,-5.17,-2.06,12.84
1455211770830492019,92,0,/imu_data_acquisition2,45632.0,-0.4306640625,0.1220703125,0.851318359375,0.273742675781,81.1875,-292.375,-43.0625,-5.74,-1.4,11.48
1455211770841124057,93,0,/imu_data_acquisition2,45641.0,-0.408020019531,0.119506835938,0.859802246094,0.28271484375,73.4375,-314.4375,-42.0,-6.08,-0.91,10.14
1455211770848166942,94,0,/imu_data_acquisition2,45651.0,-0.383728027344,0.115844726562,0.868591308594,0.291381835938,62.5625,-326.5,-38.9375,-6.41,-0.5,7.99
1455211770860371112,95,0,/imu_data_acquisition2,45661.0,-0.358459472656,0.111083984375,0.877258300781,0.299377441406,51.4375,-329.875,-35.125,-6.44,-0.35,7.4
1455211770879270076,97,0,/imu_data_acquisition2,45682.0,-0.282348632812,0.0927734375,0.900329589844,0.317932128906,34.875,-321.625,-23.4375,-6.61,-0.45,7.71
1455211770890285015,98,0,/imu_data_acquisition2,45692.0,-0.282348632812,0.0927734375,0.900329589844,0.317932128906,30.0625,-313.375,-16.5,-6.98,-0.71,9.71
1455211770906335115,99,0,/imu_data_acquisition2,45702.0,-0.233581542969,0.0796508789062,0.912658691406,0.325744628906,26.6875,-306.0,-10.4375,-7.11,-1.05,10.77
1455211770908948898,100,0,/imu_data_acquisition2,45711.0,-0.233581542969,0.0796508789062,0.912658691406,0.325744628906,25.0625,-300.875,-5.0,-7.08,-1.56,11.37
1455211770921778917,101,0,/imu_data_acquisition2,45723.0,-0.209655761719,0.0731811523438,0.918029785156,0.328552246094,24.25,-296.8125,-1.5,-6.83,-2.28,12.43
1455211771016608953,102,0,/imu_data_acquisition2,45732.0,-0.185913085938,0.0667724609375,0.922790527344,0.330810546875,23.0,-291.3125,0.0625,-6.49,-2.37,12.83
1455211771019248008,104,0,/imu_data_acquisition2,45751.0,-0.139587402344,0.0538940429688,0.930480957031,0.334350585938,13.4375,-278.4375,-0.0625,-5.91,-1.61,13.77
1455211771020596027,105,0,/imu_data_acquisition2,45762.0,-0.117309570312,0.0470581054688,0.933471679688,0.335693359375,4.625,-270.75,-0.125,-5.77,-1.01,13.87
1455211771021977901,106,0,/imu_data_acquisition2,45771.0,-0.0957641601562,0.039794921875,0.935852050781,0.336730957031,-8.1875,-259.9375,1.4375,-5.83,-0.54,14.32
1455211771023292064,107,0,/imu_data_acquisition2,45783.0,-0.075439453125,0.03173828125,0.937805175781,0.337341308594,-23.75,-246.0625,5.1875,-6.28,-0.06,14.98
1455211771024235010,108,0,/imu_data_acquisition2,45790.0,-0.0565795898438,0.0228881835938,0.939392089844,0.337341308594,-23.75,-246.0625,5.1875,-8.39,-0.63,17.25
1455211771025351047,109,0,/imu_data_acquisition2,45800.0,-0.0394897460938,0.0130004882812,0.940673828125,0.336669921875,-42.0625,-230.5,10.6875,-8.39,-0.63,17.25
1455211771026978969,110,0,/imu_data_acquisition2,45811.0,-0.0240478515625,0.00238037109375,0.941772460938,0.335327148438,-61.25,-202.0625,21.875,-12.47,-4.07,21.8
1455211771031981945,111,0,/imu_data_acquisition2,45821.0,-0.00970458984375,-0.0081787109375,0.942687988281,0.33349609375,-47.25,-197.0,25.0625,-18.11,-6.88,26.15
1455211771033303022,112,0,/imu_data_acquisition2,45832.0,0.004638671875,-0.0174560546875,0.943359375,0.331237792969,-22.8125,-204.5,26.125,-21.05,-5.6,28.7
1455211771038559913,113,0,/imu_data_acquisition2,45841.0,0.020263671875,-0.0250244140625,0.94384765625,0.328796386719,-11.125,-239.125,21.625,-23.42,-3.84,29.38
1455211771049582004,114,0,/imu_data_acquisition2,45851.0,0.0389404296875,-0.0325927734375,0.943786621094,0.326538085938,-14.6875,-0.0625,-0.0625,-25.55,-2.87,19.78
1455211771059741020,115,0,/imu_data_acquisition2,45862.0,0.0614624023438,-0.0119018554688,-6.103515625e-05,0.325073242188,-63.5,-336.5,-8.9375,-24.96,-3.56,11.01
1455211771071799039,116,0,/imu_data_acquisition2,45873.0,0.0865478515625,-0.057373046875,0.940063476562,0.324768066406,-87.0625,-353.3125,-32.0,-23.01,-4.19,0.88
1455211771079265117,117,0,/imu_data_acquisition2,45882.0,0.1123046875,-0.07373046875,0.935729980469,0.326110839844,-90.625,-331.125,-58.9375,-19.62,-4.2,-15.54
1455211771092663049,118,0,/imu_data_acquisition2,45893.0,0.136291503906,-0.0894165039062,0.929992675781,0.329406738281,-68.875,-267.6875,-77.6875,-18.72,-2.42,-20.17
1455211771100909948,119,0,/imu_data_acquisition2,45901.0,-6.103515625e-05,-6.103515625e-05,-6.103515625e-05,0.334167480469,-68.875,-267.6875,-77.6875,-18.81,-0.2,-1.24
1455211771110501050,120,0,/imu_data_acquisition2,45912.0,0.169494628906,-0.107604980469,0.919006347656,0.33935546875,6.875,-64.0,-68.625,-18.95,0.22,-25.04
1455211771121805906,121,0,/imu_data_acquisition2,45923.0,0.17529296875,-0.10791015625,0.916137695312,0.343994140625,36.125,79.875,-59.3125,-20.65,-1.19,-17.45
1455211771132402896,122,0,/imu_data_acquisition2,45933.0,0.170715332031,-0.101928710938,0.915893554688,0.348754882812,71.25,203.9375,-49.625,-22.04,-1.11,-11.65
1455211771139803886,123,0,/imu_data_acquisition2,45942.0,0.157409667969,-0.0896606445312,0.917846679688,0.353271484375,115.625,249.5625,-42.3125,-7.0,5.02,5.4
1455211771151319026,124,0,/imu_data_acquisition2,45952.0,0.141784667969,-0.0726318359375,0.920471191406,0.356811523438,115.625,249.5625,-42.3125,6.27,14.04,26.66
1455211771162034988,125,0,/imu_data_acquisition2,45962.0,0.129211425781,-0.0565185546875,0.922668457031,0.35888671875,35.25,218.9375,-35.9375,2.14,12.51,18.74
1455211771170131921,126,0,/imu_data_acquisition2,45972.0,0.113403320312,-0.0467529296875,0.923950195312,0.3623046875,-39.25,233.5625,-34.5,-0.44,13.0,3.51
1455211771183022975,127,0,/imu_data_acquisition2,45983.0,0.0940551757812,-0.0423583984375,0.9248046875,0.3662109375,-66.625,247.6875,-4.875,-3.96,9.77,4.14
1455211771188493967,128,0,/imu_data_acquisition2,45991.0,0.0726318359375,-0.0398559570312,0.926147460938,0.367919921875,-66.625,247.6875,-4.875,-3.96,9.77,4.14
1455211771200231075,129,0,/imu_data_acquisition2,46002.0,0.04833984375,-0.0347900390625,0.928833007812,0.365661621094,-47.5625,289.5625,43.4375,-15.08,-3.46,36.13
1455211771212663888,130,0,/imu_data_acquisition2,46013.0,0.0241088867188,-0.0316162109375,0.931396484375,0.361877441406,-87.375,205.375,47.1875,-7.78,-12.93,25.45
1455211771219615936,131,0,/imu_data_acquisition2,46022.0,0.00518798828125,-0.0322875976562,0.932800292969,0.358825683594,-52.1875,160.1875,28.25,-1.27,-21.91,14.32
1455211771233067989,132,0,/imu_data_acquisition2,46033.0,-0.00909423828125,-0.0315551757812,0.933532714844,0.356994628906,3.3125,154.4375,-6.375,-7.55,-10.0,19.72
1455211771239918947,133,0,/imu_data_acquisition2,46042.0,-0.0211791992188,-0.0266723632812,0.93310546875,0.35791015625,3.3125,154.4375,-6.375,-7.92,5.41,17.36
1455211771248442888,134,0,/imu_data_acquisition2,46051.0,-0.0293579101562,-0.0179443359375,0.932739257812,0.358825683594,61.875,128.0,-7.1875,-7.06,7.09,18.22
1455211771261493921,135,0,/imu_data_acquisition2,46063.0,-0.033935546875,-0.01171875,0.9326171875,0.359130859375,-4.0,38.375,-0.5625,-5.68,-2.31,16.89
1455211771272470951,136,0,/imu_data_acquisition2,46072.0,-0.037109375,-0.0108642578125,0.932495117188,0.359191894531,-28.3125,-3.25,-2.75,-2.14,-6.69,11.45
1455211771280319929,137,0,/imu_data_acquisition2,46082.0,-0.0376586914062,-0.01318359375,0.932373046875,0.359313964844,-11.5,-12.0625,-0.0625,-1.2,0.25,12.42
1455211771289738893,138,0,/imu_data_acquisition2,46092.0,-0.037109375,-0.0144653320312,0.932434082031,0.359130859375,-11.5,-12.0625,1.5,-2.01,0.8,11.61
1455211771299032926,139,0,/imu_data_acquisition2,46101.0,-0.036865234375,-0.0147094726562,0.9326171875,0.358703613281,-1.5,-3.5625,5.0625,-2.01,0.8,11.61
1455211771309983968,140,0,/imu_data_acquisition2,46112.0,-0.036865234375,-0.0153198242188,0.932739257812,0.358276367188,-7.8125,-3.75,4.1875,-0.28,-0.68,9.82
1455211771321165084,141,0,/imu_data_acquisition2,46123.0,-0.0368041992188,-0.0160522460938,0.932922363281,0.35791015625,-5.0625,-1.75,4.375,-0.69,-0.73,10.34
1455211771333303928,142,0,/imu_data_acquisition2,46133.0,-0.036865234375,-0.0164794921875,0.933044433594,0.357543945312,-5.0625,1.3125,4.9375,-0.96,-0.77,10.49
1455211771339816093,143,0,/imu_data_acquisition2,46142.0,-0.037109375,-0.016845703125,0.933166503906,0.357116699219,-5.0625,1.3125,4.9375,-0.7,-0.77,10.63
1455211771349951028,144,0,/imu_data_acquisition2,46152.0,-0.0374145507812,-0.0172119140625,0.933288574219,0.356750488281,-5.625,1.5,4.4375,-0.81,-0.86,10.13
1455211771361625909,145,0,/imu_data_acquisition2,46163.0,-6.103515625e-05,-6.103515625e-05,-6.103515625e-05,0.3564453125,-6.125,1.5625,3.75,-0.95,-0.87,10.34
1455211771370204925,146,0,/imu_data_acquisition2,46173.0,-0.0381469726562,-0.01806640625,0.933471679688,0.356140136719,-5.5,2.4375,2.6875,-1.18,-0.55,9.89
1455211771381268978,147,0,/imu_data_acquisition2,46183.0,-0.0385131835938,-0.0184326171875,0.933532714844,0.355895996094,-4.9375,1.625,1.8125,-0.55,-0.77,9.91
1455211771388477087,148,0,/imu_data_acquisition2,46191.0,-0.0387573242188,-0.018798828125,0.93359375,0.355773925781,-4.9375,1.625,1.8125,-0.55,-0.77,9.91
1455211771399385929,149,0,/imu_data_acquisition2,46202.0,-0.0389404296875,-0.01904296875,0.93359375,0.355773925781,-3.5625,0.8125,0.5,-1.18,-1.04,-0.01
1455211771411482095,150,0,/imu_data_acquisition2,46213.0,-0.0391845703125,-0.0192260742188,0.93359375,0.355651855469,-3.0625,2.0,0.875,-0.76,-0.95,9.38
1455211771421134948,151,0,/imu_data_acquisition2,46223.0,-0.039306640625,-0.019287109375,0.93359375,0.355651855469,-1.5,0.9375,0.375,-1.17,-1.06,9.89
1455211771431991100,152,0,/imu_data_acquisition2,46234.0,-0.0394287109375,-0.0193481445312,0.93359375,0.355651855469,-0.3125,2.125,1.375,-0.81,-1.09,10.13
1455211771438747882,153,0,/imu_data_acquisition2,46240.0,-0.0396118164062,-0.019287109375,0.93359375,0.355529785156,-0.3125,2.125,1.375,-0.81,-1.09,10.13
1455211771451267004,154,0,/imu_data_acquisition2,46251.0,-0.039794921875,-0.0192260742188,0.933654785156,0.35546875,0.25,1.875,1.3125,-0.86,-0.98,9.49
1455211771462137937,155,0,/imu_data_acquisition2,46264.0,-0.0400390625,-0.01904296875,0.933715820312,0.355285644531,1.375,2.5,2.3125,-0.98,-0.01,-0.01
1455211771472968101,156,0,/imu_data_acquisition2,46273.0,-0.0401611328125,-0.0188598632812,0.933776855469,0.355102539062,1.375,2.5,2.3125,-1.16,-1.13,9.5
1455211771481374979,157,0,/imu_data_acquisition2,46283.0,-0.0403442382812,-0.0186767578125,0.933837890625,0.354919433594,1.5625,2.375,2.625,-0.82,-0.63,9.62
1455211771493906974,158,0,/imu_data_acquisition2,46292.0,-0.0404663085938,-0.0184326171875,0.933898925781,0.354736328125,1.5625,2.375,2.625,-0.82,-0.63,9.62
1455211771497828006,159,0,/imu_data_acquisition2,46300.0,-0.0406494140625,-0.0182495117188,0.933959960938,0.354553222656,1.6875,2.625,2.5625,-1.13,-0.9,9.84
1455211771510835886,160,0,/imu_data_acquisition2,46313.0,-0.0411987304688,-0.0181274414062,0.934020996094,0.354370117188,0.9375,3.375,2.375,-1.12,-1.09,9.96
1455211771522253990,161,0,/imu_data_acquisition2,46323.0,-0.0418090820312,-0.0181274414062,0.93408203125,0.354187011719,0.875,3.0625,1.9375,-1.12,-0.77,9.62
1455211771532413959,162,0,/imu_data_acquisition2,46333.0,-0.04248046875,-0.01806640625,0.93408203125,0.354064941406,0.4375,3.5625,1.625,-1.14,-0.97,10.08
1455211771540107011,163,0,/imu_data_acquisition2,46342.0,-0.0431518554688,-0.01806640625,0.93408203125,0.353942871094,0.5,3.75,1.5625,-1.14,-0.97,10.08
1455211771550602912,164,0,/imu_data_acquisition2,46351.0,-0.0438842773438,-0.0180053710938,0.934143066406,0.353820800781,0.8125,3.875,1.625,-1.16,-1.02,9.8
1455211771558440923,165,0,/imu_data_acquisition2,46361.0,-0.0445556640625,-0.0179443359375,0.934143066406,0.353698730469,0.75,4.25,1.5,-1.06,-1.05,9.83
1455211771571610927,166,0,/imu_data_acquisition2,46373.0,-0.0453491210938,-0.0178833007812,0.934143066406,0.353576660156,0.9375,4.1875,1.5,-1.21,-0.94,10.03
1455211771582981109,167,0,/imu_data_acquisition2,46383.0,-0.046142578125,-0.0177612304688,0.934143066406,0.353393554688,1.125,4.875,1.8125,-1.38,-0.95,9.61
1455211771588355064,168,0,/imu_data_acquisition2,46391.0,-0.047119140625,-0.0176391601562,0.934143066406,0.353271484375,1.0,4.875,1.5,-1.38,-0.95,9.61
1455211771599395990,169,0,/imu_data_acquisition2,46401.0,-0.0477905273438,-0.0174560546875,0.934143066406,0.353210449219,0.75,5.8125,1.375,-0.91,-0.92,10.45
1455211771609215021,170,0,/imu_data_acquisition2,46410.0,-0.0484619140625,-0.0172729492188,0.934143066406,0.353088378906,1.3125,5.0625,1.0625,-1.15,-0.78,9.18
1455211771620440006,171,0,/imu_data_acquisition2,46423.0,-0.0488891601562,-0.0169677734375,0.934204101562,0.35302734375,1.125,6.25,1.125,-1.18,-0.88,10.2
1455211771631932973,172,0,/imu_data_acquisition2,46434.0,-0.04931640625,-0.0166625976562,0.934204101562,0.352966308594,1.25,6.0625,0.9375,-1.39,-0.86,9.51
1455211771638772010,173,0,/imu_data_acquisition2,46440.0,-0.0498046875,-0.0164184570312,0.934204101562,0.352905273438,0.8125,6.4375,0.8125,-1.39,-0.86,9.51
1455211771650381088,174,0,/imu_data_acquisition2,46452.0,-0.0503540039062,-0.01611328125,0.934204101562,0.352844238281,1.0,6.875,1.0,-1.25,-0.91,9.36
1455211771662331104,175,0,/imu_data_acquisition2,46464.0,-0.0509033203125,-0.0158081054688,0.934204101562,0.352783203125,1.1875,7.375,1.25,-1.36,-0.87,9.69
1455211771672238111,176,0,/imu_data_acquisition2,46473.0,-0.051513671875,-0.0154418945312,0.934204101562,0.352600097656,1.25,8.5625,2.0,-0.9,-0.94,9.88
1455211771684734106,177,0,/imu_data_acquisition2,46483.0,-0.0521240234375,-0.0150756835938,0.934265136719,0.352478027344,1.6875,7.9375,2.0625,-1.12,-1.09,10.34
1455211771693725109,178,0,/imu_data_acquisition2,46494.0,-0.052734375,-0.0146484375,0.934265136719,0.352294921875,1.6875,9.125,2.875,-1.12,-0.83,9.46
1455211771701026916,179,0,/imu_data_acquisition2,46502.0,-0.0534057617188,-0.0142822265625,0.934326171875,0.352111816406,1.6875,9.125,2.875,-1.12,-0.83,9.46
1455211771710410118,180,0,/imu_data_acquisition2,46513.0,-0.05419921875,-0.0137939453125,0.934387207031,0.351867675781,1.5,10.0,3.25,-1.28,-1.07,9.96
1455211771722356081,181,0,/imu_data_acquisition2,46524.0,-0.0552978515625,-0.0136108398438,0.934448242188,0.3515625,1.875,10.875,3.5,-1.38,-1.06,9.71
1455211771732937097,182,0,/imu_data_acquisition2,46534.0,-0.05615234375,-0.0130615234375,0.934448242188,0.351318359375,2.0625,11.625,3.625,-1.16,-1.08,9.83
1455211771740823030,183,0,/imu_data_acquisition2,46543.0,-0.0570678710938,-0.012451171875,0.934509277344,0.35107421875,2.8125,12.6875,3.8125,-1.62,-1.08,10.14
1455211771751538038,184,0,/imu_data_acquisition2,46552.0,-0.0579833984375,-0.0117797851562,0.9345703125,0.350830078125,3.5625,12.8125,3.375,-1.62,-1.08,10.14
1455211771761960983,185,0,/imu_data_acquisition2,46563.0,-0.0589599609375,-0.0111083984375,0.934631347656,0.3505859375,3.25,13.1875,3.0,-1.59,-0.98,9.88
1455211771771595001,186,0,/imu_data_acquisition2,46574.0,-0.0598754882812,-0.0104370117188,0.934631347656,0.350402832031,3.4375,14.75,2.1875,-1.35,-1.03,9.98
1455211771781766891,187,0,/imu_data_acquisition2,46583.0,-0.0609741210938,-0.00970458984375,0.934631347656,0.350280761719,3.4375,-0.0625,-0.0625,-0.72,-0.78,9.99
1455211771788367986,188,0,/imu_data_acquisition2,46591.0,-0.062255859375,-0.0089111328125,0.9345703125,0.350158691406,3.5,17.5,1.625,-0.72,-0.78,9.99
1455211771799566984,189,0,/imu_data_acquisition2,46602.0,-0.0637817382812,-0.00799560546875,0.934509277344,0.350158691406,3.8125,20.625,0.6875,-1.19,-0.01,-0.01
1455211771812664031,190,0,/imu_data_acquisition2,46614.0,-0.0657348632812,-0.00689697265625,-6.103515625e-05,0.350219726562,3.375,26.3125,-0.4375,-1.63,-0.91,9.76
1455211771821773052,191,0,/imu_data_acquisition2,46623.0,-0.0680541992188,-0.0057373046875,0.934143066406,0.350402832031,3.75,30.5625,-1.8125,-1.63,-0.91,9.76
1455211771832427024,192,0,/imu_data_acquisition2,46634.0,-0.0707397460938,-0.00433349609375,0.933776855469,0.350708007812,6.5,39.5,-6.875,-1.81,-0.08,9.49
1455211771841027021,193,0,/imu_data_acquisition2,46642.0,-0.0736694335938,-0.002685546875,0.933349609375,0.351318359375,6.5,39.5,-6.875,-1.81,-0.08,9.49
1455211771848176956,194,0,/imu_data_acquisition2,46650.0,-0.076416015625,-0.000732421875,0.932678222656,0.352478027344,10.875,38.875,-14.0,-0.65,-1.04,10.19
1455211771861619949,195,0,/imu_data_acquisition2,46664.0,-0.0791625976562,0.0009765625,0.932067871094,0.353515625,8.1875,38.25,-11.9375,-2.6,-1.26,9.77
1455211771872773885,196,0,/imu_data_acquisition2,46674.0,-0.0818481445312,0.00225830078125,0.931335449219,0.354919433594,4.75,36.0625,-17.5,-3.18,-1.26,-0.01
1455211771883133888,197,0,/imu_data_acquisition2,46684.0,-0.08447265625,0.00335693359375,0.930725097656,0.355834960938,1.6875,34.125,-12.0625,0.08,-1.25,9.73
1455211771890979051,198,0,/imu_data_acquisition2,46692.0,-0.0869750976562,0.00421142578125,0.930114746094,0.356811523438,0.25,31.3125,-12.0625,0.08,-1.25,9.73
1455211771900115966,199,0,/imu_data_acquisition2,46700.0,-0.0892944335938,0.00494384765625,0.929565429688,0.357604980469,-0.75,29.0625,-10.0625,-0.23,-1.02,9.39
1455211771911961078,200,0,/imu_data_acquisition2,46713.0,-0.093017578125,0.00567626953125,0.928894042969,0.358459472656,-6.875,44.8125,-12.0625,-0.15,-1.11,9.79
1455211771922578096,201,0,/imu_data_acquisition2,46724.0,-0.0985107421875,0.00628662109375,0.927978515625,0.359375,-15.3125,64.0,-13.5,-1.08,-1.7,9.2
1455211771965100049,202,0,/imu_data_acquisition2,46734.0,-0.106567382812,0.0069580078125,0.926818847656,0.360046386719,-26.0,92.5625,-12.25,3.47,-1.58,8.41
1455211771967117071,203,0,/imu_data_acquisition2,46744.0,-0.119079589844,0.009033203125,0.925659179688,0.358947753906,-31.8125,148.125,8.5,2.98,0.24,8.34
1455211771969191074,204,0,/imu_data_acquisition2,46751.0,-0.13818359375,0.0136108398438,0.924499511719,0.355041503906,-36.6875,230.4375,42.5625,1.13,-0.94,9.99
1455211771969930887,205,0,/imu_data_acquisition2,46760.0,-0.162170410156,0.0202026367188,0.922790527344,0.348999023438,-37.9375,294.1875,65.8125,-1.28,-1.19,10.82
1455211771972259998,206,0,/imu_data_acquisition2,46774.0,-0.18994140625,0.0282592773438,0.920227050781,0.341064453125,-41.8125,343.875,84.9375,0.9,0.48,12.43
1455211771982671022,207,0,/imu_data_acquisition2,46784.0,-0.221557617188,0.0370483398438,0.916320800781,0.331604003906,-51.75,391.9375,96.625,-7.01,-0.14,14.9
1455211771987730979,208,0,/imu_data_acquisition2,46790.0,-0.260009765625,0.0458374023438,0.909240722656,0.321838378906,-77.9375,474.9375,84.625,-6.2,-0.66,20.34
1455211771999135971,209,0,/imu_data_acquisition2,46801.0,-0.300598144531,0.0543212890625,0.8994140625,0.312561035156,-86.375,505.0,66.0,-4.58,-0.42,21.66
1455211772012389898,210,0,/imu_data_acquisition2,46812.0,-0.338623046875,0.0599365234375,0.888793945312,0.303039550781,-108.0625,469.875,57.6875,-2.23,0.78,12.64
1455211772023039102,211,0,/imu_data_acquisition2,46824.0,-0.377258300781,0.0653076171875,0.876953125,0.29052734375,-124.625,482.8125,83.3125,3.02,2.67,10.44
1455211772031971931,212,0,/imu_data_acquisition2,46834.0,-0.417236328125,0.0698852539062,0.863037109375,0.276184082031,-143.0625,504.1875,90.875,2.25,2.97,9.56
1455211772043196916,213,0,/imu_data_acquisition2,46842.0,-0.461364746094,0.0728149414062,0.845275878906,0.259460449219,-182.3125,563.25,90.8125,-0.19,0.9,7.81
1455211772049110889,214,0,/imu_data_acquisition2,46850.0,-0.508850097656,0.0740966796875,0.823425292969,0.239807128906,-222.125,616.125,95.4375,-24.45,-9.18,30.73
1455211772060713052,215,0,/imu_data_acquisition2,46863.0,-0.545532226562,0.0753173828125,0.805297851562,0.219482421875,-198.875,488.6875,122.375,-9.08,-3.78,32.25
1455211772072273015,216,0,/imu_data_acquisition2,46872.0,-0.566162109375,0.0772094726562,0.795166015625,0.203063964844,-4.9375,-0.0625,-0.0625,-9.76,-7.06,36.64
1455211772086680889,217,0,/imu_data_acquisition2,46885.0,-0.575866699219,0.0789184570312,0.791381835938,0.189453125,-94.75,133.5625,121.1875,-1.01,-10.21,27.68
1455211772090764045,218,0,/imu_data_acquisition2,46892.0,-0.576049804688,0.0807495117188,0.793151855469,0.180480957031,-46.0625,2.3125,101.0625,0.23,-10.89,22.09
1455211772098850011,219,0,/imu_data_acquisition2,46900.0,-0.570861816406,0.0838012695312,0.797424316406,0.176635742188,9.5,-68.375,70.8125,1.38,-10.18,15.91
1455211772108810901,220,0,/imu_data_acquisition2,46911.0,-0.561462402344,0.0896606445312,0.803161621094,0.177978515625,78.25,-115.875,48.25,2.79,-4.82,7.61
1455211772121711015,221,0,/imu_data_acquisition2,46923.0,-0.549560546875,0.0977172851562,0.809204101562,0.183166503906,129.875,-142.0,29.75,3.14,-2.64,5.37
1455211772130769968,222,0,/imu_data_acquisition2,46932.0,-0.536743164062,0.10595703125,0.815246582031,0.18994140625,143.625,-152.125,16.25,3.09,-1.28,4.63
1455211772138906002,223,0,/imu_data_acquisition2,46941.0,-0.52392578125,0.112365722656,0.821105957031,0.196655273438,126.0,-155.375,5.1875,2.55,-0.53,4.96
1455211772150976896,224,0,/imu_data_acquisition2,46952.0,-0.51123046875,0.115783691406,0.827209472656,0.202392578125,90.625,-160.75,-3.5,0.95,-1.17,7.8
1455211772159682989,225,0,/imu_data_acquisition2,46961.0,-0.498352050781,0.116027832031,0.833801269531,0.207214355469,52.8125,-172.25,-12.375,0.13,-2.19,9.54
1455211772172024011,226,0,/imu_data_acquisition2,46974.0,-0.484680175781,0.113464355469,0.841064453125,0.211669921875,24.9375,-190.0,-21.9375,-0.65,-3.38,10.78
1455211772183027982,227,0,/imu_data_acquisition2,46984.0,-0.469543457031,0.109375,0.848937988281,0.216613769531,14.5,-212.4375,-32.9375,-2.66,-2.28,-0.01
1455211772187860012,228,0,/imu_data_acquisition2,46990.0,-0.452453613281,0.104797363281,0.857116699219,0.222717285156,21.4375,-237.25,-44.0,-3.8,-4.52,13.17
1455211772200001001,229,0,/imu_data_acquisition2,47002.0,-0.432983398438,0.100341796875,0.865661621094,0.230346679688,36.75,-264.25,-54.375,-4.6,-3.65,12.47
1455211772210406064,230,0,/imu_data_acquisition2,47012.0,-0.4111328125,0.0960693359375,0.874389648438,0.239013671875,49.875,-290.8125,-60.9375,-5.26,-1.81,9.61
1455211772222409963,231,0,/imu_data_acquisition2,47020.0,-0.387451171875,0.091552734375,0.883178710938,0.248046875,54.1875,-311.0,-63.5,-5.41,-1.16,8.17
1455211772231846094,232,0,/imu_data_acquisition2,47034.0,-0.36279296875,0.0866088867188,0.891662597656,0.256652832031,50.5,-320.9375,-61.4375,-5.36,-0.71,7.23
1455211772240938901,233,0,/imu_data_acquisition2,47041.0,-0.337829589844,0.0809326171875,0.899597167969,0.264587402344,42.125,-323.3125,-58.375,-5.55,-0.85,7.05
1455211772249066114,234,0,/imu_data_acquisition2,47051.0,-0.313598632812,0.0747680664062,0.907043457031,0.270874023438,28.25,-312.9375,-44.6875,-5.78,-0.95,7.69
1455211772262200117,235,0,/imu_data_acquisition2,47064.0,-0.289184570312,0.0685424804688,0.913818359375,0.276916503906,28.25,-312.9375,-44.6875,-6.2,-1.12,8.81
1455211772273243904,236,0,/imu_data_acquisition2,47071.0,-0.265014648438,0.0621948242188,0.919982910156,0.282043457031,23.0,-307.375,-37.125,-6.55,-1.22,10.04
1455211772280906915,237,0,/imu_data_acquisition2,47083.0,-0.241455078125,0.0548095703125,0.925842285156,0.285583496094,4.625,-302.5625,-25.3125,-7.02,-1.61,12.27
1455211772293663024,238,0,/imu_data_acquisition2,47094.0,-0.217895507812,0.0465698242188,0.931213378906,0.288513183594,-5.4375,-303.4375,-21.75,-6.99,-2.02,12.67
1455211772299868106,239,0,/imu_data_acquisition2,47100.0,-0.194396972656,0.0376586914062,0.93603515625,0.290954589844,-14.5,-303.4375,-20.5,-6.85,-2.29,12.8
1455211772311543941,240,0,/imu_data_acquisition2,47114.0,-0.171325683594,0.028076171875,0.940185546875,0.293029785156,-23.5625,-299.0625,-20.625,-6.57,-2.12,13.14
1455211772323664903,241,0,/imu_data_acquisition2,47126.0,-0.148986816406,0.0179443359375,0.943664550781,0.294860839844,-33.0625,-291.8125,-21.5625,-6.53,-1.76,13.54
1455211772332815885,242,0,/imu_data_acquisition2,47133.0,-0.127380371094,0.0072021484375,0.946472167969,0.296447753906,-42.5625,-283.75,-22.125,-6.54,-1.56,13.9
1455211772343008995,243,0,/imu_data_acquisition2,47145.0,-0.106872558594,-0.00390625,0.948608398438,0.297790527344,-50.3125,-272.4375,-22.625,-6.16,-1.0,14.04
1455211772352020025,244,0,/imu_data_acquisition2,47154.0,-0.0877075195312,-0.0150756835938,0.950134277344,0.298950195312,-56.5625,-256.4375,-22.4375,-6.31,-0.62,14.43
1455211772360224962,245,0,/imu_data_acquisition2,47161.0,-6.103515625e-05,-6.103515625e-05,-6.103515625e-05,0.299743652344,-61.625,-237.5625,-20.625,-6.87,-0.6,15.38
1455211772374666929,246,0,/imu_data_acquisition2,47176.0,-0.0541381835938,-0.036865234375,0.951599121094,0.300231933594,-57.25,-203.4375,-14.5625,-12.25,-2.1,24.41
1455211772382755041,247,0,/imu_data_acquisition2,47184.0,-0.0391845703125,-0.0466918945312,0.951843261719,0.300476074219,-57.25,-203.4375,-14.5625,-12.25,-2.1,24.41
1455211772391169071,248,0,/imu_data_acquisition2,47192.0,-0.024169921875,-0.0552978515625,0.951843261719,0.300537109375,-43.3125,-200.125,-13.125,-16.19,-3.83,27.43
1455211772402770996,249,0,/imu_data_acquisition2,47204.0,-0.00726318359375,-0.06201171875,0.951782226562,0.300415039062,-16.3125,-214.1875,-12.3125,-20.06,-2.52,30.64
1455211772411917924,250,0,/imu_data_acquisition2,47213.0,0.0142211914062,-6.103515625e-05,-6.103515625e-05,0.300109863281,4.0625,-265.3125,-14.4375,-25.68,-3.71,28.94
1455211772431312084,252,0,/imu_data_acquisition2,47233.0,0.0684204101562,-0.0787353515625,0.949035644531,0.297424316406,48.0625,-333.0,-7.5625,-23.8,-3.97,10.35
1455211772443053960,253,0,/imu_data_acquisition2,47242.0,0.0947875976562,-0.0819091796875,0.947204589844,0.295043945312,57.6875,-310.875,-1.8125,-20.14,-2.91,-5.81
1455211772448000907,254,0,/imu_data_acquisition2,47251.0,0.116943359375,-0.084716796875,0.945251464844,0.292663574219,46.875,-263.0625,1.8125,-19.16,-1.95,-0.01
1455211772459234952,255,0,/imu_data_acquisition2,47261.0,0.132995605469,-0.08837890625,0.943237304688,0.291137695312,14.5625,-196.5625,-0.9375,-18.12,-2.21,-15.17
1455211772473057031,256,0,/imu_data_acquisition2,47272.0,0.141967773438,-0.0924682617188,0.94140625,0.291687011719,-17.75,-116.8125,-15.5,-17.28,-7.79,-17.44
1455211772478020906,257,0,/imu_data_acquisition2,47281.0,0.143127441406,-0.0934448242188,0.940002441406,0.295349121094,-14.3125,-14.9375,-45.25,-14.66,-12.07,-22.24
1455211772488923072,258,0,/imu_data_acquisition2,47291.0,0.135925292969,-0.0864868164062,0.939636230469,0.301818847656,41.0,111.25,-77.0625,-16.35,-10.1,-16.56
1455211772498769998,259,0,/imu_data_acquisition2,47300.0,0.122802734375,-0.072021484375,0.940307617188,0.309204101562,102.6875,206.5,-90.0,-0.96,-0.01,-0.01
1455211772508595943,260,0,/imu_data_acquisition2,47311.0,0.107849121094,-0.0548706054688,0.94091796875,0.316345214844,125.875,236.4375,-89.5,-4.04,6.39,5.21
1455211772520433902,261,0,/imu_data_acquisition2,47322.0,0.0941772460938,-0.0413208007812,0.940612792969,0.323425292969,90.625,207.25,-88.3125,3.03,9.15,17.77
1455211772528850078,262,0,/imu_data_acquisition2,47331.0,0.0772094726562,-0.033447265625,0.939392089844,0.332397460938,12.3125,222.0,-105.0,4.53,8.35,24.19
1455211772539612054,263,0,/imu_data_acquisition2,47342.0,0.0581665039062,-0.0130004882812,-6.103515625e-05,0.341064453125,-30.125,232.3125,-99.6875,1.29,15.16,-0.27
1455211772552853107,264,0,/imu_data_acquisition2,47355.0,0.0368041992188,-0.0243530273438,0.936950683594,0.346557617188,-42.75,255.875,-59.9375,-1.32,12.66,-4.35
1455211772559468984,265,0,/imu_data_acquisition2,47361.0,0.012939453125,-0.0178833007812,0.937255859375,0.347900390625,-26.375,292.25,-9.125,-10.11,14.85,13.12
1455211772572403907,266,0,/imu_data_acquisition2,47375.0,-0.0091552734375,-0.01513671875,0.9375,0.347534179688,-60.875,256.25,8.6875,-10.42,5.81,26.55
1455211772580432891,267,0,/imu_data_acquisition2,47382.0,-0.0277709960938,-0.01611328125,0.937438964844,0.3466796875,-87.5,202.125,12.4375,-4.04,-0.75,16.14
1455211772588244915,268,0,/imu_data_acquisition2,47390.0,-0.0452880859375,-0.01513671875,0.93701171875,0.345947265625,-13.5,-0.0625,-0.0625,-1.61,-13.55,19.58
1455211772599567890,269,0,/imu_data_acquisition2,47402.0,-0.0588989257812,-0.010009765625,0.935974121094,0.346984863281,1.5,172.3125,-10.25,-14.41,-0.7,-0.01
1455211772610919952,270,0,/imu_data_acquisition2,47412.0,-0.0633544921875,-0.00396728515625,0.935363769531,0.347961425781,49.5625,74.5625,-8.8125,-4.18,6.48,14.66
1455211772618741035,271,0,/imu_data_acquisition2,47421.0,-0.0653686523438,-0.0009765625,0.934997558594,0.348510742188,25.375,35.5625,-5.125,-4.68,14.12,17.99
1455211772633034944,272,0,/imu_data_acquisition2,47435.0,-0.06640625,-0.0035400390625,0.934936523438,0.348510742188,-32.75,0.625,-2.5,-5.37,4.57,13.93
1455211772641998052,273,0,/imu_data_acquisition2,47443.0,-0.0668334960938,-0.00616455078125,0.934814453125,0.348693847656,-30.9375,-5.875,-4.1875,-2.07,-7.09,12.05
1455211772650969028,274,0,/imu_data_acquisition2,47452.0,-0.0667724609375,-0.00677490234375,0.934936523438,0.348449707031,-6.3125,-3.625,2.6875,-1.8,-0.66,-0.01
1455211772659025907,275,0,/imu_data_acquisition2,47461.0,-0.0665283203125,-0.00726318359375,0.935119628906,0.348022460938,-4.75,-0.0625,-0.0625,-1.14,1.2,10.84
1455211772670581102,276,0,/imu_data_acquisition2,47471.0,-0.0665893554688,-0.00799560546875,0.935241699219,0.347595214844,-8.8125,-2.25,4.75,-1.19,-2.11,11.61
1455211772678189039,277,0,/imu_data_acquisition2,47481.0,-0.0665893554688,-0.008544921875,0.935363769531,0.34716796875,-5.9375,-2.8125,4.4375,-0.65,-1.45,11.04
1455211772690964937,278,0,/imu_data_acquisition2,47494.0,-0.066650390625,-0.0087890625,0.935546875,0.346801757812,-3.5,-0.6875,4.9375,-0.67,-0.24,9.73
1455211772701843023,279,0,/imu_data_acquisition2,47500.0,-0.06689453125,-0.00909423828125,0.935668945312,0.346374511719,-4.375,1.3125,4.8125,-0.78,-0.63,10.39
1455211772709423065,280,0,/imu_data_acquisition2,47511.0,-6.103515625e-05,-6.103515625e-05,-6.103515625e-05,0.346008300781,-4.5625,-0.0625,-0.0625,-0.74,-0.88,9.89
1455211772720967054,281,0,/imu_data_acquisition2,47521.0,-0.0675048828125,-0.0096435546875,0.935852050781,0.345764160156,-4.5,2.75,3.4375,-0.7,-0.97,10.28
1455211772727510929,282,0,/imu_data_acquisition2,47530.0,-0.0678100585938,-0.0098876953125,0.935913085938,0.345520019531,-4.1875,2.5625,2.6875,-0.78,-0.82,10.34
1455211772738979101,283,0,/imu_data_acquisition2,47541.0,-0.068115234375,-0.0100708007812,0.935913085938,0.345336914062,-3.625,2.125,1.5625,-1.43,-0.79,10.37
1455211772751465082,284,0,/imu_data_acquisition2,47551.0,-0.0682373046875,-0.0103149414062,0.935913085938,0.345336914062,-3.0625,0.75,0.375,-1.21,-0.66,10.44
1455211772757551908,285,0,/imu_data_acquisition2,47560.0,-0.068359375,-0.0105590820312,0.935913085938,0.345397949219,-3.125,-0.5,-0.8125,-1.0,-0.44,10.12
1455211772769941091,286,0,/imu_data_acquisition2,47572.0,-0.0684204101562,-0.0108642578125,0.935852050781,0.345458984375,-3.625,-0.75,-1.375,-0.87,-1.44,10.2
1455211772780293941,287,0,/imu_data_acquisition2,47581.0,-0.0682983398438,-0.0111694335938,0.935852050781,0.345581054688,-2.5625,-2.125,-1.6875,-0.75,-0.93,9.53
1455211772788142919,288,0,/imu_data_acquisition2,47590.0,-0.0682983398438,-0.0113525390625,0.935791015625,0.345642089844,-2.25,-1.0625,-0.9375,-1.19,-1.1,9.82
1455211772801024913,289,0,/imu_data_acquisition2,47602.0,-0.0681762695312,-0.0115966796875,0.935791015625,0.345703125,-1.8125,-1.6875,-0.6875,-0.84,-0.86,9.71
1455211772808906078,290,0,/imu_data_acquisition2,47610.0,-0.005615234375,-6.103515625e-05,-6.103515625e-05,0.345703125,-1.5625,-1.5,-0.125,-0.94,-0.96,9.89
1455211772818931102,291,0,/imu_data_acquisition2,47621.0,-0.00555419921875,-6.103515625e-05,-6.103515625e-05,0.345703125,-1.375,-1.3125,0.125,-0.93,-1.01,9.77
1455211772829345941,292,0,/imu_data_acquisition2,47631.0,-0.0679931640625,-0.0120239257812,0.935791015625,0.345642089844,-1.4375,-1.0,0.3125,-1.44,-1.02,9.61
1455211772839389085,293,0,/imu_data_acquisition2,47641.0,-0.06787109375,-0.0122680664062,0.935791015625,0.345642089844,-1.875,-2.1875,-0.1875,-1.04,-0.75,9.32
1455211772852946043,294,0,/imu_data_acquisition2,47653.0,-0.06787109375,-0.012451171875,0.935852050781,0.345642089844,-2.1875,-1.375,0.0625,-1.02,-0.99,10.17
1455211772860975980,295,0,/imu_data_acquisition2,47661.0,-6.103515625e-05,-6.103515625e-05,-6.103515625e-05,0.345642089844,-2.0,-1.75,-0.5,-0.91,-0.91,9.59
1455211772870553016,296,0,/imu_data_acquisition2,47670.0,-0.0677490234375,-0.012939453125,0.935852050781,0.345642089844,-1.9375,-1.0625,-0.375,-1.2,-0.81,9.78
1455211772878577947,297,0,/imu_data_acquisition2,47681.0,-0.0676879882812,-0.0132446289062,0.935791015625,0.345642089844,-2.375,-1.0625,-0.625,-0.82,-0.99,9.81
1455211772889775991,298,0,/imu_data_acquisition2,47691.0,-0.0678100585938,-0.0135498046875,0.935791015625,0.345703125,-2.5,-0.5625,-0.8125,-1.3,-0.97,9.54
1455211772899465084,299,0,/imu_data_acquisition2,47700.0,-0.06787109375,-0.0138549804688,0.935791015625,0.345764160156,-2.5,0.0,-0.6875,-1.03,-0.89,9.74
1455211772908395051,300,0,/imu_data_acquisition2,47711.0,-0.0679321289062,-0.01416015625,0.935729980469,0.345764160156,-2.125,0.5,-0.5625,-0.94,-0.01,-0.01
1455211772919847011,301,0,/imu_data_acquisition2,47721.0,-0.068115234375,-0.014404296875,0.935729980469,0.345764160156,-1.5,1.4375,-0.1875,-1.3,-1.1,9.72
1455211772929434061,302,0,/imu_data_acquisition2,47730.0,-0.068359375,-0.0146484375,0.935729980469,0.345764160156,-1.0,1.375,0.125,-1.12,-1.09,9.58
1455211773012696981,303,0,/imu_data_acquisition2,47741.0,-0.0686645507812,-0.014892578125,0.935668945312,0.345764160156,-0.375,2.3125,0.4375,-1.21,-1.22,9.78
1455211773056993961,304,0,/imu_data_acquisition2,47751.0,-0.06884765625,-0.0150146484375,0.935668945312,0.345703125,0.375,2.0625,0.8125,-0.97,-0.99,9.9
1455211773059134960,305,0,/imu_data_acquisition2,47760.0,-6.103515625e-05,-6.103515625e-05,-6.103515625e-05,0.345703125,0.875,3.0625,0.9375,-0.91,-1.04,9.41
1455211773061189889,306,0,/imu_data_acquisition2,47772.0,-0.0692749023438,-0.0149536132812,0.935729980469,0.345581054688,1.5,3.875,1.4375,-0.9,-0.94,9.62
1455211773062532901,307,0,/imu_data_acquisition2,47782.0,-0.069580078125,-0.0147705078125,0.935729980469,0.345458984375,1.8125,5.0,1.75,-1.03,-0.94,9.75
1455211773063826084,308,0,/imu_data_acquisition2,47790.0,-0.070068359375,-0.0146484375,0.935729980469,0.345336914062,1.6875,6.25,2.125,-1.29,-1.17,9.96
1455211773066015005,309,0,/imu_data_acquisition2,47800.0,-0.0704956054688,-0.0144653320312,0.935791015625,0.34521484375,2.25,5.6875,2.0,-1.24,-1.0,9.52
1455211773071948051,310,0,/imu_data_acquisition2,47810.0,-0.0709838867188,-0.0142211914062,0.935791015625,0.345031738281,2.4375,6.5,2.375,-1.11,-1.13,-0.01
1455211773075726985,311,0,/imu_data_acquisition2,47820.0,-0.0714721679688,-0.013916015625,0.935791015625,0.344909667969,3.0625,6.875,2.0,-1.21,-0.86,9.33
1455211773077361106,312,0,/imu_data_acquisition2,47830.0,-0.0719604492188,-0.013427734375,0.935852050781,0.344787597656,3.0,7.5625,2.1875,-1.22,-0.79,9.42
1455211773078742027,313,0,/imu_data_acquisition2,47840.0,-0.072509765625,-0.012939453125,0.935852050781,0.344665527344,2.875,8.3125,2.0,-1.16,-0.94,9.96
1455211773080590009,314,0,/imu_data_acquisition2,47850.0,-0.0731811523438,-0.012451171875,0.935852050781,0.344543457031,2.875,9.1875,1.9375,-1.21,-0.96,9.53
1455211773083579063,315,0,/imu_data_acquisition2,47860.0,-0.0739135742188,-0.0119018554688,0.935852050781,0.344360351562,3.0625,10.5,2.3125,-1.22,-0.87,9.96
1455211773088771104,316,0,/imu_data_acquisition2,47871.0,-0.07470703125,-0.011474609375,0.935852050781,0.344177246094,2.6875,10.8125,2.4375,-1.05,-1.02,9.72
1455211773090966939,317,0,/imu_data_acquisition2,47881.0,-0.0755615234375,-0.0110473632812,0.935852050781,0.344055175781,2.75,11.5,2.5,-1.55,-1.08,9.85
1455211773095343112,318,0,/imu_data_acquisition2,47896.0,-0.076416015625,-0.0106201171875,0.935852050781,0.343872070312,3.125,11.5625,2.625,-1.32,-0.98,9.87
1455211773098598003,319,0,/imu_data_acquisition2,47900.0,-0.076416015625,-0.0106201171875,0.935852050781,0.343872070312,3.375,12.0,2.8125,-1.27,-1.11,10.09
1455211773111665964,320,0,/imu_data_acquisition2,47912.0,-0.0148315429688,-6.103515625e-05,-6.103515625e-05,0.343688964844,3.9375,12.4375,2.625,-1.14,-1.16,-0.01
1455211773118319034,321,0,/imu_data_acquisition2,47920.0,-0.0791015625,-0.00933837890625,0.935852050781,0.343322753906,4.75,13.75,3.3125,-1.17,-1.26,9.82
1455211773129650115,322,0,/imu_data_acquisition2,47931.0,-0.0799560546875,-0.00885009765625,0.935852050781,0.343078613281,5.8125,14.6875,4.1875,-0.96,-1.13,9.87
1455211773140011072,323,0,/imu_data_acquisition2,47942.0,-0.0809936523438,-0.00811767578125,0.935852050781,0.342834472656,6.8125,15.3125,4.5625,-1.6,-1.11,10.01
1455211773151726007,324,0,/imu_data_acquisition2,47951.0,-0.0820922851562,-0.00714111328125,0.935913085938,0.342468261719,6.5,15.875,4.8125,-1.4,-1.02,-0.01
1455211773164329051,325,0,/imu_data_acquisition2,47961.0,-0.0820922851562,-0.00714111328125,0.935913085938,0.342468261719,5.625,16.5625,3.9375,-1.35,-0.56,9.93
1455211773171586990,326,0,/imu_data_acquisition2,47972.0,-0.0846557617188,-0.00518798828125,0.935852050781,0.341979980469,4.9375,19.8125,3.625,-1.06,-0.54,9.95
1455211773179327011,327,0,/imu_data_acquisition2,47980.0,-0.08642578125,-0.00408935546875,0.935791015625,0.341857910156,4.75,23.8125,2.0625,-0.71,-0.26,9.39
1455211773191168069,328,0,/imu_data_acquisition2,47992.0,-0.0887451171875,-0.0029296875,0.935546875,0.341918945312,3.75,30.875,-0.3125,-1.71,-1.65,9.76
1455211773203107118,329,0,/imu_data_acquisition2,48001.0,-0.0887451171875,-0.0029296875,0.935546875,0.341918945312,4.375,34.625,-3.25,-0.81,-0.22,9.79
1455211773208863973,330,0,/imu_data_acquisition2,48011.0,-0.0942993164062,-6.103515625e-05,0.934692382812,0.342712402344,5.125,39.625,-5.75,-1.17,-0.89,10.33
1455211773221625089,331,0,/imu_data_acquisition2,48022.0,-0.0972900390625,0.00164794921875,0.933959960938,0.343872070312,8.0,40.375,-13.875,-1.58,-0.85,10.28
1455211773233310937,332,0,/imu_data_acquisition2,48031.0,-0.0972900390625,0.00164794921875,0.933959960938,0.343872070312,7.25,40.3125,-12.875,-1.17,-0.5,9.04
1455211773238989114,333,0,/imu_data_acquisition2,48042.0,-0.103393554688,0.00469970703125,0.932434082031,0.346252441406,4.5625,41.3125,-16.125,-2.44,-1.55,9.58
1455211773250715017,334,0,/imu_data_acquisition2,48052.0,-0.103393554688,0.00469970703125,0.932434082031,0.346252441406,1.1875,39.375,-12.875,-0.87,-1.06,9.96
1455211773259684085,335,0,/imu_data_acquisition2,48061.0,-0.1064453125,0.005859375,0.931701660156,0.347229003906,1.1875,39.375,-12.875,-0.07,-0.88,9.56
1455211773268810033,336,0,/imu_data_acquisition2,48071.0,-0.109252929688,0.00677490234375,0.931030273438,0.348083496094,-3.1875,35.25,-9.3125,-1.44,-1.17,10.11
1455211773281791925,337,0,/imu_data_acquisition2,48083.0,-0.116027832031,0.0081787109375,0.9296875,0.349487304688,-7.25,46.9375,-10.125,0.34,-0.55,9.59
1455211773293426990,338,0,/imu_data_acquisition2,48092.0,-0.116027832031,0.0081787109375,0.9296875,0.349487304688,-17.25,66.75,-14.1875,0.11,-1.37,9.2
1455211773298593044,339,0,/imu_data_acquisition2,48101.0,-0.129821777344,0.00909423828125,0.927307128906,0.350891113281,-27.375,91.5,-11.6875,3.77,-1.27,8.64
1455211773309093952,340,0,/imu_data_acquisition2,48111.0,-6.103515625e-05,-6.103515625e-05,-6.103515625e-05,0.350891113281,-33.75,166.6875,14.125,1.51,-0.76,9.07
1455211773319839000,341,0,/imu_data_acquisition2,48122.0,-0.143859863281,0.0115356445312,0.925842285156,0.349304199219,-39.3125,250.0625,46.5625,2.9,-0.29,8.96
1455211773329020977,342,0,/imu_data_acquisition2,48131.0,-0.1904296875,0.0230712890625,0.921325683594,0.338134765625,-45.3125,317.6875,70.1875,-1.39,-0.3,11.09
1455211773339921951,343,0,/imu_data_acquisition2,48142.0,-0.1904296875,0.0230712890625,0.921325683594,0.338134765625,-52.1875,367.1875,83.875,1.94,1.59,13.26
1455211773350342988,344,0,/imu_data_acquisition2,48151.0,-0.22021484375,0.0308227539062,0.91748046875,0.329895019531,-74.75,429.9375,84.375,-2.25,1.22,14.69
1455211773358717918,345,0,/imu_data_acquisition2,48161.0,-6.103515625e-05,-6.103515625e-05,-6.103515625e-05,0.320617675781,-106.6875,499.8125,61.4375,-6.29,-0.46,21.0
1455211773370284080,346,0,/imu_data_acquisition2,48172.0,-0.296081542969,0.045166015625,0.901733398438,0.311645507812,-110.25,481.4375,28.3125,-3.72,-0.92,20.6
1455211773380465030,347,0,/imu_data_acquisition2,48182.0,-0.372497558594,0.0543212890625,0.877258300781,0.297790527344,-109.375,463.1875,20.5,-2.39,-1.46,13.88
1455211773389776945,348,0,/imu_data_acquisition2,48192.0,-0.372497558594,0.0543212890625,0.877258300781,0.297790527344,-101.1875,490.375,44.75,6.16,0.92,11.15
1455211773401818990,349,0,/imu_data_acquisition2,48202.0,-0.410827636719,0.060546875,0.862670898438,0.288757324219,-106.6875,542.0625,37.8125,3.21,1.43,10.1
1455211773409123897,350,0,/imu_data_acquisition2,48210.0,-0.452270507812,0.0671997070312,0.844360351562,0.279235839844,-106.6875,542.0625,37.8125,-8.06,-4.53,12.08
1455211773419630050,351,0,/imu_data_acquisition2,48222.0,-0.4990234375,0.074462890625,0.820678710938,0.268127441406,-109.25,608.25,53.25,-34.5,-11.86,35.27
1455211773431159019,352,0,/imu_data_acquisition2,48232.0,-0.542541503906,0.0828247070312,0.795837402344,0.255676269531,-15.75,322.3125,67.8125,-5.18,0.08,36.29
1455211773443742990,353,0,/imu_data_acquisition2,48243.0,-0.563903808594,0.091796875,0.782348632812,0.248046875,19.5625,152.5,74.8125,-7.85,-2.34,37.4
1455211773450716972,354,0,/imu_data_acquisition2,48252.0,-0.571166992188,0.106750488281,-6.103515625e-05,0.239074707031,41.125,-2.1875,87.75,-1.34,-1.32,28.52
1455211773461966991,355,0,/imu_data_acquisition2,48261.0,-0.571166992188,0.106750488281,0.777954101562,0.239074707031,39.25,-94.6875,81.5,3.37,-1.87,11.56
1455211773472827911,356,0,/imu_data_acquisition2,48271.0,-0.563354492188,0.111328125,0.783752441406,0.236450195312,31.8125,-127.0625,76.5625,4.21,-2.91,6.38
1455211773480436086,357,0,/imu_data_acquisition2,48282.0,-0.553588867188,0.114501953125,0.791015625,0.234069824219,36.1875,-136.6875,69.0625,4.19,-3.17,3.51
1455211773493977069,358,0,/imu_data_acquisition2,48292.0,-0.54296875,0.117492675781,0.79833984375,0.232421875,42.125,-135.25,59.625,4.15,-3.39,2.42
1455211773499031066,359,0,/imu_data_acquisition2,48300.0,-0.532409667969,0.120361328125,0.805236816406,0.231689453125,42.125,-135.25,59.625,4.15,-3.39,2.42
1455211773509555101,360,0,/imu_data_acquisition2,48312.0,-0.522155761719,0.122863769531,0.8115234375,0.231750488281,44.25,-14.375,-0.0625,2.7,-4.39,5.88
1455211773521316051,361,0,/imu_data_acquisition2,48323.0,-0.512268066406,0.124938964844,0.817199707031,0.232666015625,46.25,-133.25,18.4375,1.86,-4.72,8.0
1455211773529997110,362,0,/imu_data_acquisition2,48331.0,-0.501953125,0.126281738281,0.822814941406,0.234802246094,48.375,-150.1875,2.25,-0.24,-5.01,12.48
1455211773540740013,363,0,/imu_data_acquisition2,48343.0,-0.490478515625,0.126770019531,0.82861328125,0.23828125,50.0,-176.4375,-15.0,-1.35,-4.94,13.8
1455211773552650928,364,0,/imu_data_acquisition2,48352.0,-0.477233886719,0.126037597656,0.8349609375,0.243286132812,50.0,-176.4375,-15.0,-2.42,-0.01,-0.01
1455211773562562942,365,0,/imu_data_acquisition2,48362.0,-0.443542480469,0.120971679688,0.849914550781,0.257507324219,53.3125,-244.125,-44.6875,-4.28,-3.21,13.16
1455211773571938037,366,0,/imu_data_acquisition2,48373.0,-0.423034667969,0.11669921875,0.858276367188,0.266052246094,53.0,-275.9375,-53.875,-4.81,-2.54,11.76
1455211773583327054,367,0,/imu_data_acquisition2,48383.0,-0.423034667969,0.11669921875,0.858276367188,0.266052246094,48.875,-299.8125,-58.4375,-5.16,-1.94,10.45
1455211773591892004,368,0,/imu_data_acquisition2,48392.0,-0.400634765625,0.111389160156,0.866882324219,0.27490234375,42.0,-313.8125,-59.9375,-5.65,-1.03,8.44
1455211773600408077,369,0,/imu_data_acquisition2,48401.0,-0.377075195312,0.105102539062,0.875427246094,0.283569335938,42.0,-313.8125,-59.9375,-5.73,-0.77,7.8
1455211773612158060,370,0,/imu_data_acquisition2,48410.0,-0.35302734375,0.0980224609375,0.883544921875,0.291748046875,33.625,-319.5625,-58.9375,-5.73,-0.77,-0.01
1455211773620518922,371,0,/imu_data_acquisition2,48423.0,-0.328918457031,0.0904541015625,0.89111328125,0.299255371094,20.875,-313.8125,-51.4375,-5.87,-0.71,7.69
1455211773630893945,372,0,/imu_data_acquisition2,48433.0,-0.305053710938,0.0826416015625,0.898071289062,0.305969238281,16.8125,-305.5625,-46.6875,-5.97,-1.09,8.58
1455211773642613887,373,0,/imu_data_acquisition2,48443.0,-0.281677246094,0.0747680664062,0.904296875,0.311950683594,14.25,-296.5625,-42.25,-5.96,-1.54,9.56
1455211773653255939,374,0,/imu_data_acquisition2,48454.0,-0.258850097656,0.0670166015625,0.909851074219,0.317321777344,13.3125,-289.5625,-40.1875,-5.81,-2.04,10.32
1455211773661833047,375,0,/imu_data_acquisition2,48462.0,-0.236389160156,0.0593872070312,0.914733886719,0.322265625,13.3125,-289.5625,-40.1875,-5.81,-2.04,10.32
1455211773671930074,376,0,/imu_data_acquisition2,48473.0,-0.214233398438,0.0519409179688,0.9189453125,0.326965332031,14.75,-276.9375,-43.3125,-5.26,-2.43,12.36
1455211773680677890,377,0,/imu_data_acquisition2,48483.0,-0.192443847656,0.0446166992188,0.922424316406,0.331726074219,13.4375,-271.375,-46.5625,-5.29,-2.35,13.4
1455211773694222927,378,0,/imu_data_acquisition2,48496.0,-0.171020507812,0.0372924804688,0.925231933594,0.336547851562,11.4375,-267.0,-49.9375,-5.32,-2.11,14.74
1455211773698290109,379,0,/imu_data_acquisition2,48501.0,-0.149963378906,0.0299072265625,0.927429199219,0.341369628906,11.4375,-267.0,-49.9375,-5.32,-2.11,14.74
1455211773710767030,380,0,/imu_data_acquisition2,48511.0,-0.129211425781,0.0224609375,0.928955078125,0.34619140625,10.0625,-0.0625,-0.0625,-5.29,-1.69,15.13
1455211773721663951,381,0,/imu_data_acquisition2,48523.0,-0.109069824219,0.0150756835938,0.929931640625,0.350891113281,5.0625,-244.5625,-52.375,-6.68,-1.01,17.64
1455211773734509944,382,0,/imu_data_acquisition2,48533.0,-0.0897216796875,0.0076904296875,0.930419921875,0.355285644531,4.4375,-231.1875,-48.125,-7.76,-1.44,19.37
1455211773745209932,383,0,/imu_data_acquisition2,48544.0,-0.0714721679688,0.000732421875,0.930541992188,0.359191894531,9.6875,-218.875,-40.3125,-9.15,-2.04,21.26
