%time,field.header.seq,field.header.stamp,field.header.frame_id,field.time_stamp,field.quat_x,field.quat_y,field.quat_z,field.quat_w,field.gyro_x,field.gyro_y,field.gyro_z,field.accel_x,field.accel_y,field.accel_z
1455208215718391895,1,0,/imu_data_acquisition2,65515.0,-6.103515625e-05,-6.103515625e-05,-6.103515625e-05,0.499633789062,51.9375,-132.25,-63.25,-3.74,-6.98,5.5
1455208215722732067,2,0,/imu_data_acquisition2,65525.0,-0.208862304688,-0.0663452148438,0.835205078125,0.50439453125,50.625,-118.25,-63.625,-3.34,-6.38,5.92
1455208215728534936,3,0,/imu_data_acquisition2,65536.0,-0.199157714844,-0.0682983398438,0.834533691406,0.509094238281,49.5625,-102.8125,-63.1875,-3.47,-5.86,6.94
1455208215736244916,4,0,/imu_data_acquisition2,65543.0,-0.190612792969,-0.0699462890625,0.833618164062,0.513671875,45.4375,-88.25,-61.625,-1.11,-0.01,-0.01
1455208215744621992,5,0,/imu_data_acquisition2,65553.0,-0.183227539062,-0.0717163085938,0.832458496094,0.518005371094,36.25,-77.6875,-59.5625,-4.41,-4.55,9.82
1455208215757071971,6,0,/imu_data_acquisition2,65564.0,-0.176818847656,-0.073974609375,0.831176757812,0.521911621094,24.8125,-70.875,-57.1875,-4.82,-4.02,10.67
1455208215764812946,7,0,/imu_data_acquisition2,65573.0,-0.171203613281,-0.076904296875,0.829895019531,0.525451660156,11.5,-67.3125,-53.3125,-5.65,-3.76,11.4
1455208215774801969,8,0,/imu_data_acquisition2,65583.0,-0.166259765625,-0.080810546875,0.828674316406,0.5283203125,-2.8125,-68.1875,-48.25,-6.33,-3.45,11.46
1455208215786122083,9,0,/imu_data_acquisition2,65594.0,-6.103515625e-05,-6.103515625e-05,-6.103515625e-05,0.530883789062,-10.25,-66.8125,-45.5625,-8.19,-2.12,11.88
1455208215794869899,10,0,/imu_data_acquisition2,65603.0,-0.157409667969,-0.0902709960938,0.826538085938,0.532775878906,-20.25,-70.25,-38.5625,-9.32,-1.3,12.0
1455208215804584026,11,0,/imu_data_acquisition2,65613.0,-0.153381347656,-0.0958251953125,0.825927734375,0.533996582031,-27.25,-72.4375,-30.625,-10.43,-0.69,12.0
1455208215816302061,12,0,/imu_data_acquisition2,65625.0,-0.149353027344,-0.101989746094,0.825744628906,0.534301757812,-34.3125,-77.125,-19.5,-12.57,-0.25,11.48
1455208215824697971,13,0,/imu_data_acquisition2,65633.0,-0.145141601562,-0.1083984375,0.826110839844,0.533569335938,-4.875,-0.0625,-0.0625,-13.5,-0.05,10.71
1455208215834538936,14,0,/imu_data_acquisition2,65643.0,-0.140441894531,-0.114685058594,0.827270507812,0.53173828125,-33.875,-90.1875,8.1875,-13.98,0.26,9.62
1455208215846836090,15,0,/imu_data_acquisition2,65654.0,-0.135131835938,-0.120483398438,0.829284667969,0.528686523438,-25.4375,-96.0625,25.625,-15.19,0.42,7.3
1455208215855293989,16,0,/imu_data_acquisition2,65664.0,-0.129150390625,-0.125366210938,0.832153320312,0.524536132812,-12.9375,-99.625,42.625,-15.55,0.54,5.94
1455208215864548921,17,0,/imu_data_acquisition2,65673.0,-0.122802734375,-0.129272460938,0.8359375,0.519104003906,-1.375,-101.0625,61.8125,-15.82,0.48,4.34
1455208215876388072,18,0,/imu_data_acquisition2,65683.0,-0.116333007812,-0.131958007812,0.840576171875,0.512329101562,10.0625,-98.0,81.875,-15.88,0.18,2.66
1455208215885613918,19,0,/imu_data_acquisition2,65694.0,-0.110229492188,-0.13330078125,0.845947265625,0.504455566406,21.25,-88.4375,99.375,-15.8,-0.77,-0.32
1455208215894676923,20,0,/imu_data_acquisition2,65703.0,-0.105102539062,-0.133056640625,0.851623535156,0.495971679688,31.125,-70.125,111.1875,-15.63,-1.31,-1.63
1455208215905431032,21,0,/imu_data_acquisition2,65713.0,-0.1015625,-0.130981445312,0.857299804688,0.487426757812,40.125,-44.3125,116.0,-15.49,-1.99,-2.6
1455208215915709972,22,0,/imu_data_acquisition2,65724.0,-0.0999145507812,-0.126770019531,0.862487792969,0.479614257812,50.4375,-10.5,111.8125,-14.76,-3.68,-3.59
1455208215924593925,23,0,/imu_data_acquisition2,65733.0,-6.103515625e-05,-6.103515625e-05,-6.103515625e-05,0.47314453125,62.3125,27.375,100.0,-13.81,-6.08,-3.95
1455208215935158014,24,0,/imu_data_acquisition2,65743.0,-0.100463867188,-0.120300292969,0.866943359375,0.47314453125,87.4375,67.375,76.3125,-2.25,-8.15,-2.47
1455208215945642948,25,0,/imu_data_acquisition2,65754.0,-0.105773925781,-0.09521484375,0.8720703125,0.46826171875,142.25,113.75,39.8125,1.38,-10.52,12.34
1455208215954561948,26,0,/imu_data_acquisition2,65763.0,-0.110473632812,-0.0789794921875,0.872192382812,0.469970703125,143.5,140.6875,8.25,1.59,-4.42,7.68
1455208215965105056,27,0,/imu_data_acquisition2,65773.0,-0.117370605469,-0.066650390625,0.870910644531,0.472595214844,91.6875,143.5625,-11.25,2.94,1.66,0.83
1455208215975872039,28,0,/imu_data_acquisition2,65784.0,-0.125610351562,-0.0527954101562,0.86962890625,0.474548339844,97.6875,165.6875,-1.75,-4.3,-1.63,19.34
1455208215984858989,29,0,/imu_data_acquisition2,65794.0,-0.135192871094,-0.0309448242188,0.86865234375,0.4755859375,172.125,223.5,22.25,-33.92,-6.54,39.68
1455208215994692087,30,0,/imu_data_acquisition2,65803.0,-0.139831542969,0.00341796875,0.866882324219,0.478454589844,331.375,245.4375,17.125,-31.17,13.41,35.4
1455208216006581068,31,0,/imu_data_acquisition2,65814.0,-0.131530761719,0.0035400390625,0.867492675781,0.479675292969,50.8125,-85.75,-8.1875,8.71,-13.69,-28.51
1455208216014771938,32,0,/imu_data_acquisition2,65823.0,-0.122192382812,-0.00830078125,0.873596191406,0.471008300781,-82.8125,-172.0625,105.3125,-18.2,31.77,39.68
1455208216024492979,33,0,/imu_data_acquisition2,65833.0,-0.122192382812,-0.00830078125,0.873596191406,0.471008300781,202.75,139.4375,-75.875,6.19,-0.89,-0.01
1455208216036514043,34,0,/imu_data_acquisition2,65844.0,-0.0149536132812,-6.103515625e-05,-6.103515625e-05,0.478698730469,-90.25,-108.1875,69.375,-4.9,0.76,12.09
1455208216044686079,35,0,/imu_data_acquisition2,65853.0,-0.120666503906,0.005126953125,0.872314453125,0.473754882812,38.875,30.25,-8.8125,0.03,-0.56,6.5
1455208216054730892,36,0,/imu_data_acquisition2,65863.0,-0.119812011719,0.003662109375,0.872802734375,0.47314453125,-10.8125,-17.6875,7.1875,-3.25,2.31,13.01
1455208216067055940,37,0,/imu_data_acquisition2,65874.0,-0.119873046875,0.0040283203125,0.872497558594,0.473693847656,3.5,3.1875,-7.4375,-1.44,-2.52,7.75
1455208216074737071,38,0,/imu_data_acquisition2,65883.0,-0.119873046875,0.0040283203125,0.872497558594,0.473693847656,1.625,5.6875,-10.9375,-2.7,-2.53,9.42
1455208216084741115,39,0,/imu_data_acquisition2,65893.0,-0.120239257812,0.00421142578125,0.871948242188,0.474548339844,-2.0625,3.0625,-10.5625,-2.81,-1.94,9.72
1455208216096653938,40,0,/imu_data_acquisition2,65904.0,-0.120666503906,0.0040283203125,0.87109375,0.47607421875,0.0,1.625,-10.625,-2.02,-2.24,9.28
1455208216105154037,41,0,/imu_data_acquisition2,65914.0,-0.120544433594,0.00396728515625,0.870788574219,0.476684570312,0.625,-1.3125,-7.875,-2.25,-2.08,8.48
1455208216115384101,42,0,/imu_data_acquisition2,65924.0,-0.120544433594,0.00396728515625,0.870788574219,0.476684570312,0.875,-1.8125,-4.8125,-2.66,-2.47,8.54
1455208216125536918,43,0,/imu_data_acquisition2,65934.0,-0.120422363281,0.00390625,0.87060546875,0.47705078125,0.875,-5.375,-2.125,-2.34,-1.64,9.53
1455208216134891033,44,0,/imu_data_acquisition2,65943.0,-0.119934082031,0.00372314453125,0.870544433594,0.477172851562,3.8125,-7.25,-0.3125,-2.24,-2.13,8.88
1455208216145148992,45,0,/imu_data_acquisition2,65954.0,-0.119262695312,0.00372314453125,0.87060546875,0.477233886719,4.1875,-9.25,1.1875,-2.23,-1.49,9.5
1455208216156426906,46,0,/imu_data_acquisition2,65964.0,-0.117431640625,0.003662109375,0.870910644531,0.477172851562,5.125,-10.1875,1.3125,-2.21,-1.31,9.44
1455208216165539026,47,0,/imu_data_acquisition2,65974.0,-0.116577148438,0.0037841796875,0.871032714844,0.477111816406,6.1875,-8.9375,1.125,-2.5,-1.36,9.99
1455208216175075054,48,0,/imu_data_acquisition2,65983.0,-0.116577148438,0.0037841796875,0.871032714844,0.477111816406,6.1875,-8.9375,1.125,-2.26,-1.4,9.91
1455208216185638904,49,0,/imu_data_acquisition2,65994.0,-0.115783691406,0.00408935546875,0.871154785156,0.477111816406,6.75,-4.3125,-0.0625,-2.31,-0.85,10.38
1455208216196070909,50,0,/imu_data_acquisition2,66004.0,-0.115173339844,0.00439453125,0.871215820312,0.477111816406,7.25,-2.5,0.375,-1.95,-1.34,9.55
1455208216205404043,51,0,/imu_data_acquisition2,66014.0,-0.114685058594,0.00482177734375,0.871276855469,0.477172851562,5.125,-2.25,0.0,-1.9,-1.5,9.47
1455208216216355085,52,0,/imu_data_acquisition2,66025.0,-0.114318847656,0.005126953125,0.871276855469,0.477233886719,3.5,-1.1875,-0.625,-2.7,-0.59,10.56
1455208216224692106,53,0,/imu_data_acquisition2,66033.0,-0.114074707031,0.00537109375,-6.103515625e-05,0.477355957031,3.5,1.0625,-0.0625,-2.05,-1.64,9.4
1455208216234674930,54,0,/imu_data_acquisition2,66043.0,-0.114013671875,0.005615234375,0.871215820312,0.477478027344,2.0,0.9375,-1.5625,-2.34,-1.07,10.15
1455208216246295928,55,0,/imu_data_acquisition2,66055.0,-0.114013671875,0.00579833984375,0.87109375,0.477600097656,2.5,1.75,-2.0,-2.7,-1.1,9.6
1455208216255716085,56,0,/imu_data_acquisition2,66064.0,-0.114074707031,0.00604248046875,0.871032714844,0.477783203125,3.4375,2.6875,-2.625,-2.72,-1.11,9.28
1455208216265878915,57,0,/imu_data_acquisition2,66074.0,-0.114135742188,0.00640869140625,0.870849609375,0.47802734375,6.0,1.8125,-3.625,-2.4,-1.33,9.23
1455208216276046037,58,0,/imu_data_acquisition2,66084.0,-0.114013671875,0.0068359375,0.870727539062,0.478332519531,5.5625,0.5625,-3.25,-1.96,-1.62,9.0
1455208216284837007,59,0,/imu_data_acquisition2,66093.0,-0.11376953125,0.00726318359375,0.870544433594,0.478637695312,5.5625,0.5625,-3.25,-2.12,-0.99,9.62
1455208216295746088,60,0,/imu_data_acquisition2,66104.0,-0.113525390625,0.00775146484375,0.870422363281,0.478942871094,1.5625,0.0,0.375,-2.15,-1.81,9.27
1455208216307068109,61,0,/imu_data_acquisition2,66115.0,-0.113525390625,0.00775146484375,0.870422363281,0.478942871094,0.1875,0.375,1.5625,-2.54,-1.43,9.35
1455208216315768957,62,0,/imu_data_acquisition2,66124.0,-0.113525390625,0.00775146484375,0.870483398438,0.478820800781,1.125,1.4375,1.4375,-2.9,-0.75,10.08
1455208216325438976,63,0,/imu_data_acquisition2,66134.0,-0.113586425781,0.0079345703125,0.870544433594,0.478759765625,0.5625,0.75,1.5,-2.91,-1.34,9.25
1455208216336935997,64,0,/imu_data_acquisition2,66144.0,-0.113586425781,0.0079345703125,0.87060546875,0.478637695312,0.5625,0.75,1.5,-3.08,-0.76,9.7
1455208216347443103,65,0,/imu_data_acquisition2,66154.0,-0.113586425781,0.008056640625,0.87060546875,0.478576660156,2.9375,1.625,-0.75,-2.65,-0.95,9.5
1455208216357238054,66,0,/imu_data_acquisition2,66164.0,-0.113586425781,0.00836181640625,0.87060546875,0.478698730469,2.875,1.0,-0.875,-2.7,-1.12,9.44
1455208216367132902,67,0,/imu_data_acquisition2,66175.0,-0.113525390625,0.00860595703125,0.870544433594,0.478759765625,3.9375,1.0,-1.375,-2.45,-1.4,9.36
1455208216375276088,68,0,/imu_data_acquisition2,66184.0,-0.113403320312,0.0089111328125,0.870483398438,0.478881835938,3.9375,1.0,-1.375,-2.47,-1.37,9.6
1455208216384803056,69,0,/imu_data_acquisition2,66193.0,-0.11328125,0.00927734375,0.870361328125,0.479125976562,4.8125,0.875,-1.9375,-2.47,-1.37,9.6
1455208216398410081,70,0,/imu_data_acquisition2,66205.0,-0.113159179688,0.0096435546875,0.870300292969,0.479248046875,5.125,1.3125,-1.5625,-2.6,-1.44,9.21
1455208216406725883,71,0,/imu_data_acquisition2,66215.0,-0.112915039062,0.010498046875,0.870178222656,0.479553222656,5.3125,0.8125,-1.375,-2.56,-0.01,-0.01
1455208216416444063,72,0,/imu_data_acquisition2,66225.0,-0.112915039062,0.010498046875,0.870178222656,0.479553222656,6.6875,1.75,-2.3125,-2.83,-0.97,9.67
1455208216425170898,73,0,/imu_data_acquisition2,66234.0,-0.112731933594,0.0110473632812,0.870056152344,0.479797363281,6.6875,1.75,-2.3125,-2.6,-1.18,9.52
1455208216438036918,74,0,/imu_data_acquisition2,66245.0,-0.113342285156,0.0115966796875,0.869812011719,0.480041503906,7.375,1.1875,-3.0625,-2.55,-1.1,9.46
1455208216446634054,75,0,/imu_data_acquisition2,66255.0,-0.113830566406,0.0121459960938,0.86962890625,0.480285644531,7.375,1.125,-3.375,-2.42,-0.97,9.42
1455208216457730054,76,0,/imu_data_acquisition2,66266.0,-0.114074707031,0.0127563476562,0.869384765625,0.480590820312,7.125,1.25,-3.75,-2.7,-0.93,9.45
1455208216469527006,77,0,/imu_data_acquisition2,66277.0,-0.114440917969,0.013427734375,0.869201660156,0.480895996094,7.0,1.625,-4.1875,-2.55,-1.14,9.52
1455208216478513002,78,0,/imu_data_acquisition2,66287.0,-0.114807128906,0.0139770507812,0.868957519531,0.481201171875,7.125,1.875,-5.5,-2.44,-0.96,9.54
1455208216500314950,80,0,/imu_data_acquisition2,66308.0,-0.115600585938,0.015625,0.868103027344,0.482482910156,6.75,2.8125,-4.5625,-2.46,-1.19,9.38
1455208216509289026,81,0,/imu_data_acquisition2,66317.0,-0.115600585938,0.015625,0.868103027344,0.482482910156,6.5625,3.25,-3.6875,-2.11,-1.16,9.52
1455208216521758079,82,0,/imu_data_acquisition2,66329.0,-0.115539550781,0.0162353515625,0.867919921875,0.482788085938,7.0625,4.75,-3.6875,-2.07,-1.11,9.77
1455208216530073881,83,0,/imu_data_acquisition2,66337.0,-0.11572265625,0.0176391601562,0.867492675781,0.483459472656,7.625,5.75,-3.5625,-2.04,-1.03,9.8
1455208216536608934,84,0,/imu_data_acquisition2,66345.0,-0.11572265625,0.0176391601562,0.867492675781,0.483459472656,7.625,5.75,-3.5625,-2.67,-0.83,9.53
1455208216547355890,85,0,/imu_data_acquisition2,66355.0,-0.115966796875,0.0183715820312,0.867309570312,0.483703613281,6.3125,6.625,-2.0,-2.77,-1.83,8.45
1455208216558351993,86,0,/imu_data_acquisition2,66366.0,-0.1162109375,0.0191040039062,0.867126464844,0.483947753906,9.5,10.9375,-3.375,-2.22,-0.75,9.23
1455208216566796064,87,0,/imu_data_acquisition2,66375.0,-0.116577148438,0.0202026367188,0.866882324219,0.484252929688,6.25,12.5,-1.4375,-2.15,-0.57,10.09
1455208216574816942,88,0,/imu_data_acquisition2,66383.0,-0.117248535156,0.0211791992188,0.86669921875,0.484375,6.25,12.5,-1.4375,-2.15,-0.57,10.09
1455208216587688922,89,0,/imu_data_acquisition2,66394.0,-0.11767578125,0.0220336914062,0.866577148438,0.484497070312,6.4375,9.25,-0.9375,-3.04,-1.82,10.88
1455208216596990108,90,0,/imu_data_acquisition2,66405.0,-0.117980957031,0.0228881835938,0.866516113281,0.484497070312,5.25,10.625,2.4375,-2.76,-1.52,9.81
1455208216606940031,91,0,/imu_data_acquisition2,66415.0,-0.118530273438,0.0237426757812,0.866455078125,0.484375,4.1875,13.625,2.3125,-1.44,-1.4,8.95
1455208216618870973,92,0,/imu_data_acquisition2,66427.0,-0.119323730469,0.0245971679688,0.866394042969,0.484191894531,4.9375,19.0625,1.625,-1.53,-0.97,8.5
1455208216624598026,93,0,/imu_data_acquisition2,66433.0,-0.120544433594,0.0257568359375,0.866271972656,0.484130859375,4.9375,19.0625,1.625,-1.53,-0.97,8.5
1455208216634538888,94,0,/imu_data_acquisition2,66443.0,-0.122192382812,0.0270385742188,0.866149902344,0.48388671875,3.375,24.6875,2.75,-2.56,-1.25,10.01
1455208216648868083,95,0,/imu_data_acquisition2,66456.0,-0.123962402344,0.028564453125,0.866027832031,0.483581542969,4.375,29.9375,6.375,-2.01,-1.13,9.69
1455208216657001018,96,0,/imu_data_acquisition2,66465.0,-0.1259765625,0.0301513671875,0.865966796875,0.483093261719,3.1875,34.8125,9.625,-2.44,-1.25,9.57
1455208216666812896,97,0,/imu_data_acquisition2,66476.0,-0.128356933594,0.0319213867188,0.865966796875,0.482299804688,6.125,44.0,12.0625,-0.9,-1.47,8.95
1455208216677192926,98,0,/imu_data_acquisition2,66485.0,-0.131286621094,0.0343017578125,0.865966796875,0.481384277344,6.125,44.0,12.0625,-0.9,-1.47,8.95
1455208216684698104,99,0,/imu_data_acquisition2,66493.0,-0.135131835938,0.0377197265625,0.865844726562,0.480285644531,11.8125,59.5625,14.375,-0.55,0.35,8.86
1455208216697073936,100,0,/imu_data_acquisition2,66506.0,-0.140075683594,0.0416870117188,0.86572265625,0.478698730469,9.5,74.0625,20.1875,-1.69,-0.62,9.34
1455208216709532022,101,0,/imu_data_acquisition2,66517.0,-0.145874023438,0.0458984375,0.86572265625,0.476623535156,-2.25,94.4375,31.125,-1.42,-0.44,9.74
1455208216776463985,102,0,/imu_data_acquisition2,66526.0,-0.152770996094,0.0499267578125,0.865783691406,0.473937988281,-2.25,94.4375,31.125,-2.37,0.03,10.08
1455208216791398048,103,0,/imu_data_acquisition2,66534.0,-0.160888671875,0.0535278320312,0.865844726562,0.470703125,-14.5,105.0625,35.0,-2.37,0.03,10.08
1455208216793224096,104,0,/imu_data_acquisition2,66545.0,-0.170043945312,0.0567016601562,0.865844726562,0.467102050781,-25.25,114.0625,37.625,-2.38,-0.42,9.46
1455208216794621944,105,0,/imu_data_acquisition2,66555.0,-0.180114746094,0.059814453125,0.865661621094,0.463256835938,-31.25,123.125,38.0625,-2.82,-0.3,10.13
1455208216795851945,106,0,/imu_data_acquisition2,66566.0,-0.191162109375,0.0624389648438,0.865234375,0.459289550781,-41.875,132.0,35.8125,-3.14,0.39,10.39
1455208216797043085,107,0,/imu_data_acquisition2,66576.0,-0.203247070312,0.0643920898438,0.864440917969,0.455261230469,-54.25,138.5625,32.5,-3.1,-0.11,10.18
1455208216798722028,108,0,/imu_data_acquisition2,66583.0,-0.216430664062,0.0650024414062,0.863342285156,0.451232910156,-73.5625,143.875,26.125,-3.1,-0.11,10.18
1455208216800293922,109,0,/imu_data_acquisition2,66593.0,-0.230895996094,0.0646362304688,0.861755371094,0.447082519531,-90.9375,153.375,22.375,-3.33,-0.66,10.46
1455208216802634954,110,0,/imu_data_acquisition2,66606.0,-0.247314453125,0.0635986328125,0.859680175781,0.4423828125,-108.1875,171.3125,21.6875,-3.53,-2.05,11.25
1455208216808465003,111,0,/imu_data_acquisition2,66617.0,-0.265563964844,0.062744140625,-6.103515625e-05,0.436889648438,-119.5,216.1875,35.3125,-4.03,-2.64,11.76
1455208216817653894,112,0,/imu_data_acquisition2,66626.0,-0.285400390625,0.0628662109375,-6.103515625e-05,0.430419921875,-119.5,216.1875,35.3125,-4.65,-2.99,11.28
1455208216825238943,113,0,/imu_data_acquisition2,66633.0,-0.306579589844,0.06396484375,0.850463867188,0.422668457031,-120.375,237.5625,48.25,-4.65,-2.99,11.28
1455208216834744930,114,0,/imu_data_acquisition2,66643.0,-0.3291015625,0.0661010742188,0.846435546875,0.413391113281,-121.6875,259.8125,64.0,-5.56,-2.3,12.46
1455208216846889972,115,0,/imu_data_acquisition2,66655.0,-0.352661132812,0.0679321289062,0.842224121094,0.402038574219,-138.0,270.0,81.6875,-6.8,-1.88,13.59
1455208216858556032,116,0,/imu_data_acquisition2,66666.0,-0.376342773438,0.0681762695312,0.83837890625,0.388305664062,-164.375,264.75,100.9375,-7.02,-4.0,12.89
1455208216867714881,117,0,/imu_data_acquisition2,66676.0,-0.398986816406,0.067138671875,0.8349609375,0.373107910156,-179.5625,247.3125,112.1875,-5.38,-3.45,12.69
1455208216874686002,118,0,/imu_data_acquisition2,66683.0,-0.420471191406,0.064453125,0.831665039062,0.356994628906,-195.0625,228.9375,114.875,-5.38,-3.45,12.69
1455208216886037111,119,0,/imu_data_acquisition2,66694.0,-0.439392089844,0.0592041015625,0.829406738281,0.33984375,-214.875,188.25,118.75,1.16,-14.88,13.65
1455208216897419929,120,0,/imu_data_acquisition2,66705.0,-0.453491210938,0.0563354492188,0.826782226562,0.328002929688,-145.0,149.25,80.875,-7.21,-28.05,20.07
1455208216907341957,121,0,/imu_data_acquisition2,66716.0,-0.460266113281,0.0549926757812,-6.103515625e-05,0.32763671875,-39.5625,80.1875,-21.6875,6.43,-5.39,9.02
1455208216918420076,122,0,/imu_data_acquisition2,66727.0,-0.462097167969,0.0504760742188,0.820678710938,0.332275390625,-7.6875,-0.0625,-0.0625,6.78,-4.14,8.16
1455208216926378965,123,0,/imu_data_acquisition2,66734.0,-0.463439941406,0.0446166992188,0.817810058594,0.338256835938,-27.6875,2.5,-102.5,6.78,-4.14,8.16
1455208216934684991,124,0,/imu_data_acquisition2,66743.0,-0.464660644531,0.0372924804688,0.81494140625,0.344360351562,-40.625,-5.125,-111.0,4.53,-4.82,11.06
1455208216947104930,125,0,/imu_data_acquisition2,66753.0,-0.463989257812,0.0289306640625,0.812622070312,0.351379394531,-38.4375,-30.6875,-123.0625,4.82,-4.43,10.01
1455208216957906007,126,0,/imu_data_acquisition2,66766.0,-0.461242675781,0.0205078125,0.810913085938,0.359619140625,-23.625,-55.1875,-131.8125,5.19,-0.39,7.63
1455208216967783927,127,0,/imu_data_acquisition2,66776.0,-0.457153320312,0.0123291015625,0.8095703125,0.368041992188,-15.0,-68.625,-130.5625,2.07,-1.96,9.12
1455208216976784944,128,0,/imu_data_acquisition2,66784.0,-0.4521484375,0.00421142578125,0.808776855469,0.3759765625,-12.8125,-80.1875,-122.3125,2.07,-1.96,9.12
1455208216985006093,129,0,/imu_data_acquisition2,66794.0,-0.445678710938,-0.00360107421875,0.808776855469,0.383728027344,-4.625,-96.6875,-115.6875,0.79,-2.66,9.41
1455208216994493007,130,0,/imu_data_acquisition2,66803.0,-0.437377929688,-0.0106811523438,0.809448242188,0.391723632812,12.5,-115.3125,-111.4375,0.14,-2.97,9.19
1455208217008049011,131,0,/imu_data_acquisition2,66816.0,-0.427124023438,-0.0167236328125,0.810729980469,0.400024414062,32.375,-132.0,-105.9375,-2.18,-3.94,8.05
1455208217018306970,132,0,/imu_data_acquisition2,66827.0,-0.415344238281,-0.0062255859375,-6.103515625e-05,0.408447265625,50.125,-144.5625,-100.875,-2.61,-4.26,7.3
1455208217024524927,133,0,/imu_data_acquisition2,66833.0,-0.402404785156,-0.0262451171875,0.814575195312,0.416931152344,62.0,-153.3125,-96.3125,-2.61,-4.26,7.3
1455208217034671068,134,0,/imu_data_acquisition2,66843.0,-0.388977050781,-0.030029296875,0.816650390625,0.425231933594,70.125,-155.5625,-92.3125,-2.97,-4.33,6.83
1455208217046546936,135,0,/imu_data_acquisition2,66854.0,-0.37548828125,-0.0333251953125,0.818603515625,0.433349609375,74.125,-152.9375,-88.0625,-4.54,-5.75,7.73
1455208217057775974,136,0,/imu_data_acquisition2,66866.0,-0.361877441406,-0.0362548828125,0.820434570312,0.441162109375,76.625,-151.9375,-84.875,-5.29,-6.42,8.52
1455208217069621086,137,0,/imu_data_acquisition2,66878.0,-0.34814453125,-0.0391235351562,0.822082519531,0.448791503906,77.25,-152.4375,-83.375,-6.19,-7.45,9.12
1455208217076339960,138,0,/imu_data_acquisition2,66885.0,-0.334411621094,-0.0421142578125,0.823608398438,0.4560546875,74.5625,-152.375,-81.8125,-6.19,-7.45,9.12
1455208217084599018,139,0,/imu_data_acquisition2,66893.0,-0.320678710938,-0.0140380859375,-6.103515625e-05,0.463195800781,72.1875,-152.6875,-81.4375,-6.42,-7.85,9.35
1455208217094691991,140,0,/imu_data_acquisition2,66903.0,-0.307006835938,-0.0487060546875,0.826049804688,0.470153808594,68.8125,-152.9375,-82.625,-6.52,-7.93,9.53
1455208217108206987,141,0,/imu_data_acquisition2,66917.0,-0.29345703125,-0.0525512695312,0.826782226562,0.47705078125,63.1875,-152.6875,-84.9375,-5.93,-8.16,9.06
1455208217118238925,142,0,/imu_data_acquisition2,66927.0,-0.280090332031,-0.0567626953125,0.8271484375,0.48388671875,58.25,-151.0,-87.625,-5.63,-8.04,8.88
1455208217124759912,143,0,/imu_data_acquisition2,66933.0,-0.267028808594,-0.0611572265625,0.8271484375,0.490661621094,54.1875,-148.875,-89.625,-5.63,-8.04,8.88
1455208217137038946,144,0,/imu_data_acquisition2,66944.0,-0.254211425781,-0.065673828125,0.826843261719,0.497375488281,51.0625,-145.875,-90.8125,-5.31,-7.77,8.66
1455208217144692897,145,0,/imu_data_acquisition2,66953.0,-0.241760253906,-0.0701904296875,0.826293945312,0.503845214844,48.5625,-142.0,-90.1875,-4.79,-7.15,8.24
1455208217158643007,146,0,/imu_data_acquisition2,66967.0,-0.229553222656,-0.0745849609375,0.825561523438,0.510009765625,46.3125,-138.125,-87.4375,-4.46,-6.9,7.77
1455208217169537067,147,0,/imu_data_acquisition2,66978.0,-0.217834472656,-0.0787963867188,0.824829101562,0.515808105469,44.9375,-132.6875,-82.625,-4.24,-6.11,8.09
1455208217174782991,148,0,/imu_data_acquisition2,66983.0,-0.206665039062,-0.0826416015625,0.824035644531,0.52099609375,43.25,-126.125,-75.8125,-4.24,-6.11,8.09
1455208217184716939,149,0,/imu_data_acquisition2,66993.0,-0.195983886719,-0.0862426757812,0.823364257812,0.525573730469,41.375,-120.0625,-68.0625,-4.24,-5.74,8.37
1455208217196449995,150,0,/imu_data_acquisition2,67004.0,-0.185852050781,-0.089599609375,0.822875976562,0.529479980469,38.375,-114.75,-59.4375,-4.36,-5.16,8.75
1455208217208283901,151,0,/imu_data_acquisition2,67017.0,-0.176391601562,-0.0931396484375,0.822570800781,0.532531738281,31.3125,-110.25,-49.625,-4.76,-4.12,9.31
1455208217219232082,152,0,/imu_data_acquisition2,67027.0,-0.167724609375,-0.0969848632812,0.822509765625,0.534729003906,21.625,-106.375,-39.125,-5.07,-3.79,9.55
1455208217226098060,153,0,/imu_data_acquisition2,67034.0,-0.159851074219,-0.101196289062,0.82275390625,0.536010742188,11.875,-101.9375,-28.0,-5.44,-3.51,9.67
1455208217234769105,154,0,/imu_data_acquisition2,67043.0,-0.152770996094,-0.105529785156,0.823303222656,0.536376953125,3.5625,-97.0,-17.0,-6.96,-2.72,10.35
1455208217247687101,155,0,/imu_data_acquisition2,67055.0,-0.146484375,-0.110229492188,0.82421875,0.535827636719,-5.5625,-0.0625,-0.0625,-8.1,-2.05,10.95
1455208217261594057,156,0,/imu_data_acquisition2,67068.0,-0.140869140625,-0.115478515625,0.825561523438,0.534118652344,-16.625,-92.8125,8.75,-10.01,-1.51,10.54
1455208217272245883,157,0,/imu_data_acquisition2,67078.0,-0.1357421875,-0.120788574219,0.827209472656,0.531677246094,-20.75,-89.75,18.5,-11.79,-1.02,9.28
1455208217278829097,158,0,/imu_data_acquisition2,67086.0,-0.130920410156,-0.126342773438,0.829406738281,0.528198242188,-27.0,-90.4375,31.875,-11.79,-1.02,9.28
1455208217295223951,159,0,/imu_data_acquisition2,67103.0,-0.12646484375,-0.131774902344,0.832092285156,0.523742675781,-26.875,-88.1875,59.125,-13.61,-0.56,8.87
1455208217303740024,160,0,/imu_data_acquisition2,67109.0,-0.0127563476562,-6.103515625e-05,-6.103515625e-05,0.518249511719,-27.75,-88.75,70.875,-14.33,-0.59,6.79
1455208217309463977,161,0,/imu_data_acquisition2,67117.0,-0.117858886719,-0.142028808594,0.838989257812,0.511901855469,-27.75,-88.75,70.875,-14.33,-0.59,6.79
1455208217320944070,162,0,/imu_data_acquisition2,67128.0,-0.113891601562,-0.147033691406,0.843017578125,0.504699707031,-28.875,-87.8125,82.25,-14.64,-1.04,5.34
1455208217327120065,163,0,/imu_data_acquisition2,67135.0,-0.110168457031,-0.1513671875,0.847351074219,0.496948242188,-23.8125,-82.25,91.3125,-14.97,-1.42,3.96
1455208217339157104,164,0,/imu_data_acquisition2,67146.0,-0.10693359375,-0.154174804688,0.851928710938,0.488891601562,-11.625,-69.625,97.75,-15.36,-1.97,1.89
1455208217350687026,165,0,/imu_data_acquisition2,67159.0,-0.104431152344,-0.155212402344,0.8564453125,0.481079101562,12.3125,-29.1875,97.4375,-2.55,-0.01,-0.01
1455208217358948945,166,0,/imu_data_acquisition2,67168.0,-0.103088378906,-0.154663085938,0.86083984375,0.473754882812,12.3125,-29.1875,97.4375,-15.35,-3.25,-0.44
1455208217366257905,167,0,/imu_data_acquisition2,67175.0,-0.102966308594,-0.151794433594,0.864685058594,0.467651367188,29.625,-1.0,87.5,-14.88,-4.01,-1.47
1455208217376732110,168,0,/imu_data_acquisition2,67184.0,-0.104187011719,-0.146423339844,0.867797851562,0.463256835938,48.1875,30.6875,70.4375,-14.55,-4.66,-2.01
1455208217385137081,169,0,/imu_data_acquisition2,67194.0,-0.106811523438,-0.138122558594,0.869873046875,0.461303710938,71.9375,66.25,46.875,-14.16,-6.2,-3.08
1455208217394665002,170,0,/imu_data_acquisition2,67203.0,-0.110290527344,-0.125183105469,0.871032714844,0.462036132812,117.375,106.3125,20.375,-3.46,-5.12,-5.58
1455208217407258987,171,0,/imu_data_acquisition2,67215.0,-0.114624023438,-0.105407714844,0.870788574219,0.46630859375,185.625,159.4375,-12.875,-0.87,-6.91,12.84
1455208217417591094,172,0,/imu_data_acquisition2,67226.0,-0.121032714844,-0.08837890625,0.869018554688,0.471618652344,145.0,169.0,-33.5,0.23,-4.55,9.01
1455208217424635887,173,0,/imu_data_acquisition2,67233.0,-0.128723144531,-0.0734252929688,0.866271972656,0.477111816406,115.875,172.75,-42.4375,0.09,2.67,6.0
1455208217436528921,174,0,/imu_data_acquisition2,67243.0,-0.136291503906,-0.0550537109375,0.864074707031,0.481384277344,149.875,188.125,-21.375,-2.35,6.67,18.36
1455208217445285081,175,0,/imu_data_acquisition2,67254.0,-0.141174316406,-0.0269165039062,0.863220214844,0.484008789062,263.6875,213.5,16.625,-26.24,-1.65,39.58
1455208217456095933,176,0,/imu_data_acquisition2,67264.0,-0.140075683594,0.00250244140625,0.86181640625,0.487487792969,313.0625,160.75,5.25,-35.99,11.13,39.33
1455208217466768980,177,0,/imu_data_acquisition2,67274.0,-0.131958007812,-0.00787353515625,0.865783691406,0.482666015625,-67.25,-149.5625,55.0625,13.73,-32.74,-29.62
1455208217476725101,178,0,/imu_data_acquisition2,67284.0,-0.125671386719,-0.0078125,0.868469238281,0.4794921875,31.5625,-4.6875,-0.0625,-8.85,8.18,27.45
1455208217484622001,179,0,/imu_data_acquisition2,67293.0,-0.125915527344,0.00567626953125,0.866455078125,0.483093261719,142.5,82.75,-28.3125,-6.37,14.75,23.64
1455208217495181083,180,0,/imu_data_acquisition2,67303.0,-0.123291015625,0.0006103515625,0.869201660156,0.478881835938,-43.0,-59.6875,51.5,0.72,-8.4,0.81
1455208217510008096,181,0,/imu_data_acquisition2,67318.0,-0.123046875,0.0025634765625,0.869201660156,0.478820800781,21.0,8.8125,3.5,-1.06,0.88,8.96
1455208217514758110,182,0,/imu_data_acquisition2,67323.0,-0.122497558594,0.0020751953125,0.869384765625,0.478698730469,-2.1875,-9.0625,1.5,-1.84,1.54,11.22
1455208217525038003,183,0,/imu_data_acquisition2,67333.0,-0.12255859375,0.00250244140625,0.868957519531,0.479431152344,5.25,3.875,-9.4375,-1.63,-0.99,9.74
1455208217536349058,184,0,/imu_data_acquisition2,67345.0,-0.122741699219,0.00311279296875,0.868347167969,0.48046875,6.5625,6.1875,-13.0625,-2.84,-2.48,9.83
1455208217544739961,185,0,/imu_data_acquisition2,67353.0,-0.122802734375,0.00347900390625,0.867797851562,0.481506347656,5.25,3.5625,-12.875,-2.7,-2.03,9.63
1455208217555011987,186,0,/imu_data_acquisition2,67363.0,-0.122741699219,0.00384521484375,0.867309570312,0.482360839844,4.9375,2.0625,-11.3125,-2.3,-0.01,-0.01
1455208217567456007,187,0,/imu_data_acquisition2,67374.0,-0.122619628906,0.004150390625,0.866943359375,0.483032226562,5.0625,0.6875,-8.1875,-2.43,-2.51,8.69
1455208217574970006,188,0,/imu_data_acquisition2,67383.0,-0.122375488281,0.00439453125,0.866760253906,0.483459472656,4.125,-0.75,-4.875,-2.68,-1.74,9.34
1455208217584759950,189,0,/imu_data_acquisition2,67393.0,-0.122009277344,0.00445556640625,0.866760253906,0.483581542969,3.375,-3.5625,-1.625,-2.51,-2.46,9.12
1455208217596214056,190,0,/imu_data_acquisition2,67404.0,-0.121337890625,0.0045166015625,0.866821289062,0.483581542969,4.375,-6.375,0.625,-2.19,-1.6,9.71
1455208217604696035,191,0,/imu_data_acquisition2,67413.0,-0.120544433594,0.00445556640625,0.867004394531,0.483459472656,3.5625,-8.4375,2.5625,-2.83,-1.19,9.57
1455208217614660024,192,0,/imu_data_acquisition2,67423.0,-0.119750976562,0.00445556640625,0.867248535156,0.483276367188,4.125,-8.6875,2.875,-2.15,-1.21,9.61
1455208217626291990,193,0,/imu_data_acquisition2,67434.0,-0.118957519531,0.00439453125,0.867431640625,0.483154296875,3.8125,-8.625,2.375,-1.9,-1.27,9.72
1455208217634743928,194,0,/imu_data_acquisition2,67443.0,-0.118286132812,0.00439453125,0.867614746094,0.482971191406,3.1875,-7.125,2.8125,-2.4,-1.09,10.09
1455208217644709110,195,0,/imu_data_acquisition2,67453.0,-0.117797851562,0.0045166015625,0.867736816406,0.482849121094,4.0625,-4.9375,2.4375,-1.91,-1.36,9.85
1455208217657088041,196,0,/imu_data_acquisition2,67463.0,-0.117370605469,0.00457763671875,0.867858886719,0.482727050781,3.0,-3.75,2.0,-2.27,-1.3,9.72
1455208217665074110,197,0,/imu_data_acquisition2,67473.0,-0.117065429688,0.00482177734375,0.867858886719,0.482727050781,4.1875,-1.625,0.4375,-2.22,-1.82,9.19
1455208217674552917,198,0,/imu_data_acquisition2,67483.0,-0.116882324219,0.00494384765625,0.867919921875,0.482788085938,2.125,-0.0625,-0.0625,-2.88,-0.26,10.31
1455208217685985088,199,0,/imu_data_acquisition2,67493.0,-0.116760253906,0.005126953125,0.867797851562,0.48291015625,3.25,-0.5,-1.75,-2.21,-1.72,9.28
1455208217694678068,200,0,/imu_data_acquisition2,67503.0,-0.116577148438,0.005615234375,0.867614746094,0.483276367188,6.125,1.0,-4.0625,-2.11,-1.92,9.06
1455208217704761981,201,0,/imu_data_acquisition2,67513.0,-0.116333007812,0.0059814453125,0.867492675781,0.483581542969,5.4375,-0.3125,-3.5,-2.34,-0.83,9.32
1455208217715161085,202,0,/imu_data_acquisition2,67523.0,-0.116149902344,0.0064697265625,0.867309570312,0.484008789062,6.4375,0.875,-4.125,-1.95,-1.51,9.36
1455208217724559068,203,0,/imu_data_acquisition2,67533.0,-0.115966796875,0.00689697265625,0.8671875,0.484313964844,6.3125,0.8125,-3.4375,-1.92,-1.23,9.48
1455208217764293909,204,0,/imu_data_acquisition2,67543.0,-0.115905761719,0.0072021484375,0.867065429688,0.484436035156,3.6875,1.3125,-1.5625,-2.38,-1.48,9.71
1455208217766233921,205,0,/imu_data_acquisition2,67554.0,-0.115905761719,0.0074462890625,0.867065429688,0.484497070312,2.25,1.0,0.25,-2.51,-1.56,9.89
1455208217767879009,206,0,/imu_data_acquisition2,67563.0,-0.115844726562,0.00750732421875,0.867126464844,0.484375,1.125,0.4375,1.0625,-2.64,-1.25,9.64
1455208217769695043,207,0,/imu_data_acquisition2,67573.0,-0.115844726562,0.007568359375,0.8671875,0.484313964844,0.5,-0.125,1.5,-2.52,-0.89,9.66
1455208217776119947,208,0,/imu_data_acquisition2,67585.0,-0.115844726562,0.0076904296875,0.8671875,0.484252929688,1.5625,0.875,0.6875,-2.53,-1.08,9.64
1455208217784516096,209,0,/imu_data_acquisition2,67593.0,-0.115844726562,0.00787353515625,0.8671875,0.484252929688,2.0625,1.25,-0.0625,-2.38,-0.97,9.63
1455208217794476985,210,0,/imu_data_acquisition2,67603.0,-0.115844726562,0.0081787109375,0.867126464844,0.484375,2.75,1.25,-0.625,-2.46,-1.32,9.51
1455208217805844068,211,0,/imu_data_acquisition2,67614.0,-0.115783691406,0.0084228515625,0.867065429688,0.484436035156,3.125,1.5,-0.8125,-2.4,-1.41,9.39
1455208217814786911,212,0,/imu_data_acquisition2,67623.0,-0.1162109375,0.0086669921875,0.866943359375,0.484558105469,3.875,1.5625,-1.0625,-2.5,-1.33,9.48
1455208217824605941,213,0,/imu_data_acquisition2,67633.0,-0.116577148438,0.009033203125,0.866821289062,0.484680175781,4.5,2.125,-1.375,-2.35,-1.22,9.49
1455208217836029052,214,0,/imu_data_acquisition2,67644.0,-0.117065429688,0.00927734375,0.866760253906,0.484680175781,3.4375,1.6875,-0.375,-2.7,-1.23,9.53
1455208217844793081,215,0,/imu_data_acquisition2,67653.0,-0.11767578125,0.00970458984375,0.86669921875,0.484680175781,3.625,1.625,-0.5625,-2.76,-1.12,9.45
1455208217854650020,216,0,/imu_data_acquisition2,67663.0,-0.1181640625,0.010009765625,0.866577148438,0.484741210938,3.9375,1.375,-0.75,-2.49,-1.33,9.48
1455208217867465972,217,0,/imu_data_acquisition2,67676.0,-0.118469238281,0.0103149414062,0.866455078125,0.48486328125,4.6875,0.9375,-1.1875,-2.51,-1.25,9.57
1455208217874933004,218,0,/imu_data_acquisition2,67683.0,-0.118896484375,0.0106811523438,0.866333007812,0.484985351562,4.8125,1.0625,-1.375,-2.67,-1.2,9.51
1455208217884618043,219,0,/imu_data_acquisition2,67693.0,-0.119140625,0.0110473632812,0.8662109375,0.485107421875,4.9375,0.375,-1.125,-2.51,-1.16,9.54
1455208217897524118,220,0,/imu_data_acquisition2,67704.0,-0.119201660156,0.011474609375,0.866149902344,0.485290527344,5.8125,0.0625,-1.625,-2.46,-1.08,9.47
1455208217905558109,221,0,/imu_data_acquisition2,67714.0,-0.119201660156,0.0119018554688,0.866027832031,0.485412597656,6.25,-0.0625,-1.6875,-2.43,-1.05,9.39
1455208217914776086,222,0,/imu_data_acquisition2,67723.0,-0.119079589844,0.0123901367188,0.865905761719,0.485595703125,6.125,-0.4375,-1.6875,-2.29,-0.97,9.57
1455208217926698923,223,0,/imu_data_acquisition2,67734.0,-0.119018554688,0.0128784179688,0.865844726562,0.48583984375,6.75,0.1875,-2.0,-2.49,-0.97,9.5
1455208217935311079,224,0,/imu_data_acquisition2,67744.0,-0.118835449219,0.013427734375,0.86572265625,0.486083984375,7.125,0.625,-2.3125,-2.41,-0.81,9.69
1455208217944545984,225,0,/imu_data_acquisition2,67753.0,-0.11865234375,0.0140991210938,0.865539550781,0.486389160156,8.5625,1.9375,-3.6875,-2.58,-0.75,9.65
1455208217956465959,226,0,/imu_data_acquisition2,67764.0,-0.118469238281,0.0147705078125,0.865356445312,0.486755371094,8.125,2.0,-3.9375,-2.54,-1.19,9.57
1455208217965996980,227,0,/imu_data_acquisition2,67774.0,-0.118286132812,0.0154418945312,0.865112304688,0.487182617188,8.375,2.125,-4.1875,-2.45,-1.26,-0.01
1455208217974663019,228,0,/imu_data_acquisition2,67783.0,-0.118469238281,0.0160522460938,0.864868164062,0.487609863281,8.4375,3.25,-4.6875,-2.53,-1.12,9.6
1455208217984934091,229,0,/imu_data_acquisition2,67793.0,-0.118408203125,0.0166625976562,0.864685058594,0.487915039062,7.25,2.75,-3.75,-2.53,-1.49,9.46
1455208217995865106,230,0,/imu_data_acquisition2,67804.0,-0.118347167969,0.0173950195312,0.864440917969,0.488342285156,8.375,3.8125,-4.1875,-2.27,-1.25,9.86
1455208218004761934,231,0,/imu_data_acquisition2,67813.0,-0.118286132812,0.0181884765625,0.864196777344,0.488708496094,8.625,4.5,-3.875,-2.31,-0.99,9.36
1455208218016127109,232,0,/imu_data_acquisition2,67825.0,-0.118286132812,0.0189819335938,0.864013671875,0.489013671875,8.375,4.8125,-3.125,-2.84,-0.94,9.93
1455208218026267051,233,0,/imu_data_acquisition2,67835.0,-0.118896484375,0.0196533203125,0.863708496094,0.489379882812,9.875,5.75,-3.9375,-2.5,-1.68,8.89
1455208218034595012,234,0,/imu_data_acquisition2,67843.0,-0.119140625,0.0205688476562,0.863464355469,0.489685058594,8.625,8.625,-3.375,-2.02,0.63,9.31
1455208218044594049,235,0,/imu_data_acquisition2,67853.0,-0.119567871094,0.0218505859375,0.863220214844,0.489990234375,11.1875,11.8125,-2.9375,-2.74,-2.29,11.61
1455208218061623096,236,0,/imu_data_acquisition2,67865.0,-0.119934082031,0.02294921875,0.862976074219,0.490234375,9.0625,10.125,-1.875,-2.33,-0.01,-0.01
1455208218067296028,237,0,/imu_data_acquisition2,67875.0,-0.120300292969,0.0238647460938,0.862915039062,0.490295410156,7.4375,9.375,0.0,-2.71,-0.97,9.23
1455208218076976060,238,0,/imu_data_acquisition2,67884.0,-0.120666503906,0.0247802734375,0.862854003906,0.490173339844,7.125,8.5625,2.125,-2.62,-1.05,9.92
1455208218088565111,239,0,/imu_data_acquisition2,67895.0,-0.121154785156,0.0257568359375,0.862854003906,0.490051269531,7.0,11.5,2.0625,-1.8,-0.74,9.06
1455208218098613977,240,0,/imu_data_acquisition2,67906.0,-0.122131347656,0.0267944335938,0.862731933594,0.489929199219,4.625,15.9375,2.375,-2.37,-1.63,9.25
1455208218107052087,241,0,/imu_data_acquisition2,67914.0,-0.123596191406,0.0279541015625,0.862609863281,0.48974609375,3.3125,21.75,2.125,-2.59,-1.22,9.66
1455208218121805906,242,0,/imu_data_acquisition2,67929.0,-0.125183105469,0.0292358398438,0.862426757812,0.489562988281,3.625,24.125,2.125,-2.45,-1.76,10.07
1455208218130053043,243,0,/imu_data_acquisition2,67938.0,-0.126831054688,0.0307006835938,0.8623046875,0.489318847656,5.0,25.4375,3.4375,-2.44,-1.38,9.9
1455208218136899948,244,0,/imu_data_acquisition2,67944.0,-0.128784179688,0.0321655273438,0.8623046875,0.488708496094,3.0625,28.6875,7.125,-2.31,-1.59,9.54
1455208218149457931,245,0,/imu_data_acquisition2,67955.0,-0.130981445312,0.0338745117188,0.862365722656,0.487915039062,3.1875,32.1875,10.375,-1.62,-0.85,9.25
1455208218157272100,246,0,/imu_data_acquisition2,67965.0,-0.133605957031,0.0360717773438,0.862426757812,0.486938476562,5.5625,39.9375,12.9375,-0.36,-0.12,8.8
1455208218164892911,247,0,/imu_data_acquisition2,67973.0,-0.137023925781,0.0390625,0.862487792969,0.485656738281,9.0,52.8125,16.8125,-1.14,0.3,8.87
1455208218176678895,248,0,/imu_data_acquisition2,67984.0,-0.141296386719,0.0433349609375,0.862365722656,0.484252929688,16.375,68.875,18.1875,-1.97,-0.56,10.62
1455208218184783935,249,0,/imu_data_acquisition2,67993.0,-0.146667480469,0.0476684570312,0.8623046875,0.482299804688,10.6875,80.375,24.375,-1.49,-0.44,9.57
1455208218194668054,250,0,/imu_data_acquisition2,68003.0,-0.146667480469,0.0476684570312,0.8623046875,0.482299804688,7.8125,92.75,26.9375,-1.85,-0.19,9.63
1455208218206679105,251,0,/imu_data_acquisition2,68014.0,-0.160400390625,0.056884765625,0.862060546875,0.477355957031,-0.6875,103.5,30.3125,-2.5,1.01,9.96
1455208218214803934,252,0,/imu_data_acquisition2,68023.0,-0.169006347656,0.0610961914062,0.861877441406,0.474243164062,-11.125,114.125,32.375,-2.69,-0.44,9.55
1455208218224809885,253,0,/imu_data_acquisition2,68033.0,-0.1787109375,0.06494140625,0.861572265625,0.470703125,-22.4375,123.8125,35.5,-2.75,-0.05,10.35
1455208218235976934,254,0,/imu_data_acquisition2,68044.0,-0.189392089844,0.068603515625,0.860961914062,0.467041015625,-29.125,133.25,33.375,-2.87,0.59,10.26
1455208218244820117,255,0,/imu_data_acquisition2,68053.0,-0.201110839844,0.0717163085938,0.860107421875,0.463256835938,-41.3125,141.75,30.8125,-3.11,0.44,10.98
1455208218254607915,256,0,/imu_data_acquisition2,68063.0,-0.214050292969,0.0740966796875,0.858764648438,0.459533691406,-54.25,151.5625,25.9375,-3.16,-0.8,9.45
1455208218266700029,257,0,/imu_data_acquisition2,68074.0,-0.228210449219,0.0758666992188,0.857116699219,0.455505371094,-68.0625,161.1875,23.3125,-3.59,-0.6,10.87
1455208218275130033,258,0,/imu_data_acquisition2,68084.0,-0.244140625,0.0770263671875,0.855041503906,0.450988769531,-84.0,177.5,24.0625,-3.92,-0.86,11.98
1455208218284562110,259,0,/imu_data_acquisition2,68093.0,-0.262023925781,0.0778198242188,0.852478027344,0.445556640625,-100.75,197.4375,26.9375,-4.03,-1.8,12.54
1455208218296539068,260,0,/imu_data_acquisition2,68103.0,-0.281555175781,0.0790405273438,0.849426269531,0.439270019531,-107.375,218.8125,33.125,-4.44,-2.98,11.12
1455208218305218935,261,0,/imu_data_acquisition2,68114.0,-0.302368164062,0.0816650390625,0.845703125,0.43212890625,-102.6875,242.125,41.5625,-5.03,-2.19,11.46
1455208218314870119,262,0,/imu_data_acquisition2,68123.0,-0.324584960938,0.0853271484375,-6.103515625e-05,0.423706054688,-102.6875,265.1875,53.4375,-6.85,-0.65,13.72
1455208218327254056,263,0,/imu_data_acquisition2,68134.0,-0.348022460938,0.0887451171875,0.836791992188,0.413269042969,-118.9375,278.8125,70.9375,-7.81,-2.88,13.51
1455208218335443019,264,0,/imu_data_acquisition2,68144.0,-0.371704101562,0.0910034179688,0.832458496094,0.400634765625,-141.0625,276.8125,88.625,-8.31,-2.37,13.39
1455208218344906091,265,0,/imu_data_acquisition2,68153.0,-0.39453125,0.0919799804688,0.828674316406,0.38623046875,-158.125,262.0625,103.75,-6.68,-3.76,11.72
1455208218356101036,266,0,/imu_data_acquisition2,68164.0,-0.416564941406,0.0919799804688,0.824890136719,0.370971679688,-168.125,249.8125,108.25,-4.11,-5.94,13.67
1455208218365704059,267,0,/imu_data_acquisition2,68174.0,-0.437133789062,0.0887451171875,0.821960449219,0.354187011719,-201.6875,219.9375,112.25,1.59,-19.83,17.1
1455208218375253915,268,0,/imu_data_acquisition2,68184.0,-0.453063964844,0.0848999023438,0.819946289062,0.33935546875,-178.5,164.625,99.5,-9.33,-20.76,27.01
1455208218389708042,269,0,/imu_data_acquisition2,68196.0,-0.453063964844,0.0848999023438,0.819946289062,0.33935546875,-76.1875,111.5625,16.8125,0.25,-13.93,23.21
1455208218395827054,270,0,/imu_data_acquisition2,68204.0,-0.465148925781,0.0792236328125,0.815124511719,0.336059570312,-39.5625,12.75,-47.0625,6.73,-3.13,7.93
1455208218405148029,271,0,/imu_data_acquisition2,68214.0,-0.465148925781,0.0792236328125,0.815124511719,0.336059570312,-27.75,-14.5625,-80.875,6.8,-2.04,6.71
1455208218415364027,272,0,/imu_data_acquisition2,68224.0,-0.465454101562,0.07373046875,0.813537597656,0.340637207031,-40.5,-17.625,-83.125,4.94,-2.87,9.41
1455208218427005052,273,0,/imu_data_acquisition2,68235.0,-0.465942382812,0.0671997070312,-6.103515625e-05,0.344848632812,-52.0625,-27.0,-84.5625,3.54,-5.51,10.8
1455208218434833049,274,0,/imu_data_acquisition2,68243.0,-0.466064453125,0.0595092773438,0.810913085938,0.348754882812,-47.6875,-51.875,-92.25,3.95,-4.67,9.41
1455208218444952964,275,0,/imu_data_acquisition2,68253.0,-0.46435546875,0.051025390625,0.810485839844,0.353454589844,-28.25,-76.75,-103.0625,4.03,-3.11,8.11
1455208218456741094,276,0,/imu_data_acquisition2,68265.0,-0.460327148438,0.0427856445312,0.810485839844,0.359680175781,-11.25,-92.6875,-108.625,2.06,-1.89,8.02
1455208218465287923,277,0,/imu_data_acquisition2,68274.0,-0.454711914062,0.0349731445312,0.810729980469,0.367004394531,-5.3125,-103.1875,-108.75,0.88,-2.44,8.41
1455208218477394104,278,0,/imu_data_acquisition2,68284.0,-0.448059082031,0.0272216796875,0.811279296875,0.37451171875,-1.625,-113.5625,-107.75,0.04,-3.38,8.8
1455208218486044883,279,0,/imu_data_acquisition2,68293.0,-0.440551757812,0.0194091796875,0.812133789062,0.382080078125,7.3125,-125.375,-106.9375,-1.6,-4.7,8.99
1455208218494973897,280,0,/imu_data_acquisition2,68304.0,-0.431884765625,0.0119018554688,0.813232421875,0.389831542969,24.1875,-136.5,-108.5,-2.06,-4.25,8.76
1455208218505322933,281,0,/imu_data_acquisition2,68314.0,-0.421752929688,0.005126953125,0.814514160156,0.398254394531,42.0625,-146.3125,-111.5625,-2.65,-4.16,8.49
1455208218515969991,282,0,/imu_data_acquisition2,68324.0,-0.410278320312,-0.00091552734375,0.815856933594,0.407470703125,51.375,-152.5,-112.75,-3.13,-4.28,8.34
1455208218525691986,283,0,/imu_data_acquisition2,68334.0,-0.397888183594,-0.00653076171875,0.817199707031,0.416931152344,55.8125,-155.5,-112.5,-4.47,-4.81,9.26
1455208218534775018,284,0,/imu_data_acquisition2,68343.0,-0.385070800781,-0.0119018554688,0.818359375,0.426452636719,55.8125,-155.5,-112.5,-5.07,-5.14,9.83
1455208218545934915,285,0,/imu_data_acquisition2,68354.0,-0.371765136719,-0.0170288085938,0.819519042969,0.435729980469,60.0,-158.875,-109.125,-5.55,-5.28,10.12
1455208218556158065,286,0,/imu_data_acquisition2,68364.0,-0.358337402344,-0.0221557617188,0.820495605469,0.444885253906,62.125,-162.625,-106.4375,-6.13,-5.47,10.11
1455208218565936088,287,0,/imu_data_acquisition2,68374.0,-0.344482421875,-0.0271606445312,0.821411132812,0.453735351562,65.6875,-167.75,-96.1875,-6.19,-5.57,9.9
1455208218578614950,288,0,/imu_data_acquisition2,68385.0,-0.330078125,-0.0318603515625,0.822631835938,0.4619140625,66.4375,-7.1875,-0.0625,-6.21,-5.52,9.79
1455208218585056066,289,0,/imu_data_acquisition2,68394.0,-0.315551757812,-0.0362548828125,0.823852539062,0.469421386719,66.4375,-167.1875,-89.3125,-5.89,-5.33,9.22
1455208218594854116,290,0,/imu_data_acquisition2,68403.0,-0.301208496094,-0.0404052734375,0.825073242188,0.476318359375,65.4375,-165.0,-81.875,-5.46,-5.33,8.54
1455208218606906890,291,0,/imu_data_acquisition2,68414.0,-0.287109375,-0.0442504882812,0.826354980469,0.482482910156,66.5,-153.25,-64.625,-4.98,-5.42,7.72
1455208218615398883,292,0,/imu_data_acquisition2,68424.0,-6.103515625e-05,-6.103515625e-05,-6.103515625e-05,0.487976074219,71.0,-142.5625,-54.1875,-4.6,-5.4,7.33
1455208218625905990,293,0,/imu_data_acquisition2,68434.0,-0.260314941406,-0.049560546875,0.828796386719,0.492797851562,75.75,-130.0,-43.5625,-4.34,-5.59,7.5
1455208218635492086,294,0,/imu_data_acquisition2,68444.0,-0.247802734375,-0.0505981445312,0.830139160156,0.496948242188,78.9375,-119.125,-33.375,-4.41,-5.91,7.84
1455208218644788026,295,0,/imu_data_acquisition2,68453.0,-0.236022949219,-0.05078125,0.831481933594,0.500366210938,78.9375,-119.125,-33.375,-1.96,-0.01,-0.01
1455208218656536102,296,0,/imu_data_acquisition2,68464.0,-0.224792480469,-0.05029296875,0.832885742188,0.503234863281,78.4375,-101.25,-18.25,-4.93,-6.19,9.17
1455208218668498039,297,0,/imu_data_acquisition2,68476.0,-0.214233398438,-0.0494384765625,0.834289550781,0.505554199219,70.5625,-94.5625,-13.25,-5.48,-6.55,9.92
1455208218677102088,298,0,/imu_data_acquisition2,68486.0,-0.204467773438,-0.0487060546875,0.835693359375,0.50732421875,59.0,-89.125,-14.6875,-6.47,-6.06,11.5
1455208218684762954,299,0,/imu_data_acquisition2,68493.0,-0.195617675781,-0.0486450195312,0.836853027344,0.509033203125,59.0,-89.125,-14.6875,-6.47,-6.06,11.5
1455208218695875883,300,0,/imu_data_acquisition2,68504.0,-0.187438964844,-0.0501708984375,0.837707519531,0.510437011719,37.5,-91.625,-17.0,-8.32,-5.71,12.54
1455208218706090927,301,0,/imu_data_acquisition2,68515.0,-0.179931640625,-0.053466796875,0.838317871094,0.511840820312,-5.0625,-98.625,-25.8125,-10.15,-4.09,11.72
1455208218715977907,302,0,/imu_data_acquisition2,68525.0,-0.173034667969,-0.0584716796875,0.838623046875,0.51318359375,-22.8125,-99.875,-25.5,-12.32,-2.32,10.58
1455208218811088085,303,0,/imu_data_acquisition2,68536.0,-0.166809082031,-0.0648193359375,0.8388671875,0.514099121094,-36.3125,-99.25,-21.1875,-13.77,-1.26,9.54
1455208218812870025,304,0,/imu_data_acquisition2,68544.0,-0.161254882812,-0.072021484375,0.839111328125,0.514526367188,-36.3125,-99.25,-21.1875,-13.77,-1.26,9.54
1455208218813863992,305,0,/imu_data_acquisition2,68554.0,-0.156311035156,-0.0795288085938,0.839660644531,0.514038085938,-44.75,-96.5625,-9.875,-14.44,-0.18,8.43
1455208218816313028,306,0,/imu_data_acquisition2,68566.0,-0.151550292969,-0.0866088867188,0.840698242188,0.512573242188,-42.125,-92.3125,20.25,-16.6,0.99,5.99
1455208218817959070,307,0,/imu_data_acquisition2,68576.0,-0.14697265625,-0.0933227539062,0.842468261719,0.509887695312,-37.9375,-89.75,37.9375,-17.0,1.03,4.73
1455208218819732904,308,0,/imu_data_acquisition2,68586.0,-0.142517089844,-0.0994262695312,0.844848632812,0.505981445312,-28.3125,-84.1875,55.625,-17.06,0.8,3.08
1455208218822027921,309,0,/imu_data_acquisition2,68593.0,-0.13818359375,-0.104370117188,0.847961425781,0.5009765625,-28.3125,-84.1875,55.625,-17.06,0.8,3.08
1455208218823031902,310,0,/imu_data_acquisition2,68603.0,-0.134216308594,-0.107604980469,0.851745605469,0.494934082031,-14.125,-72.3125,72.1875,-16.79,0.4,0.31
1455208218824338912,311,0,/imu_data_acquisition2,68615.0,-0.130981445312,-0.108764648438,0.85595703125,0.488220214844,19.5625,-29.0625,95.125,-15.97,-0.22,-2.12
1455208218830418109,312,0,/imu_data_acquisition2,68626.0,-0.12890625,-0.107482910156,0.8603515625,0.481323242188,37.125,2.25,96.5625,-15.15,-1.42,-3.18
1455208218835009098,313,0,/imu_data_acquisition2,68636.0,-0.128479003906,-0.103637695312,0.864562988281,0.474670410156,56.5625,38.375,92.0,-17.02,-3.68,-4.91
1455208218839353084,314,0,/imu_data_acquisition2,68648.0,-0.129821777344,-0.096923828125,0.868286132812,0.468872070312,109.875,84.6875,82.875,-10.53,-1.7,-10.29
1455208218844590902,315,0,/imu_data_acquisition2,68653.0,-0.13232421875,-0.0845947265625,0.871459960938,0.464660644531,109.875,84.6875,82.875,-10.53,-1.7,-10.29
1455208218858736991,316,0,/imu_data_acquisition2,68665.0,-0.1357421875,-0.0629272460938,0.873291015625,0.463623046875,182.5625,176.0625,30.8125,0.63,-6.54,15.13
1455208218870369911,317,0,/imu_data_acquisition2,68676.0,-0.141723632812,-0.042236328125,0.873291015625,0.464233398438,118.5625,175.125,-0.0625,-2.29,3.09,15.67
1455208218883718967,318,0,/imu_data_acquisition2,68686.0,-0.150024414062,-0.0264282226562,0.871887207031,0.465393066406,172.8125,155.4375,26.0,-8.19,-1.09,22.65
1455208218890342950,319,0,/imu_data_acquisition2,68698.0,-0.151733398438,0.0154418945312,0.868713378906,0.47119140625,259.9375,99.625,-27.0,-23.1,26.84,35.48
1455208218900640010,320,0,/imu_data_acquisition2,68706.0,-0.151733398438,0.0154418945312,0.868713378906,0.47119140625,259.9375,99.625,-27.0,10.42,-24.59,-23.47
1455208218909869909,321,0,/imu_data_acquisition2,68718.0,-0.142333984375,-0.0032958984375,0.874938964844,0.462890625,149.6875,68.5625,-29.0625,4.32,-20.81,-0.58
1455208218920748949,322,0,/imu_data_acquisition2,68728.0,-0.141540527344,0.0101318359375,0.872924804688,0.466796875,-3.6875,-20.375,18.3125,5.54,-15.48,-6.7
1455208218931307077,323,0,/imu_data_acquisition2,68739.0,-0.140197753906,0.00927734375,0.873901367188,0.465393066406,-3.6875,-19.3125,17.75,-4.89,1.42,13.17
1455208218939198970,324,0,/imu_data_acquisition2,68746.0,-0.138854980469,0.0084228515625,0.874816894531,0.464050292969,-3.6875,-19.3125,17.75,-3.32,2.81,13.67
1455208218947355031,325,0,/imu_data_acquisition2,68755.0,-0.138671875,0.0087890625,0.874816894531,0.464050292969,4.75,-0.0625,-0.0625,-3.32,2.81,13.67
1455208218958750009,326,0,/imu_data_acquisition2,68767.0,-0.138732910156,0.00921630859375,0.874633789062,0.46435546875,-0.9375,1.6875,-5.9375,-2.04,-2.08,8.54
1455208218967256069,327,0,/imu_data_acquisition2,68776.0,-0.138916015625,0.0091552734375,0.874389648438,0.464782714844,3.3125,7.875,-10.25,-2.96,-0.79,10.94
1455208218977036952,328,0,/imu_data_acquisition2,68786.0,-0.139404296875,0.00958251953125,0.873901367188,0.465576171875,3.3125,7.875,-10.25,-2.18,-2.29,9.17
1455208218985645055,329,0,/imu_data_acquisition2,68794.0,-0.1396484375,0.009521484375,0.87353515625,0.466186523438,-1.375,2.9375,-8.3125,-2.18,-2.29,9.17
1455208218994585037,330,0,/imu_data_acquisition2,68803.0,-0.139831542969,0.00958251953125,0.873229980469,0.466735839844,0.875,3.0,-7.4375,-2.35,-2.29,9.09
1455208219007002115,331,0,/imu_data_acquisition2,68816.0,-0.139892578125,0.0096435546875,0.872985839844,0.467163085938,1.125,0.8125,-5.1875,-2.38,-0.01,-0.01
1455208219017575979,332,0,/imu_data_acquisition2,68826.0,-0.139770507812,0.00970458984375,0.872924804688,0.467346191406,1.6875,-3.75,-0.375,-2.44,-1.93,9.3
1455208219027390003,333,0,/imu_data_acquisition2,68836.0,-0.139404296875,0.0096435546875,0.872924804688,0.467407226562,1.6875,-3.75,-0.375,-2.49,-1.46,9.07
1455208219034682035,334,0,/imu_data_acquisition2,68843.0,-0.138854980469,0.00970458984375,0.872985839844,0.467407226562,3.6875,-5.4375,0.5,-2.49,-1.46,9.07
1455208219047128915,335,0,/imu_data_acquisition2,68854.0,-0.138122558594,0.00982666015625,0.873107910156,0.467407226562,4.875,-6.9375,1.25,-2.67,-1.29,9.39
1455208219057056903,336,0,/imu_data_acquisition2,68866.0,-0.13720703125,0.00982666015625,0.873291015625,0.467407226562,5.4375,-9.5,1.1875,-2.23,-1.76,9.3
1455208219066875934,337,0,/imu_data_acquisition2,68876.0,-0.136352539062,0.0100708007812,0.873413085938,0.467407226562,7.3125,-7.9375,0.875,-1.9,-1.31,9.76
1455208219078469038,338,0,/imu_data_acquisition2,68886.0,-0.135559082031,0.010498046875,0.873474121094,0.467468261719,9.0625,-4.625,1.25,-2.5,-1.74,9.5
1455208219085138082,339,0,/imu_data_acquisition2,68894.0,-0.134826660156,0.010986328125,0.873596191406,0.467468261719,9.0625,-4.625,1.25,-2.5,-1.74,9.5
1455208219094656944,340,0,/imu_data_acquisition2,68903.0,-0.134094238281,0.011474609375,0.873657226562,0.467529296875,8.875,-5.1875,1.125,-1.97,-1.22,-0.01
1455208219107847929,341,0,/imu_data_acquisition2,68915.0,-0.133483886719,0.0118408203125,0.873779296875,0.467529296875,7.6875,-4.25,0.875,-2.12,-1.18,10.02
1455208219117778062,342,0,/imu_data_acquisition2,68926.0,-0.132995605469,0.0121459960938,0.873779296875,0.467590332031,4.0,-1.4375,-0.6875,-2.47,-0.74,10.28
1455208219127465009,343,0,/imu_data_acquisition2,68936.0,-0.132690429688,0.0123291015625,0.873779296875,0.467712402344,4.0,-1.4375,-0.6875,-1.86,-1.63,9.69
1455208219135123968,344,0,/imu_data_acquisition2,68943.0,-0.132507324219,0.0125122070312,0.873718261719,0.467834472656,3.3125,-1.3125,-1.1875,-1.86,-1.63,9.69
1455208219145983934,345,0,/imu_data_acquisition2,68954.0,-0.132385253906,0.0127563476562,0.873657226562,0.467956542969,3.25,0.3125,-1.6875,-2.43,-1.14,10.15
1455208219157195091,346,0,/imu_data_acquisition2,68966.0,-0.13232421875,0.0130004882812,0.873596191406,0.468139648438,2.5625,1.0,-1.5625,-2.4,-1.18,9.76
1455208219169696092,347,0,/imu_data_acquisition2,68976.0,-0.132385253906,0.01318359375,0.87353515625,0.468200683594,1.6875,1.625,-0.875,-2.13,-1.33,9.3
1455208219178303956,348,0,/imu_data_acquisition2,68987.0,-0.132446289062,0.0133666992188,0.873474121094,0.468322753906,1.9375,2.0625,-1.125,-2.5,-1.05,9.79
1455208219184678077,349,0,/imu_data_acquisition2,68993.0,-0.132629394531,0.013671875,0.873413085938,0.468444824219,2.5,3.1875,-1.125,-2.5,-1.05,9.79
1455208219194914102,350,0,/imu_data_acquisition2,69003.0,-0.132751464844,0.0139770507812,0.873291015625,0.468505859375,2.3125,3.0,-1.125,-2.6,-1.26,9.69
1455208219207278966,351,0,/imu_data_acquisition2,69016.0,-0.1328125,0.0142211914062,0.873229980469,0.468627929688,2.75,2.4375,-1.125,-2.38,-1.3,9.19
1455208219217355012,352,0,/imu_data_acquisition2,69026.0,-0.132934570312,0.0144653320312,0.873107910156,0.468811035156,3.4375,2.0625,-1.375,-2.67,-1.14,9.2
1455208219230135917,353,0,/imu_data_acquisition2,69036.0,-0.132873535156,0.014892578125,0.873046875,0.468994140625,4.875,2.1875,-2.0625,-2.36,-1.27,9.28
1455208219236692905,354,0,/imu_data_acquisition2,69045.0,-0.1328125,0.0152587890625,0.872924804688,0.469177246094,4.875,1.5,-1.8125,-2.36,-1.27,9.28
1455208219244606018,355,0,/imu_data_acquisition2,69053.0,-0.132751464844,0.0157470703125,0.872802734375,0.469421386719,5.375,1.875,-2.0625,-2.46,-1.06,9.53
1455208219255569934,356,0,/imu_data_acquisition2,69064.0,-0.132568359375,0.0159912109375,0.872741699219,0.469482421875,3.875,0.5,-1.0,-2.49,-1.22,9.58
1455208219267816066,357,0,/imu_data_acquisition2,69076.0,-0.132507324219,0.0161743164062,0.872741699219,0.469543457031,3.5625,0.4375,-0.375,-2.42,-1.23,9.53
1455208219277721881,358,0,/imu_data_acquisition2,69086.0,-0.132385253906,0.0162963867188,0.872741699219,0.469604492188,3.125,0.5,0.0625,-2.65,-1.11,9.59
1455208219284626007,359,0,/imu_data_acquisition2,69093.0,-0.132385253906,0.0165405273438,0.872680664062,0.469665527344,3.5625,0.8125,-0.125,-2.65,-1.11,9.59
1455208219296408891,360,0,/imu_data_acquisition2,69104.0,-0.13232421875,0.016845703125,0.872680664062,0.4697265625,4.3125,0.875,-0.375,-2.42,-1.04,9.51
1455208219304728984,361,0,/imu_data_acquisition2,69113.0,-0.132263183594,0.0172119140625,0.872619628906,0.469848632812,5.5625,1.4375,-1.0,-2.48,-1.16,9.57
1455208219317847967,362,0,/imu_data_acquisition2,69126.0,-0.132141113281,0.0177612304688,0.872497558594,0.470031738281,6.4375,1.5625,-1.5,-2.46,-0.97,9.65
1455208219328735113,363,0,/imu_data_acquisition2,69137.0,-0.132019042969,0.0182495117188,0.872436523438,0.47021484375,6.3125,1.5625,-1.5625,-2.55,-0.96,9.52
1455208219334420919,364,0,/imu_data_acquisition2,69143.0,-0.131896972656,0.018798828125,0.872314453125,0.470458984375,7.5625,1.5,-2.125,-2.55,-0.96,9.52
1455208219344468116,365,0,/imu_data_acquisition2,69153.0,-0.131713867188,0.0194091796875,0.872192382812,0.470703125,8.125,1.75,-2.5,-2.31,-1.0,9.62
1455208219355146884,366,0,/imu_data_acquisition2,69164.0,-0.131530761719,0.0199584960938,0.872009277344,0.471008300781,8.125,1.625,-2.75,-2.29,-1.13,-0.01
1455208219367546081,367,0,/imu_data_acquisition2,69176.0,-0.131408691406,0.0206298828125,0.871887207031,0.471313476562,8.375,2.1875,-3.0,-2.98,-0.88,9.58
1455208219377415895,368,0,/imu_data_acquisition2,69186.0,-0.131286621094,0.0211791992188,0.871704101562,0.471618652344,8.0,1.5625,-2.8125,-2.28,-1.22,9.48
1455208219385339975,369,0,/imu_data_acquisition2,69194.0,-0.131164550781,0.0218505859375,0.871520996094,0.471984863281,8.9375,2.5,-3.4375,-2.52,-1.01,9.58
1455208219394753932,370,0,/imu_data_acquisition2,69203.0,-0.131103515625,0.0223999023438,0.871337890625,0.472351074219,8.4375,2.75,-2.9375,-2.33,-1.26,9.6
1455208219404540061,371,0,/imu_data_acquisition2,69213.0,-0.131103515625,0.0230102539062,0.871154785156,0.47265625,8.625,3.5625,-2.75,-2.56,-1.08,9.64
1455208219419559955,372,0,/imu_data_acquisition2,69227.0,-0.131164550781,0.0236206054688,0.870971679688,0.472900390625,8.1875,3.75,-2.0,-2.59,-0.89,9.85
1455208219427723884,373,0,/imu_data_acquisition2,69236.0,-0.131225585938,0.0244750976562,0.870849609375,0.47314453125,9.0625,5.3125,-2.1875,-2.59,-0.89,9.85
1455208219434482097,374,0,/imu_data_acquisition2,69243.0,-0.131286621094,0.0252075195312,0.870666503906,0.473327636719,8.375,5.5625,-1.75,-2.25,-0.89,9.5
1455208219445904970,375,0,/imu_data_acquisition2,69254.0,-0.131530761719,0.0261840820312,0.870483398438,0.473571777344,9.3125,7.6875,-2.0,-2.31,-0.72,-0.01
1455208219454720020,376,0,/imu_data_acquisition2,69263.0,-0.131774902344,0.0269775390625,0.870361328125,0.473693847656,7.0,7.625,-0.0625,-2.54,-2.07,8.61
1455208219468101024,377,0,/imu_data_acquisition2,69277.0,-0.132385253906,0.0282592773438,0.870056152344,0.473999023438,10.3125,13.375,-2.5625,-1.95,0.96,9.04
1455208219479790925,378,0,/imu_data_acquisition2,69287.0,-0.133117675781,0.0294189453125,0.869750976562,0.474304199219,8.125,14.25,-3.1875,-2.99,-1.51,10.56
1455208219484818935,379,0,/imu_data_acquisition2,69293.0,-0.133728027344,0.0303344726562,0.869506835938,0.474487304688,6.5,11.875,-1.9375,-2.99,-1.51,10.56
1455208219494502067,380,0,/imu_data_acquisition2,69303.0,-0.134216308594,0.0313110351562,0.869445800781,0.474426269531,7.3125,11.0,0.9375,-3.02,-1.28,9.38
1455208219506211996,381,0,/imu_data_acquisition2,69314.0,-0.134948730469,0.0323486328125,0.869384765625,0.474243164062,5.9375,13.0625,3.0,-2.56,-0.95,9.84
1455208219518379926,382,0,/imu_data_acquisition2,69327.0,-0.135864257812,0.0335083007812,0.869262695312,0.474060058594,6.25,16.4375,2.6875,-1.55,-1.04,8.75
