%time,field.header.seq,field.header.stamp,field.header.frame_id,field.time_stamp,field.quat_x,field.quat_y,field.quat_z,field.quat_w,field.gyro_x,field.gyro_y,field.gyro_z,field.accel_x,field.accel_y,field.accel_z
1541196001194514036,1,0,/imu_data_acquisition2,55099.0,0.161987304688,-0.179809570312,0.720581054688,0.649780273438,-48.8125,-12.1875,52.125,-2.42,2.21,9.19
1541196001199760913,2,0,/imu_data_acquisition2,55109.0,0.158325195312,-0.0123901367188,-6.103515625e-05,0.646911621094,-7.5,-0.0625,-0.0625,-2.52,1.51,9.88
1541196001210490942,3,0,/imu_data_acquisition2,55119.0,0.154357910156,-0.188049316406,0.725280761719,0.64404296875,-52.0625,3.5,58.8125,-2.87,1.22,10.86
1541196001219625949,4,0,/imu_data_acquisition2,55129.0,0.150512695312,-0.191040039062,0.727722167969,0.641357421875,-45.0625,8.4375,55.6875,-3.13,1.41,11.37
1541196001233021020,5,0,/imu_data_acquisition2,55139.0,0.145568847656,-0.195129394531,0.729797363281,0.638793945312,-63.1875,9.5625,-0.0625,-4.53,-6.39,7.61
1541196001241014957,6,0,/imu_data_acquisition2,55150.0,0.142395019531,-0.196105957031,0.730407714844,0.638610839844,-30.6875,20.8125,15.3125,-5.62,-10.28,8.75
1541196001254057884,7,0,/imu_data_acquisition2,55161.0,0.14697265625,-0.188659667969,0.728393554688,0.642028808594,88.4375,21.0625,-68.0625,9.76,-0.65,-0.01
1541196001260845899,8,0,/imu_data_acquisition2,55169.0,0.155456542969,-0.173645019531,0.725708007812,0.647277832031,178.75,48.3125,-14.6875,10.48,13.41,1.53
1541196001273725986,9,0,/imu_data_acquisition2,55182.0,0.153564453125,-0.170227050781,0.724853515625,0.649597167969,8.5625,45.625,-28.6875,4.9,2.86,-2.39
1541196001280428886,10,0,/imu_data_acquisition2,55189.0,0.14892578125,-6.103515625e-05,-6.103515625e-05,0.65283203125,27.625,107.5,-33.3125,1.19,5.2,-3.59
1541196001293427944,11,0,/imu_data_acquisition2,55200.0,0.142517089844,-0.148315429688,0.725280761719,0.656982421875,63.0625,170.875,-44.25,3.9,11.67,10.8
1541196001307347059,12,0,/imu_data_acquisition2,55214.0,0.127746582031,-0.138977050781,0.728210449219,0.658874511719,-32.5,207.9375,16.5,7.24,3.16,19.03
1541196001312823057,13,0,/imu_data_acquisition2,55222.0,0.105773925781,-0.134338378906,0.731689453125,0.659851074219,-127.5,232.875,47.6875,18.63,-2.35,-0.01
1541196001324068069,14,0,/imu_data_acquisition2,55233.0,0.107543945312,-0.114868164062,0.729736328125,0.665344238281,172.4375,143.1875,-89.8125,-9.88,28.43,-13.45
1541196001336827039,15,0,/imu_data_acquisition2,55244.0,0.126037597656,-0.110290527344,0.72509765625,0.66796875,175.8125,-126.375,-90.0,14.52,8.02,0.36
1541196001341120004,16,0,/imu_data_acquisition2,55249.0,0.111572265625,-0.0057373046875,-6.103515625e-05,0.666076660156,-148.5,88.75,68.875,-3.66,-12.63,33.59
1541196001353523015,17,0,/imu_data_acquisition2,55261.0,0.117248535156,-0.116149902344,0.727294921875,0.666198730469,34.0,-58.8125,-16.8125,10.56,1.89,-8.88
1541196001362257003,18,0,/imu_data_acquisition2,55269.0,0.115844726562,-0.111999511719,0.726989746094,0.66748046875,22.4375,46.5,-16.75,2.46,3.36,11.23
1541196001371366024,19,0,/imu_data_acquisition2,55280.0,0.114379882812,-0.113586425781,0.726989746094,0.66748046875,-25.25,0.25,3.75,4.21,-0.91,7.03
1541196001383261919,20,0,/imu_data_acquisition2,55291.0,0.112487792969,-0.113159179688,0.726867675781,0.66796875,-11.9375,19.9375,-3.3125,2.8,-2.23,-0.01
1541196001391884088,21,0,/imu_data_acquisition2,55300.0,0.1123046875,-0.111022949219,0.726257324219,0.669006347656,14.75,19.125,-16.0625,3.58,1.01,-0.01
1541196001403165102,22,0,/imu_data_acquisition2,55311.0,0.111389160156,-0.1103515625,0.726135253906,0.66943359375,-2.5,13.4375,-4.25,3.47,-0.37,8.49
1541196001415153980,23,0,/imu_data_acquisition2,55324.0,0.110229492188,-0.109741210938,0.726318359375,0.669555664062,-3.5625,14.875,1.125,3.38,-1.12,8.68
1541196001420814037,24,0,/imu_data_acquisition2,55330.0,0.109741210938,-0.10791015625,0.726440429688,0.669738769531,11.4375,19.25,-2.4375,2.95,0.53,10.01
1541196001431931972,25,0,/imu_data_acquisition2,55341.0,0.109680175781,-0.106384277344,0.726684570312,0.669738769531,12.8125,13.0625,-0.125,3.21,0.6,9.55
1541196001442779064,26,0,/imu_data_acquisition2,55351.0,0.109130859375,-0.105651855469,0.727172851562,0.66943359375,3.0625,10.5625,6.5,3.17,0.35,9.49
1541196001452059984,27,0,/imu_data_acquisition2,55360.0,0.108642578125,-0.105041503906,0.727722167969,0.669006347656,2.75,9.4375,7.5625,2.94,0.44,10.03
1541196001461901903,28,0,/imu_data_acquisition2,55370.0,0.108337402344,-0.104797363281,0.728210449219,0.668579101562,0.6875,4.8125,7.5625,3.18,0.72,9.37
1541196001472173929,29,0,/imu_data_acquisition2,55380.0,0.107666015625,-0.104797363281,0.728637695312,0.668212890625,-3.9375,5.75,7.5,3.23,0.39,10.2
1541196001482193946,30,0,/imu_data_acquisition2,55391.0,0.107177734375,-0.10498046875,0.72900390625,0.667846679688,-5.0625,2.6875,6.75,3.41,0.33,9.41
1541196001492813110,31,0,/imu_data_acquisition2,55402.0,0.106689453125,-0.105041503906,0.729248046875,0.667663574219,-3.25,3.8125,4.3125,3.17,0.56,-0.01
1541196001501745939,32,0,/imu_data_acquisition2,55410.0,0.107177734375,-0.104797363281,0.729248046875,0.667602539062,-3.1875,2.8125,2.5625,3.42,0.59,9.22
1541196001512583017,33,0,/imu_data_acquisition2,55421.0,0.106567382812,-0.105102539062,0.729431152344,0.66748046875,-6.75,3.0,3.3125,3.18,0.11,9.71
1541196001521889925,34,0,/imu_data_acquisition2,55430.0,0.106201171875,-0.105407714844,0.729553222656,0.667358398438,-5.375,0.75,3.0,3.54,0.14,9.21
1541196001534564018,35,0,/imu_data_acquisition2,55443.0,0.105712890625,-0.105529785156,0.729736328125,0.667236328125,-4.625,3.0,3.3125,3.07,0.04,9.79
1541196001541591882,36,0,/imu_data_acquisition2,55451.0,0.105712890625,-0.105529785156,0.729736328125,0.667236328125,-4.0625,1.6875,3.5,3.13,0.06,9.58
1541196001554677963,37,0,/imu_data_acquisition2,55461.0,0.105163574219,-0.10595703125,0.730041503906,0.666870117188,-2.75,0.4375,2.9375,3.23,0.23,9.48
1541196001561943054,38,0,/imu_data_acquisition2,55470.0,-6.103515625e-05,-6.103515625e-05,-6.103515625e-05,0.666748046875,-3.5,1.4375,3.25,3.19,0.09,10.33
1541196001573729991,39,0,/imu_data_acquisition2,55483.0,0.104736328125,-0.106689453125,0.730346679688,0.66650390625,-5.5625,-4.0,4.0625,3.61,0.26,8.51
1541196001581665039,40,0,/imu_data_acquisition2,55489.0,0.104736328125,-0.106689453125,0.730346679688,0.66650390625,-5.1875,-0.4375,4.0,3.24,0.02,10.08
1541196001592025995,41,0,/imu_data_acquisition2,55500.0,0.104431152344,-0.107055664062,0.730529785156,0.666259765625,-4.5625,-2.4375,3.5,3.06,0.16,9.81
1541196001604228973,42,0,/imu_data_acquisition2,55511.0,0.104064941406,-0.108032226562,0.730834960938,0.665893554688,-5.375,-2.0,3.5625,3.62,0.28,9.19
1541196001615777015,43,0,/imu_data_acquisition2,55521.0,0.103820800781,-0.108520507812,0.73095703125,0.665710449219,-5.625,-0.0625,-0.0625,2.96,0.18,8.82
1541196001621633052,44,0,/imu_data_acquisition2,55530.0,0.103454589844,-0.108703613281,0.731079101562,0.665588378906,-4.6875,-0.0625,-0.0625,3.53,0.09,9.22
1541196001636867046,45,0,/imu_data_acquisition2,55542.0,0.103210449219,-0.109191894531,0.731140136719,0.665466308594,-5.875,-1.625,2.75,3.63,-0.16,9.05
1541196001651156902,46,0,/imu_data_acquisition2,55553.0,-6.103515625e-05,-6.103515625e-05,-6.103515625e-05,0.665466308594,-3.75,2.4375,2.125,3.16,-0.01,-0.01
1541196001652400970,47,0,/imu_data_acquisition2,55560.0,0.102600097656,-0.108947753906,0.731323242188,0.665405273438,1.3125,4.8125,0.0625,3.69,0.23,8.69
1541196001663295030,48,0,/imu_data_acquisition2,55571.0,0.102478027344,-0.108825683594,0.731384277344,0.665405273438,0.9375,1.9375,0.625,3.47,-0.18,9.49
1541196001674885034,49,0,/imu_data_acquisition2,55583.0,0.102172851562,-0.1083984375,0.7314453125,0.665466308594,0.8125,5.875,0.3125,3.02,-0.04,9.31
1541196001682328939,50,0,/imu_data_acquisition2,55591.0,0.102172851562,-0.0146484375,-6.103515625e-05,0.665466308594,4.375,5.5,-0.0625,3.16,0.18,10.14
1541196001694163084,51,0,/imu_data_acquisition2,55602.0,0.102111816406,-0.107849121094,0.7314453125,0.66552734375,1.8125,1.5625,0.375,3.2,0.12,9.43
1541196001702414035,52,0,/imu_data_acquisition2,55610.0,0.102111816406,-0.107604980469,0.731506347656,0.66552734375,-0.125,3.25,1.1875,3.28,0.03,-0.01
1541196001711680889,53,0,/imu_data_acquisition2,55621.0,0.101867675781,-0.107482910156,0.731567382812,0.665466308594,1.5,0.3125,0.4375,3.28,0.31,9.14
1541196001723761081,54,0,/imu_data_acquisition2,55632.0,0.101989746094,-0.0136108398438,-6.103515625e-05,0.665466308594,-0.5625,1.3125,1.0625,3.16,0.24,9.52
1541196001735944986,55,0,/imu_data_acquisition2,55642.0,0.102355957031,-0.107299804688,0.731628417969,0.665344238281,-0.6875,-0.8125,1.125,3.19,0.25,-0.01
1541196001742518901,56,0,/imu_data_acquisition2,55651.0,0.102661132812,-0.107482910156,0.731628417969,0.665283203125,-2.8125,-1.125,1.625,3.44,0.08,9.78
1541196001753855943,57,0,/imu_data_acquisition2,55662.0,0.102661132812,-0.107482910156,0.731628417969,0.665283203125,-2.9375,-1.25,1.625,3.25,-0.09,10.38
1541196001762054920,58,0,/imu_data_acquisition2,55670.0,0.102600097656,-0.107788085938,0.731689453125,0.665161132812,-2.4375,-2.125,1.5,3.33,0.45,8.29
1541196001772458076,59,0,/imu_data_acquisition2,55682.0,0.1025390625,-0.108032226562,0.731750488281,0.665100097656,-2.3125,1.125,1.625,2.89,0.04,10.62
1541196001783689022,60,0,/imu_data_acquisition2,55692.0,0.102355957031,-0.108154296875,0.731811523438,0.6650390625,-3.4375,-2.875,1.875,3.48,0.18,8.81
1541196001792849063,61,0,/imu_data_acquisition2,55699.0,0.102294921875,-0.108520507812,0.731872558594,0.664916992188,-3.4375,-2.875,1.875,3.2,0.19,-0.01
1541196001802386999,62,0,/imu_data_acquisition2,55711.0,0.102172851562,-0.108703613281,0.73193359375,0.664855957031,-2.6875,-1.3125,1.3125,2.95,0.13,-0.01
1541196001814414978,63,0,/imu_data_acquisition2,55721.0,0.10205078125,-0.108947753906,0.731994628906,0.664794921875,-1.4375,1.125,0.75,2.67,0.06,9.86
1541196001822398900,64,0,/imu_data_acquisition2,55731.0,0.101928710938,-0.0152587890625,-6.103515625e-05,0.664733886719,-0.5,0.8125,0.1875,2.99,0.04,9.55
1541196001832583904,65,0,/imu_data_acquisition2,55741.0,0.101867675781,-0.108947753906,0.731994628906,0.664733886719,-1.1875,-0.5,0.5625,2.77,0.0,-0.01
1541196001844268083,66,0,/imu_data_acquisition2,55752.0,0.101806640625,-0.109008789062,0.731994628906,0.664794921875,0.0,1.9375,0.125,3.27,0.07,9.83
1541196001851947069,67,0,/imu_data_acquisition2,55760.0,0.101684570312,-0.108947753906,0.731994628906,0.664794921875,0.6875,-0.4375,-0.0625,3.0,0.05,9.77
1541196001863653898,68,0,/imu_data_acquisition2,55772.0,0.101684570312,-0.01513671875,-6.103515625e-05,0.664794921875,-1.75,1.0,1.125,2.9,0.07,9.26
1541196001875037908,69,0,/imu_data_acquisition2,55783.0,0.1015625,-0.108947753906,0.732055664062,0.664733886719,-0.5,0.6875,0.5,2.9,0.07,9.89
1541196001882390975,70,0,/imu_data_acquisition2,55791.0,0.1015625,-0.108764648438,0.732055664062,0.664733886719,-0.625,-0.4375,0.375,2.59,0.11,9.96
1541196001894385099,71,0,/imu_data_acquisition2,55802.0,0.1015625,-0.0150756835938,-6.103515625e-05,0.664794921875,-1.5,0.25,1.0625,2.85,0.08,-0.01
1541196001905426979,72,0,/imu_data_acquisition2,55812.0,0.101440429688,-0.108947753906,0.732116699219,0.664733886719,-1.1875,-0.625,0.1875,2.62,0.15,9.58
1541196001911967039,73,0,/imu_data_acquisition2,55821.0,0.101440429688,-0.109069824219,0.732116699219,0.664733886719,-1.0625,-0.375,0.375,2.69,0.16,9.71
1541196001924343109,74,0,/imu_data_acquisition2,55832.0,0.101440429688,-0.108764648438,0.732116699219,0.664794921875,-1.875,-1.3125,0.75,2.77,0.04,9.71
1541196001930463075,75,0,/imu_data_acquisition2,55840.0,0.101440429688,-0.108642578125,0.732116699219,0.664794921875,-1.875,-1.3125,0.75,2.77,0.04,9.71
1541196001943360090,76,0,/imu_data_acquisition2,55852.0,0.101501464844,-0.108581542969,0.732055664062,0.664794921875,-1.5625,-0.8125,0.4375,2.73,0.07,9.56
1541196001952954053,77,0,/imu_data_acquisition2,55860.0,0.1015625,-0.108459472656,0.732055664062,0.664855957031,-1.5625,-0.8125,0.4375,2.92,0.21,9.23
1541196001961724042,78,0,/imu_data_acquisition2,55871.0,0.101623535156,-0.108459472656,0.731994628906,0.664916992188,-0.9375,-0.25,0.0625,2.84,0.08,9.72
1541196001973225116,79,0,/imu_data_acquisition2,55882.0,0.101684570312,-0.108276367188,0.731994628906,0.664916992188,-1.25,-0.6875,0.25,2.88,0.13,9.33
1541196001984836101,80,0,/imu_data_acquisition2,55892.0,0.101806640625,-0.108276367188,0.73193359375,0.664978027344,-0.8125,-0.4375,0.0,2.68,0.23,9.07
1541196001991874933,81,0,/imu_data_acquisition2,55901.0,0.101745605469,-0.0145874023438,-6.103515625e-05,0.664978027344,-1.375,-0.0625,-0.125,2.59,-0.01,-0.01
1541196002004019975,82,0,/imu_data_acquisition2,55911.0,0.101684570312,-0.1083984375,0.73193359375,0.664978027344,-0.9375,-0.0625,-0.5,2.81,0.18,9.03
1541196002014796018,83,0,/imu_data_acquisition2,55921.0,0.101623535156,-0.108459472656,0.73193359375,0.664978027344,-0.375,0.4375,-0.625,2.7,0.06,9.88
1541196002022897005,84,0,/imu_data_acquisition2,55932.0,0.101623535156,-0.108459472656,0.731872558594,0.6650390625,-0.25,-0.6875,-0.625,2.64,0.13,9.79
1541196002032601118,85,0,/imu_data_acquisition2,55941.0,0.101684570312,-0.108520507812,0.731811523438,0.6650390625,-0.25,-0.6875,-0.625,2.79,-0.08,9.64
1541196002044430971,86,0,/imu_data_acquisition2,55952.0,0.101623535156,-0.1083984375,0.731811523438,0.665100097656,0.1875,1.375,-0.625,2.79,-0.08,9.64
1541196002052529096,87,0,/imu_data_acquisition2,55962.0,-6.103515625e-05,-6.103515625e-05,-6.103515625e-05,0.665161132812,2.3125,1.0,-1.6875,3.08,0.16,9.45
1541196002066024065,88,0,/imu_data_acquisition2,55974.0,0.101867675781,-0.107971191406,0.731689453125,0.665283203125,0.8125,0.3125,-1.0,2.78,0.12,9.48
1541196002074009895,89,0,/imu_data_acquisition2,55982.0,0.10205078125,-0.0140380859375,-6.103515625e-05,0.665344238281,0.875,2.0625,-1.1875,2.88,0.07,9.84
1541196002081095933,90,0,/imu_data_acquisition2,55990.0,0.10205078125,-0.107482910156,0.731567382812,0.665466308594,0.875,2.0625,-1.1875,2.88,0.07,9.84
1541196002092470884,91,0,/imu_data_acquisition2,56001.0,0.102111816406,-0.107299804688,0.731506347656,0.665588378906,1.8125,0.8125,-1.5,3.0,0.19,9.5
1541196002104074954,92,0,/imu_data_acquisition2,56011.0,0.10205078125,-0.107055664062,0.7314453125,0.665649414062,1.25,-0.6875,-1.4375,3.16,0.16,9.06
1541196002111980915,93,0,/imu_data_acquisition2,56021.0,-6.103515625e-05,-6.103515625e-05,-6.103515625e-05,0.665710449219,1.25,-0.6875,-1.4375,2.6,0.06,9.85
1541196002123744010,94,0,/imu_data_acquisition2,56032.0,0.102172851562,-0.0128173828125,-6.103515625e-05,0.665893554688,1.3125,2.75,-1.375,3.09,0.13,9.51
1541196002132210016,95,0,/imu_data_acquisition2,56040.0,0.101989746094,-0.106262207031,0.731323242188,0.665954589844,1.25,3.6875,-1.25,3.09,0.13,9.51
1541196002141824960,96,0,/imu_data_acquisition2,56050.0,0.102111816406,-0.106079101562,0.731262207031,0.666076660156,2.125,1.0,-1.5625,2.84,0.29,8.93
1541196002153840065,97,0,/imu_data_acquisition2,56062.0,0.101867675781,-0.105590820312,0.731201171875,0.666198730469,0.0,1.75,-0.875,3.19,0.13,9.34
1541196002164239883,98,0,/imu_data_acquisition2,56071.0,-6.103515625e-05,-6.103515625e-05,-6.103515625e-05,0.666259765625,0.0,1.75,-0.875,2.49,0.41,9.11
1541196002173098087,99,0,/imu_data_acquisition2,56082.0,0.101684570312,-0.105041503906,0.731140136719,0.666381835938,2.0625,6.1875,-1.1875,2.57,0.06,10.56
1541196002183682918,100,0,/imu_data_acquisition2,56090.0,0.101440429688,-0.104553222656,0.731140136719,0.66650390625,2.0625,6.1875,-1.1875,2.57,0.06,10.56
1541196002192778110,101,0,/imu_data_acquisition2,56100.0,0.101257324219,-0.104370117188,0.731201171875,0.66650390625,0.125,2.625,0.0,2.56,0.04,9.41
1541196002287242889,102,0,/imu_data_acquisition2,56112.0,0.10107421875,-0.103698730469,0.731201171875,0.666625976562,6.3125,8.4375,-0.0625,2.93,0.01,9.14
1541196002293685913,103,0,/imu_data_acquisition2,56122.0,0.100952148438,-0.102783203125,0.731140136719,0.666870117188,6.3125,8.4375,-2.9375,2.76,0.33,9.5
1541196002296509981,104,0,/imu_data_acquisition2,56132.0,0.100952148438,-0.101745605469,0.731079101562,0.667053222656,6.4375,8.625,-2.625,2.6,0.43,9.47
1541196002297624111,105,0,/imu_data_acquisition2,56141.0,0.100769042969,-0.100830078125,0.731079101562,0.667236328125,6.4375,8.625,-0.0625,2.6,0.43,9.47
1541196002299190044,106,0,/imu_data_acquisition2,56149.0,0.100646972656,-0.0995483398438,0.731018066406,0.667541503906,9.8125,11.625,-0.0625,1.72,0.54,8.49
1541196002300301074,107,0,/imu_data_acquisition2,56162.0,0.100769042969,-0.0979614257812,0.730773925781,0.66796875,14.125,-0.0625,-0.0625,3.47,-0.01,-0.01
1541196002302078008,108,0,/imu_data_acquisition2,56171.0,0.100646972656,-0.096435546875,0.730651855469,0.668395996094,11.3125,13.625,-6.25,3.23,-1.2,10.08
1541196002306950092,109,0,/imu_data_acquisition2,56182.0,0.0996704101562,-0.095947265625,0.730712890625,0.668518066406,-3.375,12.25,-0.3125,3.13,-0.89,9.38
1541196002309140920,110,0,/imu_data_acquisition2,56189.0,0.0995483398438,-0.0953369140625,0.730651855469,0.668701171875,4.125,6.0,-2.9375,3.13,-0.89,9.38
1541196002311001062,111,0,/imu_data_acquisition2,56199.0,0.0997924804688,-0.0938720703125,0.73046875,0.669067382812,13.3125,9.4375,-6.875,3.2,0.4,9.51
1541196002313390016,112,0,/imu_data_acquisition2,56211.0,0.100219726562,-0.014404296875,-6.103515625e-05,0.66943359375,14.6875,6.875,-6.3125,3.11,0.45,-0.01
1541196002315272092,113,0,/imu_data_acquisition2,56222.0,0.100341796875,-0.09130859375,0.730224609375,0.669616699219,11.0625,9.0625,-3.375,2.87,0.21,9.4
1541196002323616027,114,0,/imu_data_acquisition2,56232.0,0.100402832031,-0.01220703125,-6.103515625e-05,0.669677734375,8.9375,7.3125,-1.5625,2.99,-0.1,9.91
1541196002333010911,115,0,/imu_data_acquisition2,56241.0,0.100341796875,-0.0894775390625,0.730407714844,0.669677734375,7.4375,7.5,0.0625,2.99,-0.1,9.91
1541196002340073108,116,0,/imu_data_acquisition2,56249.0,0.100402832031,-0.0885620117188,0.730590820312,0.669555664062,8.125,6.9375,1.5,3.56,0.33,9.42
1541196002354057073,117,0,/imu_data_acquisition2,56261.0,0.101501464844,-0.0874633789062,0.73046875,0.669616699219,14.25,6.4375,-0.0625,3.23,0.61,9.57
1541196002365360975,118,0,/imu_data_acquisition2,56273.0,0.1015625,-0.0864868164062,0.730529785156,0.669738769531,7.125,7.125,-2.625,3.06,0.56,9.47
1541196002378009080,119,0,/imu_data_acquisition2,56284.0,0.101440429688,-0.0849609375,0.73046875,0.670043945312,5.125,6.5,-0.0625,3.0,0.5,9.4
1541196002383877992,120,0,/imu_data_acquisition2,56292.0,0.101440429688,-0.0849609375,0.73046875,0.670043945312,5.125,6.5,-2.25,3.0,0.5,9.4
1541196002390939950,121,0,/imu_data_acquisition2,56299.0,0.101379394531,-0.084228515625,0.730285644531,0.670288085938,5.3125,6.4375,-4.0625,3.29,0.2,9.14
1541196002403074026,122,0,/imu_data_acquisition2,56312.0,0.101135253906,-0.0838623046875,0.730163574219,0.670532226562,0.75,5.0625,-3.4375,3.33,0.32,9.23
1541196002414949893,123,0,/imu_data_acquisition2,56323.0,0.101135253906,-0.0831909179688,0.729919433594,0.6708984375,4.9375,5.375,-5.75,3.27,0.65,9.49
1541196002425211906,124,0,/imu_data_acquisition2,56333.0,0.101440429688,-6.103515625e-05,-6.103515625e-05,0.671447753906,8.9375,4.8125,-9.625,3.47,0.5,9.1
1541196002432212114,125,0,/imu_data_acquisition2,56341.0,0.101684570312,-0.0814819335938,0.729064941406,0.671936035156,7.75,3.5625,-8.9375,3.47,0.5,9.1
1541196002442843914,126,0,/imu_data_acquisition2,56351.0,-6.103515625e-05,-6.103515625e-05,-6.103515625e-05,0.672424316406,8.625,3.375,-9.0625,3.17,0.54,9.61
1541196002456115007,127,0,/imu_data_acquisition2,56362.0,0.102478027344,-0.079833984375,0.728088378906,0.673034667969,9.6875,3.125,-10.875,3.72,0.24,9.12
1541196002462964057,128,0,/imu_data_acquisition2,56372.0,0.10302734375,-6.103515625e-05,-6.103515625e-05,0.673706054688,10.375,1.5625,-12.125,3.86,0.44,9.14
1541196002474580049,129,0,/imu_data_acquisition2,56383.0,0.103820800781,-0.0152587890625,-6.103515625e-05,0.674621582031,14.6875,2.9375,-15.8125,3.88,0.86,9.6
1541196002481333971,130,0,/imu_data_acquisition2,56389.0,0.104797363281,-0.0762939453125,0.725708007812,0.675659179688,18.4375,3.25,-19.5,3.88,0.86,9.6
1541196002491878032,131,0,/imu_data_acquisition2,56400.0,0.105529785156,-0.0748291015625,0.724792480469,0.676696777344,16.1875,4.75,-0.0625,3.82,0.4,-0.01
1541196002504267930,132,0,/imu_data_acquisition2,56412.0,0.106201171875,-0.0733032226562,0.723937988281,0.677734375,16.375,6.5625,-0.0625,4.16,0.38,9.41
1541196002515295982,133,0,/imu_data_acquisition2,56423.0,0.10693359375,-0.0714721679688,0.723083496094,0.6787109375,19.5625,8.25,-17.875,4.06,0.81,9.32
1541196002523792028,134,0,/imu_data_acquisition2,56433.0,-6.103515625e-05,-6.103515625e-05,-6.103515625e-05,0.679626464844,21.8125,13.6875,-17.125,4.12,0.94,9.41
1541196002536175966,135,0,/imu_data_acquisition2,56444.0,0.10791015625,-0.0663452148438,0.721740722656,0.680480957031,27.6875,21.0,-14.25,4.09,0.46,9.63
1541196002540636062,136,0,/imu_data_acquisition2,56450.0,0.108276367188,-0.0633544921875,0.721252441406,0.681213378906,27.6875,21.0,-14.25,4.09,0.46,-0.01
1541196002553508043,137,0,/imu_data_acquisition2,56462.0,0.108764648438,-0.0598754882812,0.720825195312,0.681884765625,32.125,23.625,-13.625,4.62,-0.01,-0.01
1541196002565397977,138,0,/imu_data_acquisition2,56473.0,0.108947753906,-0.0553588867188,0.720520019531,0.6826171875,39.0,35.0625,-14.875,5.11,1.62,8.5
1541196002577387094,139,0,/imu_data_acquisition2,56484.0,0.108642578125,-0.0499877929688,0.72021484375,0.683410644531,41.875,46.1875,-15.875,6.03,2.14,8.49
1541196002583256959,140,0,/imu_data_acquisition2,56492.0,0.107116699219,-0.0436401367188,0.719970703125,0.684326171875,40.875,64.8125,-17.3125,6.03,-0.01,-0.01
1541196002593344926,141,0,/imu_data_acquisition2,56500.0,0.104370117188,-0.0360107421875,0.719543457031,0.685607910156,40.0625,85.3125,-22.25,6.32,2.84,8.21
1541196002603476047,142,0,/imu_data_acquisition2,56511.0,0.0990600585938,-0.0269165039062,0.71923828125,0.687133789062,32.5,119.3125,-24.8125,7.34,3.08,8.6
1541196002614727020,143,0,/imu_data_acquisition2,56523.0,0.0897216796875,-0.0159301757812,0.719299316406,0.688720703125,-2.375,226.3125,-17.25,6.16,5.44,9.83
1541196002625701904,144,0,/imu_data_acquisition2,56534.0,0.0758056640625,-0.00274658203125,0.719848632812,0.68994140625,-2.375,226.3125,-17.25,6.12,5.9,11.15
1541196002633685111,145,0,/imu_data_acquisition2,56541.0,0.0576171875,0.0116577148438,0.721435546875,0.690002441406,-25.1875,274.375,0.5625,6.12,5.9,11.15
1541196002642184019,146,0,/imu_data_acquisition2,56551.0,0.0343627929688,0.0264282226562,0.724609375,0.687805175781,-63.375,322.0625,31.625,4.15,-0.01,-0.01
1541196002653314113,147,0,/imu_data_acquisition2,56561.0,0.0064697265625,0.0401000976562,0.729614257812,0.6826171875,-109.4375,354.375,71.0,3.21,3.73,-0.01
1541196002664655923,148,0,/imu_data_acquisition2,56573.0,-0.0248413085938,0.0526123046875,0.735900878906,0.674621582031,-147.25,376.1875,103.8125,0.99,3.56,9.31
1541196002674514055,149,0,/imu_data_acquisition2,56583.0,-0.0595092773438,0.0652465820312,0.742614746094,0.663879394531,-173.9375,407.5,129.875,7.71,-1.29,19.99
1541196002682245969,150,0,/imu_data_acquisition2,56589.0,-6.103515625e-05,-6.103515625e-05,-6.103515625e-05,0.649536132812,-207.0625,437.0,163.875,7.71,-1.29,19.99
1541196002692153930,151,0,/imu_data_acquisition2,56601.0,-0.135864257812,0.0908813476562,0.757385253906,0.632141113281,-203.25,451.6875,190.8125,24.14,3.96,35.93
1541196002703888893,152,0,/imu_data_acquisition2,56612.0,-0.160583496094,0.108032226562,0.762878417969,0.616943359375,-13.6875,-0.0625,-0.0625,10.8,13.43,39.91
1541196002716042041,153,0,/imu_data_acquisition2,56623.0,-0.159057617188,0.122924804688,0.765747070312,0.610900878906,130.875,97.1875,105.6875,13.68,24.09,21.11
1541196002725600004,154,0,/imu_data_acquisition2,56634.0,-0.146118164062,0.123962402344,0.775451660156,0.601684570312,71.1875,-114.8125,174.75,11.21,-0.43,6.14
1541196002734251022,155,0,/imu_data_acquisition2,56642.0,-0.141174316406,0.124145507812,0.789428710938,0.584411621094,-13.1875,-42.875,265.875,11.21,-0.43,6.14
1541196002740427970,156,0,/imu_data_acquisition2,56649.0,-0.132080078125,0.127563476562,0.801635742188,0.568908691406,50.5625,-58.75,248.0,10.05,-1.09,12.25
1541196002754827022,157,0,/imu_data_acquisition2,56663.0,-0.120849609375,0.133117675781,-6.103515625e-05,0.555297851562,92.0,-64.8125,225.0625,5.36,-6.91,11.65
1541196002764813899,158,0,/imu_data_acquisition2,56673.0,-0.01220703125,-6.103515625e-05,-6.103515625e-05,0.542663574219,77.125,-128.9375,215.0,5.36,-6.91,11.65
1541196002773916959,159,0,/imu_data_acquisition2,56682.0,-0.0886840820312,0.131958007812,0.832153320312,0.53125,55.6875,-179.0,198.8125,4.44,-8.18,8.46
1541196002784049987,160,0,/imu_data_acquisition2,56691.0,-0.0706787109375,0.127624511719,0.840454101562,0.521850585938,47.5625,-198.5,168.0625,2.96,-8.52,8.04
1541196002792886018,161,0,/imu_data_acquisition2,56700.0,-0.0538940429688,0.122314453125,0.846984863281,0.514526367188,34.75,-194.5625,134.375,2.43,-0.01,-0.01
1541196002800265073,162,0,/imu_data_acquisition2,56709.0,-0.0386962890625,0.115112304688,0.852111816406,0.509033203125,9.5,-191.0,103.6875,1.92,-9.1,10.28
1541196002814100027,163,0,/imu_data_acquisition2,56723.0,-0.0250244140625,0.105590820312,-6.103515625e-05,0.505432128906,-20.6875,-192.4375,73.6875,0.67,-9.43,11.83
1541196002824748992,164,0,/imu_data_acquisition2,56731.0,-0.0120849609375,-6.103515625e-05,-6.103515625e-05,0.50439453125,-37.375,-196.8125,36.9375,-0.12,-8.26,11.84
1541196002831406116,165,0,/imu_data_acquisition2,56740.0,0.000732421875,0.0827026367188,0.858520507812,0.506042480469,-43.5,-202.625,-2.125,-0.95,-6.91,11.26
1541196002843669891,166,0,/imu_data_acquisition2,56750.0,0.0130004882812,0.0700073242188,0.857360839844,0.509765625,-54.9375,-204.625,-32.875,-1.64,-1.2,-0.01
1541196002851306915,167,0,/imu_data_acquisition2,56760.0,0.0240478515625,0.056396484375,-6.103515625e-05,0.51513671875,-70.125,-198.5,-58.1875,-3.19,-6.13,13.66
1541196002865251064,168,0,/imu_data_acquisition2,56774.0,0.0341796875,0.042724609375,0.85107421875,0.522216796875,-76.25,-192.25,-84.375,-4.57,-5.31,14.65
1541196002875812053,169,0,/imu_data_acquisition2,56784.0,0.0440673828125,-6.103515625e-05,-6.103515625e-05,0.531005859375,-75.0625,-189.125,-111.25,-4.57,-5.31,14.65
1541196002881230115,170,0,/imu_data_acquisition2,56789.0,0.0535888671875,0.016357421875,0.838928222656,0.541320800781,-72.1875,-184.0625,-135.6875,-6.47,-3.29,14.36
1541196002891999959,171,0,/imu_data_acquisition2,56800.0,0.063232421875,0.00396728515625,0.830871582031,0.552856445312,-67.3125,-182.4375,-156.8125,-7.34,-2.82,13.79
1541196002904289960,172,0,/imu_data_acquisition2,56813.0,0.0723876953125,-0.0081787109375,0.82177734375,0.565124511719,-68.5625,-176.75,-170.4375,-7.62,-2.17,12.39
1541196002914102077,173,0,/imu_data_acquisition2,56822.0,0.0806274414062,-0.0194091796875,0.811950683594,0.577819824219,-65.625,-162.5625,-4.5625,-8.38,-0.51,12.44
1541196002923227071,174,0,/imu_data_acquisition2,56832.0,0.088134765625,-0.0289916992188,0.801452636719,0.590759277344,-55.3125,-144.875,-188.875,-8.4,-0.04,12.24
1541196002933729887,175,0,/imu_data_acquisition2,56841.0,0.0948486328125,-0.037353515625,0.790771484375,0.603576660156,-49.5,-128.875,-190.375,-8.11,0.51,12.0
1541196002941006898,176,0,/imu_data_acquisition2,56849.0,0.100952148438,-0.0443725585938,0.779968261719,0.615966796875,-40.9375,-114.125,-187.5,-2.4,-0.01,-0.01
1541196002955446004,177,0,/imu_data_acquisition2,56864.0,0.106262207031,-6.103515625e-05,-6.103515625e-05,0.627685546875,-34.125,-97.5625,-179.8125,-5.69,1.9,10.84
1541196002966793060,178,0,/imu_data_acquisition2,56875.0,0.110778808594,-0.05517578125,0.759704589844,0.638366699219,-29.5,-70.3125,-152.0625,-2.55,-0.01,-0.01
1541196002974669933,179,0,/imu_data_acquisition2,56882.0,0.114379882812,-0.0593872070312,0.750610351562,0.648010253906,-29.5,-70.3125,-152.0625,-5.11,2.02,10.9
1541196002983097076,180,0,/imu_data_acquisition2,56891.0,0.117614746094,-0.0628662109375,0.742309570312,0.656677246094,-23.5,-59.9375,-138.5,-4.02,2.9,10.14
1541196002992583990,181,0,/imu_data_acquisition2,56900.0,0.120056152344,-0.0653076171875,0.73583984375,0.663269042969,-16.5,-12.5625,-0.0625,-3.3,2.85,8.59
1541196003001233100,182,0,/imu_data_acquisition2,56910.0,0.122436523438,-0.0677490234375,0.729248046875,0.669738769531,-16.5,-12.5625,-0.0625,-2.72,3.03,8.63
1541196003013921976,183,0,/imu_data_acquisition2,56923.0,0.124328613281,-0.0695190429688,0.723815917969,0.675109863281,-13.0625,-33.9375,-88.4375,-1.3,3.05,8.83
1541196003022496938,184,0,/imu_data_acquisition2,56929.0,0.125366210938,-0.070556640625,0.720581054688,0.678283691406,-7.625,-19.75,-52.5625,-0.69,3.33,8.86
1541196003032885074,185,0,/imu_data_acquisition2,56940.0,0.126342773438,-0.0714721679688,0.718322753906,0.680358886719,-5.0625,-16.9375,-35.0625,0.0,3.26,8.7
1541196003042766094,186,0,/imu_data_acquisition2,56951.0,0.127258300781,-0.072265625,0.717102050781,0.681457519531,-1.5625,-15.0625,-18.375,0.72,3.2,9.5
1541196003054620981,187,0,/imu_data_acquisition2,56960.0,0.128356933594,-0.0733642578125,0.716796875,0.681396484375,-0.875,-18.4375,-1.625,1.07,2.9,9.17
1541196003064572095,188,0,/imu_data_acquisition2,56973.0,0.129577636719,-0.0747680664062,0.717346191406,0.680480957031,0.5,-21.5625,13.125,1.37,2.34,8.7
1541196003073199033,189,0,/imu_data_acquisition2,56982.0,0.131042480469,-0.0761108398438,0.718505859375,0.678833007812,4.0,-23.125,24.625,1.59,2.06,8.69
1541196003082401037,190,0,/imu_data_acquisition2,56989.0,0.132629394531,-0.0153198242188,-6.103515625e-05,0.676452636719,3.25,-27.0,35.5,1.89,1.13,8.91
1541196003092252016,191,0,/imu_data_acquisition2,57000.0,-6.103515625e-05,-6.103515625e-05,-6.103515625e-05,0.673583984375,1.4375,-31.375,43.25,2.09,0.35,8.87
1541196003103039979,192,0,/imu_data_acquisition2,57010.0,0.136413574219,-0.0823974609375,0.724609375,0.670471191406,2.9375,-35.875,46.4375,2.18,-0.03,8.97
1541196003111273050,193,0,/imu_data_acquisition2,57019.0,0.138549804688,-0.085205078125,0.726989746094,0.667114257812,0.6875,-40.375,49.375,2.22,-0.34,8.96
1541196003122507095,194,0,/imu_data_acquisition2,57031.0,0.140686035156,-0.088623046875,0.729309082031,0.663696289062,-4.25,-44.6875,51.5,2.38,-0.51,9.1
1541196003132276058,195,0,/imu_data_acquisition2,57040.0,0.142700195312,-0.0925903320312,0.731628417969,0.660095214844,-10.0,-48.3125,53.625,2.14,-0.65,9.48
1541196003140347003,196,0,/imu_data_acquisition2,57050.0,0.144653320312,-0.0972900390625,0.733947753906,0.656494140625,-16.9375,-53.3125,55.125,1.73,-1.1,-0.01
1541196003151509046,197,0,/imu_data_acquisition2,57060.0,0.146484375,-0.102355957031,0.736083984375,0.652893066406,-21.625,-56.0625,54.375,1.36,-1.36,9.82
1541196003165805101,198,0,/imu_data_acquisition2,57072.0,0.148254394531,-0.107849121094,0.737915039062,0.649475097656,-25.25,-58.75,51.25,1.42,-1.3,9.08
1541196003171195983,199,0,/imu_data_acquisition2,57080.0,0.149597167969,-0.113464355469,0.739624023438,0.646301269531,-31.0,-56.125,49.5625,1.04,-1.16,9.71
1541196003182941913,200,0,/imu_data_acquisition2,57090.0,0.150573730469,-0.119445800781,0.741149902344,0.643249511719,-38.0625,-55.5,47.5,0.67,-0.96,10.14
1541196003194732904,201,0,/imu_data_acquisition2,57100.0,0.151000976562,-0.125671386719,0.742492675781,0.640380859375,-43.8125,-53.0625,45.625,0.33,-0.48,10.5
1541196003200915098,202,0,/imu_data_acquisition2,57110.0,0.150634765625,-0.13232421875,0.743774414062,0.637634277344,-54.4375,-49.125,46.0,0.03,-0.01,10.59
1541196003214369058,203,0,/imu_data_acquisition2,57123.0,-6.103515625e-05,-6.103515625e-05,-6.103515625e-05,0.634948730469,-64.9375,-13.5,-0.0625,-0.91,0.69,11.26
1541196003221250057,204,0,/imu_data_acquisition2,57130.0,0.147521972656,-0.00628662109375,-6.103515625e-05,0.632263183594,-74.0,-40.875,49.6875,-1.36,0.88,11.63
1541196003231604099,205,0,/imu_data_acquisition2,57140.0,0.144836425781,-0.154602050781,0.747497558594,0.629577636719,-80.8125,-36.1875,51.375,-2.12,1.34,12.35
1541196003242877960,206,0,/imu_data_acquisition2,57151.0,0.141662597656,-0.16259765625,0.748779296875,0.626770019531,-87.3125,-34.3125,53.5625,-3.59,1.52,12.4
1541196003251719951,207,0,/imu_data_acquisition2,57160.0,0.138244628906,-0.170532226562,0.750061035156,0.623840332031,-88.4375,-32.0625,55.0,-4.4,1.6,12.11
1541196003260936975,208,0,/imu_data_acquisition2,57170.0,0.134826660156,-0.177856445312,0.751342773438,0.621032714844,-82.625,-27.625,53.25,-5.11,1.66,11.38
1541196003274007081,209,0,/imu_data_acquisition2,57181.0,0.131164550781,-0.1845703125,0.752685546875,0.618225097656,-79.8125,-4.4375,-0.0625,-7.26,-0.75,7.46
1541196003281058073,210,0,/imu_data_acquisition2,57189.0,0.127990722656,-0.187622070312,0.753845214844,0.616516113281,-44.9375,3.9375,34.875,-10.17,-0.56,9.6
1541196003291718006,211,0,/imu_data_acquisition2,57201.0,0.125427246094,-0.189270019531,0.754455566406,0.615783691406,-31.1875,10.1875,19.3125,-14.61,-2.95,0.36
1541196003305135011,212,0,/imu_data_acquisition2,57212.0,0.125061035156,-0.180053710938,0.753845214844,0.619384765625,73.1875,77.8125,-49.1875,-11.24,-6.44,-2.15
1541196003312735080,213,0,/imu_data_acquisition2,57219.0,0.131103515625,-0.163818359375,0.751159667969,0.625854492188,174.0,75.25,-0.0625,7.26,9.12,21.42
1541196003321326971,214,0,/imu_data_acquisition2,57230.0,0.131958007812,-0.160034179688,0.749328613281,0.62890625,31.9375,23.0,-48.4375,15.67,2.61,13.41
1541196003332484006,215,0,/imu_data_acquisition2,57241.0,0.131652832031,-0.153869628906,0.747985839844,0.632080078125,44.5,52.5,-46.875,8.92,-2.98,10.98
1541196003340342044,216,0,/imu_data_acquisition2,57249.0,0.137451171875,-0.138122558594,0.745666503906,0.63720703125,170.75,72.5,-98.0625,2.29,19.14,-5.2
1541196003351665973,217,0,/imu_data_acquisition2,57261.0,0.132385253906,-0.125854492188,0.746398925781,0.639953613281,66.625,-0.0625,-0.0625,5.12,12.78,6.79
1541196003362736940,218,0,/imu_data_acquisition2,57271.0,0.114807128906,-0.121276855469,0.749267578125,0.640869140625,-89.875,195.625,32.375,17.08,-5.04,29.15
1541196003370718955,219,0,/imu_data_acquisition2,57280.0,0.118774414062,-0.103698730469,0.747192382812,0.645629882812,176.8125,101.9375,-87.5,-10.97,20.06,-0.01
1541196003388721942,220,0,/imu_data_acquisition2,57297.0,0.12744140625,-0.100158691406,0.744445800781,0.647766113281,90.75,-50.6875,-55.0625,13.29,8.88,-3.43
1541196003395165920,221,0,/imu_data_acquisition2,57304.0,0.116943359375,-0.1015625,0.746704101562,0.646850585938,-88.3125,83.875,39.9375,-3.82,-9.83,32.42
1541196003401814937,222,0,/imu_data_acquisition2,57310.0,0.120666503906,-0.100219726562,0.745788574219,0.6474609375,38.25,-22.6875,-19.1875,7.45,-0.01,-0.01
1541196003413227081,223,0,/imu_data_acquisition2,57321.0,0.118286132812,-0.0965576171875,0.745788574219,0.6484375,12.9375,49.8125,-10.875,1.63,2.41,13.7
1541196003423305988,224,0,/imu_data_acquisition2,57330.0,0.116577148438,-0.0971069335938,0.745971679688,0.6484375,-18.375,11.0625,4.3125,4.06,1.24,6.71
1541196003433108091,225,0,/imu_data_acquisition2,57342.0,0.113830566406,-0.096923828125,0.746337890625,0.648620605469,-18.875,26.75,4.0,3.22,-1.78,10.47
1541196003443386077,226,0,/imu_data_acquisition2,57351.0,0.112976074219,-0.0955810546875,0.746215820312,0.648986816406,4.8125,17.875,-5.0,3.7,0.45,9.08
1541196003450089931,227,0,/imu_data_acquisition2,57359.0,0.111694335938,-0.094970703125,0.746643066406,0.64892578125,-3.875,16.375,4.4375,3.48,-0.01,-0.01
1541196003461488962,228,0,/imu_data_acquisition2,57370.0,0.110717773438,-0.0938110351562,0.747131347656,0.648681640625,3.625,17.875,5.5,3.4,0.0,8.69
1541196003473351955,229,0,/imu_data_acquisition2,57382.0,0.109802246094,-0.0926513671875,0.747741699219,0.648254394531,4.125,17.0,7.75,3.15,0.55,9.5
1541196003479967117,230,0,/imu_data_acquisition2,57389.0,-6.103515625e-05,-6.103515625e-05,-6.103515625e-05,0.647644042969,-0.125,11.3125,10.8125,3.15,0.3,9.79
1541196003493119001,231,0,/imu_data_acquisition2,57401.0,0.108337402344,-0.0916137695312,0.7490234375,0.647155761719,1.0625,10.1875,8.8125,3.09,0.51,9.94
1541196003503774881,232,0,/imu_data_acquisition2,57411.0,0.10791015625,-0.09130859375,0.749450683594,0.646789550781,0.1875,6.375,6.8125,3.12,0.79,9.63
1541196003515252113,233,0,/imu_data_acquisition2,57423.0,0.107360839844,-0.01318359375,-6.103515625e-05,0.646423339844,-3.25,4.5625,6.5625,3.05,0.48,9.55
1541196003523657083,234,0,/imu_data_acquisition2,57430.0,0.10693359375,-0.0914306640625,0.750061035156,0.646240234375,-3.6875,3.125,4.5,3.29,0.24,9.69
1541196003533936023,235,0,/imu_data_acquisition2,57440.0,0.106750488281,-0.0914306640625,0.750183105469,0.646057128906,-1.0625,1.5625,2.375,3.56,0.5,9.24
1541196003540889978,236,0,/imu_data_acquisition2,57450.0,0.106384277344,-0.0914916992188,0.750305175781,0.64599609375,-3.0,2.75,1.875,3.25,0.54,9.31
1541196003552097082,237,0,/imu_data_acquisition2,57460.0,0.105834960938,-0.0917358398438,0.75048828125,0.645874023438,-6.25,3.5,3.25,3.13,0.3,9.58
1541196003564439058,238,0,/imu_data_acquisition2,57470.0,0.105285644531,-0.0921630859375,0.750610351562,0.645751953125,-7.5625,1.4375,3.625,3.28,0.13,9.5
1541196003571825981,239,0,/imu_data_acquisition2,57481.0,0.104736328125,-0.0924682617188,0.750793457031,0.645568847656,-6.5625,2.9375,3.8125,3.21,0.19,10.19
1541196003582428932,240,0,/imu_data_acquisition2,57490.0,0.104309082031,-0.0928955078125,0.7509765625,0.645385742188,-6.75,-0.5625,3.8125,3.58,0.46,8.8
1541196003591651916,241,0,/imu_data_acquisition2,57500.0,0.103820800781,-0.015380859375,-6.103515625e-05,0.645202636719,-8.6875,0.375,4.4375,3.41,0.18,9.91
1541196003601290941,242,0,/imu_data_acquisition2,57510.0,0.103393554688,-0.0941162109375,0.751281738281,0.644958496094,-8.3125,-0.875,4.125,3.41,0.14,-0.01
1541196003612226009,243,0,/imu_data_acquisition2,57519.0,0.103088378906,-0.0948486328125,0.751403808594,0.644775390625,-8.375,-3.125,3.625,3.87,0.36,8.8
1541196003622169971,244,0,/imu_data_acquisition2,57530.0,0.102661132812,-0.0955200195312,0.751525878906,0.644653320312,-8.875,-1.0,3.375,2.82,0.04,9.2
1541196003635880947,245,0,/imu_data_acquisition2,57544.0,0.102355957031,-6.103515625e-05,-6.103515625e-05,0.644592285156,-7.125,-2.125,1.9375,3.43,0.17,10.32
1541196003643539905,246,0,/imu_data_acquisition2,57550.0,0.102661132812,-0.09716796875,0.751525878906,0.644409179688,-8.9375,-3.9375,2.8125,3.53,-0.01,-0.01
1541196003657339096,247,0,/imu_data_acquisition2,57564.0,0.103149414062,-0.0977783203125,0.751403808594,0.644348144531,-5.5,-0.0625,-0.0625,3.43,0.21,9.16
1541196003663225889,248,0,/imu_data_acquisition2,57571.0,0.102905273438,-0.0978393554688,0.751403808594,0.644348144531,-2.3125,1.375,0.125,3.31,0.37,9.78
1541196003671549081,249,0,/imu_data_acquisition2,57579.0,0.102661132812,-0.0983276367188,0.75146484375,0.644226074219,-6.0,-1.5625,2.25,4.04,-0.19,8.37
1541196003684258937,250,0,/imu_data_acquisition2,57592.0,0.102294921875,-0.09814453125,0.751525878906,0.644287109375,-1.125,4.875,0.6875,3.04,-0.05,10.57
1541196003693365097,251,0,/imu_data_acquisition2,57602.0,0.102355957031,-0.097900390625,0.751525878906,0.644348144531,2.1875,1.1875,-1.125,3.89,0.3,8.68
1541196003701766014,252,0,/imu_data_acquisition2,57609.0,0.102905273438,-6.103515625e-05,-6.103515625e-05,0.644348144531,1.125,5.3125,-0.1875,3.05,0.22,9.49
1541196003713994026,253,0,/imu_data_acquisition2,57621.0,0.102722167969,-0.097412109375,0.751525878906,0.644348144531,2.0,4.25,-0.3125,3.09,0.12,9.61
1541196003722883939,254,0,/imu_data_acquisition2,57631.0,0.102600097656,-6.103515625e-05,-6.103515625e-05,0.644348144531,2.6875,4.375,-0.3125,3.07,0.22,9.47
1541196003734361886,255,0,/imu_data_acquisition2,57639.0,0.1025390625,-0.0966186523438,0.751647949219,0.644348144531,2.5625,3.5,0.0625,3.06,0.24,9.48
1541196003742067098,256,0,/imu_data_acquisition2,57651.0,0.102416992188,-0.09619140625,0.751708984375,0.644348144531,3.1875,4.4375,-0.125,2.89,0.4,-0.01
1541196003752741098,257,0,/imu_data_acquisition2,57660.0,0.102294921875,-0.0960083007812,0.751770019531,0.644348144531,0.6875,2.5625,1.0,3.12,0.25,9.59
1541196003760696887,258,0,/imu_data_acquisition2,57669.0,-6.103515625e-05,-6.103515625e-05,-6.103515625e-05,0.644287109375,1.1875,3.625,1.0,2.7,0.28,9.32
1541196003771882057,259,0,/imu_data_acquisition2,57680.0,0.10205078125,-6.103515625e-05,-6.103515625e-05,0.644226074219,0.9375,1.6875,0.875,2.71,0.45,8.95
1541196003783554077,260,0,/imu_data_acquisition2,57690.0,0.101806640625,-0.0953979492188,0.752014160156,0.644226074219,0.4375,4.0,0.875,2.63,0.17,10.48
1541196003791027069,261,0,/imu_data_acquisition2,57700.0,0.101806640625,-0.0953979492188,0.752075195312,0.644165039062,0.125,-0.125,0.8125,3.02,0.46,9.16
1541196003804164886,262,0,/imu_data_acquisition2,57711.0,0.1015625,-0.095458984375,0.752136230469,0.644104003906,-2.125,1.375,1.3125,2.77,0.23,9.59
1541196003815367937,263,0,/imu_data_acquisition2,57721.0,0.101623535156,-6.103515625e-05,-6.103515625e-05,0.644104003906,-2.0,-0.0625,0.9375,2.67,0.25,9.36
1541196003821376085,264,0,/imu_data_acquisition2,57730.0,0.101684570312,-6.103515625e-05,-6.103515625e-05,0.644165039062,-1.5625,0.375,0.4375,2.43,0.37,9.81
1541196003834049940,265,0,/imu_data_acquisition2,57742.0,0.101623535156,-0.09521484375,0.752075195312,0.644226074219,-3.1875,-0.25,0.5,2.72,0.14,9.39
1541196003845443010,266,0,/imu_data_acquisition2,57752.0,0.1015625,-0.0953369140625,0.752075195312,0.644226074219,-1.5625,-0.6875,-0.125,2.3,0.27,9.83
1541196003851912975,267,0,/imu_data_acquisition2,57761.0,0.101501464844,-0.0953979492188,0.752014160156,0.644226074219,-1.25,-0.5,-0.3125,2.77,0.28,9.77
1541196003863600969,268,0,/imu_data_acquisition2,57772.0,0.101501464844,-0.0955810546875,0.752014160156,0.644226074219,-1.6875,-1.3125,0.125,2.76,0.34,9.21
1541196003875097990,269,0,/imu_data_acquisition2,57782.0,0.1015625,-0.0955200195312,0.751953125,0.644287109375,-1.8125,-0.3125,0.25,2.76,0.23,9.41
1541196003881557941,270,0,/imu_data_acquisition2,57790.0,0.101623535156,-0.0955810546875,0.751953125,0.644287109375,-0.4375,-0.8125,-0.4375,2.83,0.21,9.64
1541196003894150018,271,0,/imu_data_acquisition2,57802.0,0.1015625,-0.0956420898438,0.751953125,0.644287109375,-1.125,-0.125,0.1875,2.85,0.16,9.6
1541196003906030893,272,0,/imu_data_acquisition2,57811.0,0.1015625,-0.0956420898438,0.751953125,0.644287109375,0.0625,0.3125,-0.5625,2.7,0.29,9.69
1541196003911911964,273,0,/imu_data_acquisition2,57821.0,-6.103515625e-05,-6.103515625e-05,-6.103515625e-05,0.644348144531,0.125,0.8125,-0.6875,2.88,0.22,9.5
1541196003925602912,274,0,/imu_data_acquisition2,57832.0,0.101745605469,-0.0953979492188,0.751892089844,0.644348144531,-0.5,0.375,-0.3125,2.75,0.1,9.5
1541196003935590982,275,0,/imu_data_acquisition2,57842.0,0.101867675781,-0.0951538085938,0.751831054688,0.644409179688,1.0625,1.0,-1.0625,2.75,0.3,9.49
1541196003941092014,276,0,/imu_data_acquisition2,57850.0,0.101928710938,-0.0948486328125,0.751770019531,0.64453125,0.9375,1.0625,-1.25,2.56,0.22,-0.01
1541196003954016923,277,0,/imu_data_acquisition2,57861.0,0.102111816406,-0.0946044921875,0.751708984375,0.644592285156,0.625,0.5,-0.8125,2.69,0.27,9.77
1541196003963165044,278,0,/imu_data_acquisition2,57871.0,0.102172851562,-6.103515625e-05,-6.103515625e-05,0.644714355469,0.5,0.5,-1.0625,2.7,0.06,9.67
1541196003970709085,279,0,/imu_data_acquisition2,57880.0,0.102355957031,-0.0940551757812,0.751586914062,0.644836425781,2.5,0.875,-1.6875,2.66,0.44,9.61
1541196003982815980,280,0,/imu_data_acquisition2,57891.0,0.102600097656,-0.0936889648438,0.751525878906,0.644958496094,1.75,0.6875,-1.4375,2.85,0.33,9.71
1541196003994859933,281,0,/imu_data_acquisition2,57901.0,0.102661132812,-0.093505859375,0.75146484375,0.64501953125,0.25,0.8125,-0.875,2.63,0.25,9.43
1541196004001487970,282,0,/imu_data_acquisition2,57911.0,0.102661132812,-0.093505859375,0.75146484375,0.64501953125,0.4375,1.8125,-0.0625,2.82,0.3,9.54
1541196004014492034,283,0,/imu_data_acquisition2,57921.0,0.102905273438,-0.0929565429688,0.751281738281,0.645202636719,1.0625,0.8125,-1.4375,2.76,0.42,9.36
1541196004023217916,284,0,/imu_data_acquisition2,57931.0,0.102905273438,-0.0929565429688,0.751281738281,0.645202636719,0.1875,1.0,-0.0625,2.76,0.28,9.53
1541196004032223939,285,0,/imu_data_acquisition2,57941.0,0.10302734375,-0.0924682617188,0.751159667969,0.645446777344,1.0,1.6875,-1.125,2.7,0.24,9.56
1541196004043939113,286,0,/imu_data_acquisition2,57951.0,0.10302734375,-0.0924682617188,0.751159667969,0.645446777344,2.3125,2.0625,-1.75,2.68,0.15,9.49
1541196004053256988,287,0,/imu_data_acquisition2,57961.0,0.103210449219,-0.091552734375,0.751037597656,0.645690917969,4.125,3.375,-2.375,2.66,0.23,9.68
1541196004062737941,288,0,/imu_data_acquisition2,57971.0,0.103210449219,-0.091552734375,0.751037597656,0.645690917969,3.875,3.4375,-2.0625,2.62,0.23,9.69
1541196004074352025,289,0,/imu_data_acquisition2,57981.0,0.103271484375,-0.0910034179688,0.7509765625,0.645812988281,3.1875,4.625,-1.625,2.78,0.08,9.66
1541196004083738088,290,0,/imu_data_acquisition2,57992.0,0.103210449219,-0.0904541015625,0.750915527344,0.645935058594,5.5625,4.375,-3.3125,2.59,0.17,9.34
1541196004093272924,291,0,/imu_data_acquisition2,58002.0,0.103332519531,-0.0897827148438,0.750854492188,0.646179199219,9.6875,5.75,-4.9375,2.99,0.4,-0.01
1541196004103889942,292,0,/imu_data_acquisition2,58010.0,0.103576660156,-0.0887451171875,0.750671386719,0.646423339844,9.6875,5.75,-4.9375,2.85,0.69,9.49
1541196004114733934,293,0,/imu_data_acquisition2,58022.0,0.10400390625,-0.0867309570312,0.750366210938,0.64697265625,6.125,9.1875,-3.4375,1.59,0.75,9.28
1541196004122869014,294,0,/imu_data_acquisition2,58032.0,0.104064941406,-0.007568359375,-6.103515625e-05,0.647155761719,9.0625,7.5625,-3.5,2.82,0.48,9.66
1541196004133850097,295,0,/imu_data_acquisition2,58042.0,0.104064941406,-0.085693359375,0.750305175781,0.647155761719,3.3125,7.25,-3.1875,2.49,-0.51,9.4
1541196004141573905,296,0,/imu_data_acquisition2,58050.0,0.103820800781,-6.103515625e-05,-6.103515625e-05,0.647399902344,-4.125,2.125,1.4375,3.19,-1.05,10.21
1541196004153459072,297,0,/imu_data_acquisition2,58062.0,0.103759765625,-0.0845336914062,0.750244140625,0.6474609375,8.4375,2.3125,-0.0625,3.02,-0.14,9.08
1541196004163568019,298,0,/imu_data_acquisition2,58072.0,0.103759765625,-0.0845336914062,0.750244140625,0.6474609375,18.6875,5.3125,-6.75,2.56,1.23,9.74
1541196004173147916,299,0,/imu_data_acquisition2,58081.0,-6.103515625e-05,-6.103515625e-05,-6.103515625e-05,0.647766113281,7.1875,4.0,-0.8125,3.46,0.16,9.42
1541196004183094024,300,0,/imu_data_acquisition2,58092.0,0.104675292969,-0.00421142578125,-6.103515625e-05,0.647827148438,-1.625,1.625,3.0,2.97,-0.17,9.24
1541196004195087909,301,0,/imu_data_acquisition2,58104.0,0.104431152344,-0.0823974609375,0.750244140625,0.647644042969,1.375,3.9375,1.9375,2.88,0.23,9.82
1541196004202703952,302,0,/imu_data_acquisition2,58111.0,0.104248046875,-0.0820922851562,0.750427246094,0.647521972656,9.6875,2.625,-0.0625,3.26,1.3,-0.01
1541196004333440065,303,0,/imu_data_acquisition2,58123.0,0.104614257812,-0.081298828125,0.750366210938,0.647583007812,7.1875,1.75,-2.3125,3.33,0.88,-0.01
1541196004370578050,304,0,/imu_data_acquisition2,58132.0,0.104919433594,-0.0807495117188,0.750305175781,0.647644042969,1.25,2.6875,0.6875,2.73,0.34,9.41
1541196004388863086,305,0,/imu_data_acquisition2,58142.0,0.104797363281,-0.0805053710938,0.750427246094,0.647644042969,4.0625,2.375,-2.125,2.72,0.69,9.1
1541196004395020961,306,0,/imu_data_acquisition2,58156.0,0.104858398438,-0.079833984375,0.750305175781,0.647827148438,1.8125,2.375,-1.5625,2.87,0.45,9.73
1541196004397737026,307,0,/imu_data_acquisition2,58161.0,0.104797363281,-0.0796508789062,0.750244140625,0.647888183594,0.875,1.8125,-0.0625,2.65,0.47,9.28
1541196004399532079,308,0,/imu_data_acquisition2,58171.0,0.104797363281,-0.0796508789062,0.750244140625,0.647888183594,0.3125,2.5625,-3.0,2.98,0.2,9.17
1541196004400269985,309,0,/imu_data_acquisition2,58181.0,0.104675292969,-0.0795288085938,0.750122070312,0.648132324219,3.1875,3.75,-4.625,2.97,0.38,9.56
1541196004401407957,310,0,/imu_data_acquisition2,58191.0,0.104614257812,-0.0790405273438,0.749877929688,0.6484375,4.5625,3.0625,-4.25,2.92,0.3,9.45
1541196004402682065,311,0,/imu_data_acquisition2,58199.0,0.10498046875,-0.0786743164062,0.749694824219,0.648681640625,4.5625,3.0625,-4.25,2.92,0.3,9.45
1541196004404465913,312,0,/imu_data_acquisition2,58209.0,0.105163574219,-0.0780639648438,0.749450683594,0.648986816406,6.0,2.75,-5.375,3.23,0.43,9.29
1541196004405333042,313,0,/imu_data_acquisition2,58221.0,0.10546875,-0.0772705078125,0.749206542969,0.649291992188,7.625,2.625,-5.4375,3.54,0.38,9.41
1541196004406495094,314,0,/imu_data_acquisition2,58231.0,0.105773925781,-0.0765991210938,0.7490234375,0.649597167969,6.125,1.625,-4.4375,3.2,0.19,-0.01
1541196004413322925,315,0,/imu_data_acquisition2,58241.0,0.106018066406,-0.0760498046875,0.748779296875,0.649841308594,9.5625,2.5625,-7.6875,3.68,0.41,9.39
1541196004415189027,316,0,/imu_data_acquisition2,58249.0,-6.103515625e-05,-6.103515625e-05,-6.103515625e-05,0.650207519531,9.5625,2.5625,-7.6875,3.68,0.41,9.39
1541196004418940067,317,0,/imu_data_acquisition2,58259.0,-6.103515625e-05,-6.103515625e-05,-6.103515625e-05,0.650695800781,9.6875,0.625,-8.9375,3.22,0.41,9.43
1541196004423588037,318,0,/imu_data_acquisition2,58271.0,-6.103515625e-05,-6.103515625e-05,-6.103515625e-05,0.651428222656,11.75,2.5625,-12.3125,3.34,0.51,9.53
1541196004425147056,319,0,/imu_data_acquisition2,58281.0,0.108337402344,-0.0726318359375,0.746704101562,0.652282714844,13.3125,2.6875,-19.0,3.76,0.84,-0.01
1541196004426619052,320,0,/imu_data_acquisition2,58292.0,0.109008789062,-0.0714721679688,0.745727539062,0.653381347656,12.125,1.125,-19.3125,3.82,0.53,9.02
1541196004428174018,321,0,/imu_data_acquisition2,58301.0,0.109741210938,-0.0704345703125,0.744750976562,0.654479980469,12.125,1.125,-19.3125,3.73,0.53,9.07
1541196004431646108,322,0,/imu_data_acquisition2,58311.0,0.110168457031,-0.0692138671875,0.743774414062,0.655639648438,14.6875,5.875,-20.5625,4.01,0.71,9.41
1541196004443025112,326,0,/imu_data_acquisition2,58351.0,0.111267089844,-0.0621337890625,0.740478515625,0.659851074219,15.9375,17.625,-15.75,3.6,0.37,9.51
1541196004453505992,327,0,/imu_data_acquisition2,58361.0,0.111206054688,-0.0596313476562,0.739929199219,0.660766601562,19.625,20.25,-15.5,3.6,0.37,9.51
1541196004462455034,328,0,/imu_data_acquisition2,58371.0,0.111389160156,-0.0565185546875,0.739318847656,0.661682128906,26.875,22.5625,-17.4375,4.33,1.13,9.21
1541196004474880933,329,0,/imu_data_acquisition2,58383.0,0.113647460938,-0.054443359375,0.738525390625,0.662292480469,31.75,34.1875,-14.875,4.32,1.02,9.08
1541196004485672950,330,0,/imu_data_acquisition2,58392.0,0.113403320312,-0.0504150390625,0.738159179688,0.6630859375,34.375,43.3125,-15.5625,4.28,1.08,9.08
1541196004492198944,331,0,/imu_data_acquisition2,58401.0,0.112670898438,-0.0457153320312,0.737854003906,0.663879394531,34.375,43.3125,-15.5625,4.44,1.55,9.17
1541196004508945941,332,0,/imu_data_acquisition2,58416.0,0.111206054688,-0.0400390625,0.737548828125,0.664916992188,36.4375,57.3125,-18.0625,5.4,1.92,8.64
1541196004515302896,333,0,/imu_data_acquisition2,58422.0,-6.103515625e-05,-6.103515625e-05,-6.103515625e-05,0.666137695312,36.25,92.0,-27.25,5.64,2.39,8.34
1541196004524228096,334,0,/imu_data_acquisition2,58431.0,0.105529785156,-0.0256958007812,0.736389160156,0.667785644531,24.75,129.9375,-27.875,4.65,2.83,9.12
1541196004534123897,335,0,/imu_data_acquisition2,58442.0,0.098876953125,-0.0166015625,0.735961914062,0.669494628906,9.75,175.6875,-28.625,4.66,2.47,9.7
1541196004544389009,336,0,/imu_data_acquisition2,58452.0,0.0885620117188,-0.00579833984375,-6.103515625e-05,0.67138671875,-7.5625,217.375,-25.3125,4.81,2.73,9.81
1541196004550589084,337,0,/imu_data_acquisition2,58460.0,0.0746459960938,0.0062255859375,0.73583984375,0.673034667969,-7.5625,217.375,-25.3125,4.81,2.73,9.81
1541196004564465045,338,0,/imu_data_acquisition2,58473.0,0.057373046875,0.0202026367188,0.736083984375,0.674133300781,-39.25,302.1875,-4.9375,4.75,5.36,11.24
1541196004576934099,339,0,/imu_data_acquisition2,58482.0,0.0363159179688,0.0349731445312,0.737121582031,0.673889160156,-39.25,302.1875,-4.9375,3.13,5.39,11.33
1541196004584662914,340,0,/imu_data_acquisition2,58492.0,0.0108642578125,0.04931640625,0.739562988281,0.671203613281,-77.625,338.875,25.875,2.01,5.06,10.63
1541196004592722892,341,0,/imu_data_acquisition2,58501.0,-0.0186157226562,0.062744140625,0.743408203125,0.665649414062,-118.375,368.75,60.375,2.01,5.06,10.63
1541196004601720094,342,0,/imu_data_acquisition2,58509.0,-0.0516357421875,0.0739135742188,-6.103515625e-05,0.657043457031,-167.5625,384.1875,93.75,-1.3,1.02,-0.01
1541196004612415075,343,0,/imu_data_acquisition2,58522.0,-0.0868530273438,0.0853881835938,0.753601074219,0.645935058594,-183.5,408.1875,114.6875,4.06,0.36,17.05
1541196004623809099,344,0,/imu_data_acquisition2,58532.0,-0.123229980469,0.0986328125,0.758178710938,0.632629394531,-131.125,404.625,144.25,17.45,9.36,39.52
1541196004635082960,345,0,/imu_data_acquisition2,58542.0,-0.154846191406,0.11328125,0.76220703125,0.618225097656,15.125,229.9375,114.5,8.88,20.46,-0.01
1541196004644535064,346,0,/imu_data_acquisition2,58553.0,-0.167724609375,0.127746582031,0.764892578125,0.608703613281,92.0,-48.875,101.25,17.93,17.3,-1.72
1541196004653079032,347,0,/imu_data_acquisition2,58560.0,-0.158752441406,0.132568359375,0.769714355469,0.603942871094,92.0,-48.875,101.25,17.93,17.3,-1.72
1541196004665606021,348,0,/imu_data_acquisition2,58573.0,-0.151550292969,0.129821777344,0.781433105469,0.591247558594,22.0,-61.9375,221.125,10.75,3.74,7.83
1541196004673109054,349,0,/imu_data_acquisition2,58582.0,-6.103515625e-05,-6.103515625e-05,-6.103515625e-05,0.577514648438,22.0,-61.9375,221.125,7.95,1.83,15.1
1541196004683933973,350,0,/imu_data_acquisition2,58592.0,-0.1337890625,0.135070800781,0.803100585938,0.564697265625,70.25,-64.5,212.6875,7.14,-2.17,14.63
1541196004692121028,351,0,/imu_data_acquisition2,58600.0,-0.122192382812,0.136474609375,0.814025878906,0.551147460938,51.8125,-96.25,223.0,7.14,-2.17,14.63
1541196004702085971,352,0,/imu_data_acquisition2,58610.0,-0.107543945312,0.134460449219,0.824951171875,0.538330078125,39.625,-149.375,215.1875,5.09,-0.01,-0.01
1541196004715224981,353,0,/imu_data_acquisition2,58622.0,-0.0899658203125,0.131530761719,0.834228515625,0.527893066406,55.4375,-185.875,185.5,3.72,-5.62,8.57
1541196004723325014,354,0,/imu_data_acquisition2,58632.0,-0.0718994140625,0.127746582031,0.842041015625,0.519165039062,54.0625,-196.8125,159.125,2.74,-7.23,10.22
1541196004735018014,355,0,/imu_data_acquisition2,58644.0,-0.0550537109375,0.121948242188,0.848876953125,0.511352539062,28.625,-197.5625,140.8125,2.27,-8.12,11.32
1541196004740281105,356,0,/imu_data_acquisition2,58649.0,-0.0396118164062,0.113830566406,0.854919433594,0.504638671875,-0.75,-198.5625,121.0,2.27,-8.12,11.32
1541196004753607988,357,0,/imu_data_acquisition2,58660.0,-0.025146484375,0.103820800781,0.859619140625,0.499572753906,-23.625,-201.75,94.0,1.8,-8.6,12.25
1541196004764338016,358,0,/imu_data_acquisition2,58672.0,-0.0111083984375,0.092529296875,0.862854003906,0.496826171875,-36.875,-207.0,60.625,-0.45,-8.24,14.14
1541196004774781942,359,0,/imu_data_acquisition2,58683.0,0.00262451171875,0.0804443359375,0.864318847656,0.496459960938,-44.25,-211.1875,25.75,-0.4,-5.81,9.56
1541196004784102916,360,0,/imu_data_acquisition2,58693.0,0.0174560546875,0.0677490234375,0.864074707031,0.498474121094,-42.5625,-228.0,-7.3125,-2.25,-9.15,13.0
1541196004794118881,361,0,/imu_data_acquisition2,58700.0,0.029296875,0.0528564453125,0.863098144531,0.501403808594,-82.5,-212.25,-22.875,-2.25,-9.15,13.0
1541196004803611040,362,0,/imu_data_acquisition2,58711.0,0.0406494140625,0.0386962890625,0.860290527344,0.506652832031,-12.875,-0.0625,-0.0625,-2.83,-5.67,15.67
1541196004813677072,363,0,/imu_data_acquisition2,58722.0,0.051513671875,0.025390625,0.855651855469,0.514343261719,-72.0625,-195.875,-94.1875,-4.0,-5.54,15.42
1541196004824356079,364,0,/imu_data_acquisition2,58733.0,0.0616455078125,0.0107421875,0.849792480469,0.523376464844,-90.4375,-198.125,-115.5625,-5.67,-1.39,14.46
1541196004836175918,365,0,/imu_data_acquisition2,58744.0,0.0716552734375,-0.0030517578125,0.842346191406,0.534118652344,-81.9375,-187.625,-159.6875,-6.14,-1.03,13.38
1541196004846223115,366,0,/imu_data_acquisition2,58754.0,0.0813598632812,-0.016357421875,0.833801269531,0.545837402344,-81.9375,-187.625,-159.6875,-6.7,-0.66,12.87
1541196004854177951,367,0,/imu_data_acquisition2,58760.0,0.0901489257812,-0.0294189453125,0.824645996094,0.557678222656,-85.125,-177.6875,-165.1875,-6.7,-0.66,12.87
1541196004864727020,368,0,/imu_data_acquisition2,58772.0,0.0984497070312,-0.0406494140625,0.815002441406,0.569641113281,-70.625,-161.125,-171.625,-7.11,1.33,12.93
1541196004873436927,369,0,/imu_data_acquisition2,58782.0,-6.103515625e-05,-6.103515625e-05,-6.103515625e-05,0.581237792969,-53.5625,-144.5625,-171.3125,-6.91,-0.36,12.17
1541196004885648965,370,0,/imu_data_acquisition2,58793.0,0.113708496094,-0.0579833984375,0.795776367188,0.592041015625,-45.875,-131.5625,-161.6875,-6.43,1.19,11.05
1541196004891444921,371,0,/imu_data_acquisition2,58800.0,0.120788574219,-0.0641479492188,0.78662109375,0.602111816406,-28.75,-115.125,-155.375,-6.43,1.19,11.05
1541196004907025098,372,0,/imu_data_acquisition2,58810.0,0.127563476562,-0.0689086914062,0.778015136719,0.611328125,-15.5,-0.0625,-0.0625,-6.34,-0.12,11.34
1541196004915574073,373,0,/imu_data_acquisition2,58822.0,0.132995605469,-0.0733032226562,0.770202636719,0.619445800781,-20.0,-87.5,-128.8125,-5.73,-0.52,10.45
1541196004924704074,374,0,/imu_data_acquisition2,58832.0,0.137634277344,-0.0767822265625,0.763000488281,0.626892089844,-15.875,-72.5,-119.25,-4.68,-0.77,10.25
1541196004942531108,376,0,/imu_data_acquisition2,58851.0,0.1435546875,-0.0828857421875,0.750183105469,0.64013671875,-25.875,-47.25,-4.75,-4.05,-0.41,9.54
1541196004951098918,377,0,/imu_data_acquisition2,58860.0,0.144836425781,-0.0855712890625,0.744445800781,0.646179199219,-14.0625,-0.0625,-0.0625,-3.61,-0.13,9.76
1541196004963697910,378,0,/imu_data_acquisition2,58873.0,0.145202636719,-0.0878295898438,0.739074707031,0.65185546875,-32.3125,-24.1875,-87.625,-2.28,0.83,10.07
1541196004974395036,379,0,/imu_data_acquisition2,58883.0,0.144958496094,-0.0894775390625,0.734191894531,0.6572265625,-30.625,-13.0625,-81.125,-1.66,1.62,10.33
1541196004983922958,380,0,/imu_data_acquisition2,58893.0,0.144409179688,-0.0906372070312,0.729858398438,0.661987304688,-26.875,-6.3125,-73.1875,-0.4,2.11,9.79
1541196004993033885,381,0,/imu_data_acquisition2,58900.0,0.143676757812,-0.091796875,0.726135253906,0.666076660156,-26.9375,-5.1875,-61.0,-0.4,2.11,9.79
1541196005001912117,382,0,/imu_data_acquisition2,58910.0,0.143127441406,-0.093017578125,0.723083496094,0.669311523438,-23.5,-6.125,-49.375,-0.22,2.19,9.73
1541196005013125896,383,0,/imu_data_acquisition2,58922.0,0.142639160156,-0.0941162109375,0.720703125,0.671813964844,-19.8125,-6.125,-38.25,-0.04,1.93,9.31
1541196005024436950,384,0,/imu_data_acquisition2,58933.0,0.142211914062,-0.0952758789062,0.718933105469,0.673645019531,-18.0,-6.375,-0.0625,0.38,0.75,9.21
1541196005042989969,386,0,/imu_data_acquisition2,58951.0,0.142028808594,-0.0973510742188,0.716735839844,0.675720214844,-9.25,-8.8125,-13.0,0.52,0.62,8.86
1541196005052962064,387,0,/imu_data_acquisition2,58960.0,0.142456054688,-0.0045166015625,-6.103515625e-05,0.67626953125,-6.0625,-11.625,-8.8125,0.55,0.42,8.66
1541196005066004991,388,0,/imu_data_acquisition2,58974.0,0.14306640625,-6.103515625e-05,-6.103515625e-05,0.676452636719,-5.8125,-14.4375,-4.3125,0.65,-0.91,8.26
1541196005074631929,389,0,/imu_data_acquisition2,58983.0,0.1435546875,-0.100891113281,0.71533203125,0.676391601562,-9.0625,-16.875,0.5,0.76,-1.22,8.52
1541196005085289001,390,0,/imu_data_acquisition2,58992.0,0.143981933594,-0.102722167969,0.715148925781,0.676208496094,-11.875,-18.4375,2.9375,0.76,-0.01,-0.01
