%time,field.header.seq,field.header.stamp,field.header.frame_id,field.time_stamp,field.quat_x,field.quat_y,field.quat_z,field.quat_w,field.gyro_x,field.gyro_y,field.gyro_z,field.accel_x,field.accel_y,field.accel_z
1541195157246412038,1,0,/imu_data_acquisition2,222790.0,0.00653076171875,0.231018066406,0.760620117188,0.606628417969,49.625,-65.4375,165.4375,4.83,-4.88,10.31
1541195157254448890,2,0,/imu_data_acquisition2,222803.0,0.0166625976562,0.229431152344,0.766845703125,0.599182128906,42.5,-82.1875,139.5,4.53,-5.23,10.06
1541195157258295059,3,0,/imu_data_acquisition2,222810.0,0.026123046875,0.225769042969,0.772216796875,0.593322753906,19.875,-94.6875,117.625,3.98,-5.99,10.71
1541195157265583038,4,0,/imu_data_acquisition2,222820.0,-6.103515625e-05,-6.103515625e-05,-6.103515625e-05,0.593322753906,-0.25,-106.125,91.125,3.16,-6.4,11.75
1541195157274202108,5,0,/imu_data_acquisition2,222829.0,0.0347900390625,0.22021484375,0.776489257812,0.58935546875,-14.375,-0.0625,-0.0625,2.77,-5.8,11.91
1541195157284492969,6,0,/imu_data_acquisition2,222839.0,0.0508422851562,0.204833984375,0.780639648438,0.588256835938,-25.5,-131.875,27.6875,2.18,-5.02,11.86
1541195157296922922,7,0,/imu_data_acquisition2,222850.0,0.0584106445312,0.195190429688,0.780517578125,0.591003417969,-37.4375,-143.5,-1.6875,1.1,-3.69,10.73
1541195157306330919,8,0,/imu_data_acquisition2,222860.0,0.0654296875,0.184631347656,0.778991699219,0.595642089844,-48.5,-150.6875,-29.875,0.64,-2.51,10.7
1541195157315184116,9,0,/imu_data_acquisition2,222870.0,0.0718994140625,0.173522949219,0.776123046875,0.601928710938,-55.1875,-153.9375,-55.625,0.42,-1.36,11.04
1541195157326167106,10,0,/imu_data_acquisition2,222880.0,-6.103515625e-05,-6.103515625e-05,-6.103515625e-05,0.601928710938,-60.5,-155.1875,-77.125,-0.23,0.53,12.13
1541195157335344076,11,0,/imu_data_acquisition2,222890.0,0.0838623046875,-6.103515625e-05,-6.103515625e-05,0.618225097656,-58.5,-158.5,-95.125,-0.53,1.22,12.34
1541195157347384929,12,0,/imu_data_acquisition2,222901.0,0.0902099609375,0.1396484375,0.760559082031,0.627624511719,-52.875,-161.75,-108.875,-0.94,2.28,12.57
1541195157360861063,13,0,/imu_data_acquisition2,222912.0,0.0970458984375,0.129028320312,0.753479003906,0.637329101562,-42.8125,-164.0,-117.5625,-1.94,3.26,11.8
1541195157366250038,14,0,/imu_data_acquisition2,222921.0,0.104370117188,-6.103515625e-05,-6.103515625e-05,0.647033691406,-34.1875,-164.9375,-121.1875,-2.57,3.08,11.16
1541195157378699064,15,0,/imu_data_acquisition2,222932.0,0.111877441406,0.109558105469,0.737976074219,0.656433105469,-26.5625,-161.375,-121.3125,-3.16,2.6,10.59
1541195157385549068,16,0,/imu_data_acquisition2,222940.0,0.119384765625,0.10107421875,0.729797363281,0.66552734375,-17.1875,-154.0625,-122.125,-3.59,2.17,10.17
1541195157397211074,17,0,/imu_data_acquisition2,222952.0,0.126708984375,0.0936889648438,0.721374511719,0.674377441406,-7.6875,-144.0,-123.5625,-4.06,1.46,10.24
1541195157407443046,18,0,/imu_data_acquisition2,222961.0,0.126708984375,0.0936889648438,0.721374511719,0.674377441406,0.0625,-132.75,-125.8125,-4.12,1.34,10.42
1541195157416167974,19,0,/imu_data_acquisition2,222970.0,0.1337890625,0.0874633789062,0.712707519531,0.683044433594,5.4375,-121.0625,-15.5,-4.14,1.2,10.92
1541195157425718069,20,0,/imu_data_acquisition2,222980.0,0.140441894531,0.082275390625,0.703857421875,0.691467285156,7.5625,-110.125,-128.1875,-4.14,1.35,11.03
1541195157446723937,22,0,/imu_data_acquisition2,223001.0,0.156982421875,0.0693969726562,0.677429199219,0.71533203125,0.9375,-96.5,-122.875,-3.91,1.05,9.73
1541195157457139968,23,0,/imu_data_acquisition2,223011.0,0.161193847656,0.065673828125,-6.103515625e-05,0.72265625,-1.125,-87.1875,-120.0625,-3.45,2.03,9.0
1541195157465554952,24,0,/imu_data_acquisition2,223019.0,0.161193847656,0.065673828125,0.6689453125,0.72265625,-5.25,-75.5,-114.625,-2.99,2.34,8.91
1541195157476598978,25,0,/imu_data_acquisition2,223031.0,0.164489746094,0.0623168945312,0.660888671875,0.729553222656,-11.625,-64.125,-105.6875,-2.85,2.49,9.32
1541195157486953020,26,0,/imu_data_acquisition2,223041.0,0.166748046875,0.0591430664062,0.653503417969,0.735900878906,-11.0,-53.8125,-95.75,-2.29,3.54,9.12
1541195157496834039,27,0,/imu_data_acquisition2,223050.0,0.169860839844,0.0541381835938,0.641052246094,0.746520996094,-13.3125,-46.0625,-82.5625,-1.95,4.6,-0.01
1541195157506737947,28,0,/imu_data_acquisition2,223061.0,0.171447753906,0.05224609375,0.635986328125,0.750610351562,-4.8125,-0.0625,-0.0625,-0.84,5.62,8.87
1541195157517349004,29,0,/imu_data_acquisition2,223072.0,0.172485351562,0.0499877929688,0.632385253906,0.753540039062,-11.6875,-36.625,-48.5,-0.7,3.55,9.49
1541195157525616884,30,0,/imu_data_acquisition2,223080.0,0.172485351562,0.0499877929688,0.632385253906,0.753540039062,-6.0,-29.5625,-32.125,-0.12,4.91,9.98
1541195157538156032,31,0,/imu_data_acquisition2,223091.0,0.173522949219,0.0482177734375,0.629943847656,0.755493164062,-0.9375,-28.625,-14.5,-0.26,3.93,10.45
1541195157547802925,32,0,/imu_data_acquisition2,223102.0,0.174926757812,0.0465698242188,0.628601074219,0.75634765625,1.5625,-29.125,3.0625,0.06,4.16,9.6
1541195157555413961,33,0,/imu_data_acquisition2,223110.0,0.176574707031,0.0447387695312,0.628356933594,0.756286621094,3.9375,-30.5625,18.9375,0.02,2.47,9.27
1541195157567209959,34,0,/imu_data_acquisition2,223121.0,0.178527832031,0.042724609375,0.629089355469,0.755310058594,4.8125,-30.0,32.6875,-0.04,2.09,9.35
1541195157577641010,35,0,/imu_data_acquisition2,223130.0,0.180603027344,0.0405883789062,0.630676269531,0.753601074219,4.8125,-30.0,32.6875,-0.13,1.75,9.58
1541195157585536003,36,0,/imu_data_acquisition2,223140.0,0.182800292969,0.0384521484375,-6.103515625e-05,0.751342773438,7.8125,-29.6875,50.1875,-0.47,1.06,-0.01
1541195157598225116,37,0,/imu_data_acquisition2,223151.0,0.18505859375,0.0362548828125,0.635620117188,0.748596191406,3.6875,-31.6875,57.25,-0.68,0.68,9.35
1541195157608481884,38,0,/imu_data_acquisition2,223161.0,0.187133789062,0.0335083007812,0.638732910156,0.74560546875,-1.8125,-33.5625,62.625,-0.96,0.38,9.16
1541195157615344047,39,0,/imu_data_acquisition2,223170.0,0.189025878906,0.0303344726562,0.642150878906,0.742309570312,-7.5,-0.0625,-0.0625,-1.16,0.23,8.83
1541195157629549980,40,0,/imu_data_acquisition2,223181.0,0.190551757812,0.0266723632812,0.645751953125,0.738891601562,-13.25,-34.1875,68.4375,-0.92,0.69,9.08
1541195157637319087,41,0,/imu_data_acquisition2,223191.0,0.191772460938,0.022705078125,0.649475097656,0.735473632812,-20.625,-31.25,69.6875,-1.0,1.46,10.66
1541195157645919084,42,0,/imu_data_acquisition2,223200.0,0.192321777344,0.0184936523438,0.6533203125,0.731994628906,-31.9375,-25.9375,71.875,-1.03,1.82,11.84
1541195157660118103,43,0,/imu_data_acquisition2,223212.0,0.19189453125,0.0139770507812,0.657409667969,0.728576660156,-46.5625,-31.3125,76.25,-1.53,2.38,12.1
1541195157666297912,44,0,/imu_data_acquisition2,223220.0,0.190856933594,0.00823974609375,0.66162109375,0.72509765625,-46.5625,-31.3125,76.25,-2.05,-0.01,-0.01
1541195157674885034,45,0,/imu_data_acquisition2,223230.0,0.189697265625,0.00128173828125,0.665832519531,0.721618652344,-56.8125,-40.375,79.375,-2.67,3.72,9.46
1541195157689346075,46,0,/imu_data_acquisition2,223242.0,0.188537597656,-0.006591796875,0.670043945312,0.717956542969,-7.8125,-0.0625,-0.0625,-3.58,4.92,6.54
1541195157697509050,47,0,/imu_data_acquisition2,223251.0,0.187133789062,-0.0152587890625,0.67431640625,0.714172363281,-81.9375,-47.6875,91.375,-3.9,5.15,6.11
1541195157705804109,48,0,/imu_data_acquisition2,223261.0,0.184753417969,-0.0242309570312,0.678894042969,0.710144042969,-91.625,-36.875,97.5625,-5.37,5.11,5.87
1541195157717217922,49,0,/imu_data_acquisition2,223271.0,0.181213378906,-0.0332641601562,0.683959960938,0.705871582031,-91.625,-36.875,97.5625,-7.53,-0.99,2.26
1541195157725770950,50,0,/imu_data_acquisition2,223280.0,0.176025390625,-0.0420532226562,0.689453125,0.701354980469,-102.8125,-21.5625,102.9375,-21.23,-5.44,-17.53
1541195157736397027,51,0,/imu_data_acquisition2,223291.0,0.170532226562,-0.04736328125,0.694641113281,0.697265625,112.5,63.0625,-10.75,-28.33,26.21,-6.64
1541195157747173070,52,0,/imu_data_acquisition2,223301.0,0.173461914062,-0.036865234375,0.6953125,0.696472167969,290.125,173.3125,-148.9375,25.51,15.23,17.7
1541195157757519006,53,0,/imu_data_acquisition2,223311.0,0.180725097656,-0.0074462890625,0.689636230469,0.701171875,-38.8125,368.375,-87.5,-6.22,20.29,-17.24
1541195157766397953,54,0,/imu_data_acquisition2,223320.0,0.156921386719,0.013427734375,0.689697265625,0.706726074219,139.25,-248.1875,1.75,33.47,-2.0,-0.01
1541195157776638031,55,0,/imu_data_acquisition2,223331.0,0.1796875,0.0067138671875,0.686157226562,0.704895019531,139.25,-248.1875,1.75,-5.78,-17.48,39.63
1541195157786614894,56,0,/imu_data_acquisition2,223341.0,0.171752929688,-0.00714111328125,-6.103515625e-05,0.700744628906,52.6875,149.9375,-28.3125,7.76,17.87,-0.22
1541195157796628952,57,0,/imu_data_acquisition2,223351.0,0.166137695312,0.0052490234375,0.692810058594,0.70166015625,117.125,-3.25,-76.0,-3.0,0.93,21.89
1541195157808188915,58,0,/imu_data_acquisition2,223361.0,0.173217773438,0.012939453125,0.688171386719,0.704467773438,-69.25,74.4375,11.5,5.13,-4.81,2.43
1541195157817059040,59,0,/imu_data_acquisition2,223370.0,0.164733886719,0.01318359375,0.690002441406,0.704650878906,-69.25,74.4375,11.5,1.36,5.67,10.4
1541195157827891111,60,0,/imu_data_acquisition2,223381.0,0.163879394531,0.01611328125,0.688659667969,0.706176757812,14.25,28.75,-29.3125,1.33,0.22,-0.01
1541195157837905883,61,0,/imu_data_acquisition2,223391.0,0.163208007812,0.0209350585938,0.686706542969,0.708129882812,-14.75,-0.0625,-0.0625,1.47,1.09,10.73
1541195157847790956,62,0,/imu_data_acquisition2,223401.0,0.16064453125,0.0219116210938,0.686218261719,0.709106445312,7.625,19.875,-20.75,2.11,3.07,8.47
1541195157857428073,63,0,/imu_data_acquisition2,223412.0,0.159912109375,0.0238037109375,0.685241699219,0.710144042969,3.25,17.5,-12.8125,1.67,1.1,9.78
1541195157867609977,64,0,/imu_data_acquisition2,223420.0,0.159057617188,0.0252685546875,0.684692382812,0.710815429688,3.25,17.5,-12.8125,1.67,1.1,-0.01
1541195157887096881,65,0,/imu_data_acquisition2,223430.0,0.157958984375,0.0263061523438,0.684692382812,0.710998535156,-1.25,17.9375,-0.0625,2.04,1.92,9.45
1541195157888356924,66,0,/imu_data_acquisition2,223442.0,0.157531738281,0.0289306640625,0.684875488281,0.710876464844,10.5625,12.375,0.0625,2.1,-0.01,-0.01
1541195157898325920,67,0,/imu_data_acquisition2,223452.0,0.157531738281,0.0289306640625,0.684875488281,0.710876464844,8.25,9.8125,2.625,2.25,2.58,9.43
1541195157907624006,68,0,/imu_data_acquisition2,223462.0,0.157470703125,0.0299072265625,0.685119628906,0.710571289062,10.4375,7.25,1.3125,2.72,3.37,9.86
1541195157916683912,69,0,/imu_data_acquisition2,223471.0,0.157653808594,0.0309448242188,0.685302734375,0.710327148438,10.4375,7.25,1.3125,2.52,3.38,9.73
1541195157927407979,70,0,/imu_data_acquisition2,223481.0,0.157897949219,0.0315551757812,0.685424804688,0.710144042969,6.875,3.8125,1.5625,3.02,3.29,9.6
1541195157936660051,71,0,/imu_data_acquisition2,223491.0,0.15771484375,0.03173828125,0.685607910156,0.7099609375,-6.375,-0.125,2.8125,2.42,3.06,8.8
1541195157947274923,72,0,/imu_data_acquisition2,223502.0,0.157348632812,0.0313110351562,0.685791015625,0.709899902344,-9.6875,0.3125,2.3125,2.55,3.01,10.24
1541195157958823919,73,0,/imu_data_acquisition2,223512.0,0.15673828125,0.0307006835938,0.685974121094,0.709899902344,-13.0625,-1.4375,1.875,2.57,2.72,10.22
1541195157965929031,74,0,/imu_data_acquisition2,223520.0,0.156066894531,0.0298461914062,0.686096191406,0.7099609375,-13.0625,-1.4375,1.875,3.0,1.54,8.79
1541195157976588010,75,0,/imu_data_acquisition2,223530.0,0.155212402344,0.0291748046875,0.686218261719,0.710021972656,-12.4375,1.5625,0.9375,3.0,1.54,8.79
1541195157991760015,76,0,/imu_data_acquisition2,223541.0,0.154357910156,0.0284423828125,0.686340332031,0.710083007812,-13.1875,0.9375,1.9375,2.54,1.79,9.26
1541195157997550964,77,0,/imu_data_acquisition2,223552.0,0.15380859375,0.0282592773438,0.686401367188,0.710205078125,-8.1875,1.875,0.875,1.61,2.6,9.84
1541195158007817983,78,0,/imu_data_acquisition2,223562.0,0.153259277344,0.0278930664062,0.6865234375,0.710266113281,-3.25,3.8125,-0.8125,2.32,2.08,9.6
1541195158015599012,79,0,/imu_data_acquisition2,223570.0,-6.103515625e-05,-6.103515625e-05,-6.103515625e-05,0.710327148438,-3.25,3.8125,-0.8125,2.32,2.08,-0.01
1541195158031363964,80,0,/imu_data_acquisition2,223582.0,0.152526855469,0.0276489257812,0.6865234375,0.710388183594,-2.25,3.1875,-0.75,1.54,2.41,9.18
1541195158039799928,81,0,/imu_data_acquisition2,223594.0,0.152221679688,0.0277099609375,0.6865234375,0.71044921875,-1.5,3.25,0.125,2.13,2.3,9.91
1541195158053179979,82,0,/imu_data_acquisition2,223601.0,0.151916503906,0.02783203125,0.686584472656,0.71044921875,-1.5,3.25,0.125,1.8,2.21,-0.01
1541195158061326980,83,0,/imu_data_acquisition2,223614.0,0.151672363281,0.0277099609375,-6.103515625e-05,0.71044921875,-1.375,2.5,1.1875,1.56,-0.01,-0.01
1541195158067553043,84,0,/imu_data_acquisition2,223621.0,-6.103515625e-05,-6.103515625e-05,-6.103515625e-05,0.710388183594,-1.375,2.5,1.1875,1.56,2.45,9.56
1541195158074825048,85,0,/imu_data_acquisition2,223630.0,0.1513671875,0.0276489257812,-6.103515625e-05,0.710266113281,-1.8125,-0.375,2.6875,1.87,2.41,9.42
1541195158088960886,86,0,/imu_data_acquisition2,223643.0,0.151245117188,0.0275268554688,0.687072753906,0.710083007812,-1.0625,-0.875,2.3125,1.54,2.39,9.72
1541195158099069118,87,0,/imu_data_acquisition2,223652.0,0.151245117188,-6.103515625e-05,-6.103515625e-05,0.7099609375,-1.0625,-0.875,2.3125,1.79,2.48,9.2
1541195158108148097,88,0,/imu_data_acquisition2,223662.0,0.151306152344,0.027099609375,0.687316894531,0.709899902344,-2.75,-3.0,1.8125,1.46,2.62,9.58
1541195158117149114,89,0,/imu_data_acquisition2,223671.0,0.151306152344,0.0267333984375,0.687377929688,0.709838867188,-2.75,-3.0,1.8125,1.46,2.62,9.58
1541195158126422882,90,0,/imu_data_acquisition2,223680.0,0.151306152344,0.0262451171875,0.687438964844,0.709838867188,-3.5625,-3.5,1.375,1.81,2.45,-0.01
1541195158135109901,91,0,/imu_data_acquisition2,223690.0,0.151306152344,0.0258178710938,0.687438964844,0.709838867188,-3.8125,-3.4375,0.8125,1.76,2.49,9.5
1541195158153915882,92,0,/imu_data_acquisition2,223702.0,0.151245117188,0.0253295898438,0.687438964844,0.709838867188,-3.9375,-3.5,0.625,1.99,1.99,9.15
1541195158161734104,93,0,/imu_data_acquisition2,223713.0,0.151184082031,0.0248413085938,0.6875,0.709838867188,-1.8125,-3.0625,0.25,1.69,2.72,9.9
1541195158166940927,94,0,/imu_data_acquisition2,223722.0,0.151306152344,0.0245971679688,0.687438964844,0.709899902344,-1.8125,-3.0625,0.25,2.23,1.9,9.09
1541195158176898002,95,0,/imu_data_acquisition2,223731.0,-6.103515625e-05,-6.103515625e-05,-6.103515625e-05,0.709838867188,-3.5625,-3.875,1.5625,2.23,1.9,9.09
1541195158190943002,96,0,/imu_data_acquisition2,223742.0,0.151428222656,0.0238647460938,0.6875,0.709838867188,-1.25,-3.125,0.625,1.69,2.48,9.27
1541195158197779893,97,0,/imu_data_acquisition2,223752.0,0.151489257812,0.0235595703125,0.6875,0.709838867188,-1.375,-2.8125,0.875,1.69,2.3,9.62
1541195158208287954,98,0,/imu_data_acquisition2,223762.0,0.151489257812,0.0233154296875,0.687561035156,0.709777832031,-1.875,-2.25,1.25,1.79,2.53,9.52
1541195158214617967,99,0,/imu_data_acquisition2,223769.0,0.151489257812,0.0230712890625,0.687622070312,0.709716796875,-1.8125,-1.6875,1.0,1.79,2.53,9.52
1541195158225701093,100,0,/imu_data_acquisition2,223780.0,0.151428222656,0.0228881835938,0.687622070312,0.709716796875,-2.25,-1.1875,1.0,1.62,2.56,9.89
1541195158237426996,101,0,/imu_data_acquisition2,223790.0,0.151306152344,0.0225830078125,0.687683105469,0.709716796875,-3.25,-1.125,0.875,2.1,2.18,9.22
1541195158333466053,103,0,/imu_data_acquisition2,223812.0,0.151062011719,0.022216796875,0.687744140625,0.709716796875,-1.6875,0.625,0.4375,2.02,2.22,9.69
1541195158337192058,104,0,/imu_data_acquisition2,223822.0,0.15087890625,0.0220947265625,0.687866210938,0.709655761719,-2.75,0.6875,1.1875,2.02,2.22,9.69
1541195158338414907,105,0,/imu_data_acquisition2,223829.0,0.150756835938,0.0220336914062,0.687927246094,0.709655761719,-1.8125,0.6875,0.875,1.96,2.23,9.32
1541195158339934110,106,0,/imu_data_acquisition2,223839.0,-6.103515625e-05,-6.103515625e-05,-6.103515625e-05,0.709594726562,-1.3125,0.9375,0.9375,1.83,2.29,9.64
1541195158342360973,107,0,/imu_data_acquisition2,223852.0,0.150329589844,0.0218505859375,0.688110351562,0.709533691406,-1.75,1.8125,1.375,1.93,2.31,9.55
1541195158343735933,108,0,/imu_data_acquisition2,223862.0,0.150268554688,0.0217895507812,0.688171386719,0.70947265625,0.125,1.375,0.625,1.93,2.31,9.55
1541195158346479892,109,0,/imu_data_acquisition2,223869.0,0.150146484375,0.0219116210938,0.688293457031,0.709411621094,-0.1875,2.125,1.0,1.78,2.38,9.3
1541195158349070072,110,0,/imu_data_acquisition2,223879.0,0.150085449219,0.0219116210938,0.688354492188,0.709350585938,-0.25,1.3125,1.125,1.66,2.21,9.35
1541195158352830886,111,0,/imu_data_acquisition2,223889.0,0.150024414062,0.0220947265625,0.688354492188,0.709350585938,1.3125,1.875,0.125,1.71,2.31,9.74
1541195158354301929,112,0,/imu_data_acquisition2,223905.0,0.150024414062,0.022216796875,0.688415527344,0.709289550781,1.4375,0.8125,0.625,1.82,2.21,9.38
1541195158357759952,113,0,/imu_data_acquisition2,223912.0,0.150024414062,0.0222778320312,0.688537597656,0.709167480469,1.375,1.25,1.0,1.77,2.19,9.56
1541195158370296955,114,0,/imu_data_acquisition2,223924.0,-6.103515625e-05,-6.103515625e-05,-6.103515625e-05,0.709106445312,3.5,0.875,0.8125,1.63,2.53,9.36
1541195158377568006,115,0,/imu_data_acquisition2,223931.0,0.150329589844,0.0223999023438,0.688659667969,0.708984375,3.5,0.875,0.8125,1.63,2.53,9.36
1541195158388045072,116,0,/imu_data_acquisition2,223940.0,0.150390625,0.0223999023438,0.688781738281,0.708862304688,0.8125,0.1875,2.0,1.91,2.31,9.32
1541195158398466110,117,0,/imu_data_acquisition2,223953.0,0.150573730469,0.0225830078125,0.688842773438,0.708740234375,3.0625,0.0,1.4375,1.89,2.1,9.56
1541195158410058975,118,0,/imu_data_acquisition2,223963.0,0.150573730469,0.0225219726562,0.689025878906,0.708557128906,0.4375,-0.25,2.6875,1.88,2.42,9.28
1541195158414527893,119,0,/imu_data_acquisition2,223969.0,0.150817871094,0.0226440429688,0.689086914062,0.70849609375,3.25,-1.25,1.125,1.88,-0.01,-0.01
1541195158427153110,120,0,/imu_data_acquisition2,223980.0,0.150939941406,0.0226440429688,0.689147949219,0.708374023438,1.4375,-0.125,1.375,1.8,2.09,-0.01
1541195158435416936,121,0,/imu_data_acquisition2,223989.0,-6.103515625e-05,-6.103515625e-05,-6.103515625e-05,0.708312988281,5.8125,1.1875,-0.1875,1.62,3.14,9.5
1541195158448290109,122,0,/imu_data_acquisition2,224003.0,0.1513671875,0.0234375,0.689208984375,0.708190917969,4.0,1.6875,0.6875,2.19,1.77,9.77
1541195158459300994,123,0,/imu_data_acquisition2,224013.0,0.151123046875,0.0234985351562,0.689392089844,0.708068847656,-1.25,3.375,2.1875,1.72,2.29,9.98
1541195158465713977,124,0,/imu_data_acquisition2,224020.0,0.151000976562,0.0237426757812,0.689453125,0.7080078125,0.6875,2.75,0.8125,1.72,2.29,9.98
1541195158476640939,125,0,/imu_data_acquisition2,224031.0,0.150817871094,0.0237426757812,0.689575195312,0.707946777344,-1.4375,1.6875,1.4375,2.2,1.79,10.14
1541195158488821029,126,0,/imu_data_acquisition2,224042.0,0.150817871094,0.02392578125,0.689575195312,0.707946777344,1.8125,1.75,0.1875,1.99,2.29,9.63
1541195158498913049,127,0,/imu_data_acquisition2,224053.0,0.150695800781,0.0240478515625,0.689697265625,0.707824707031,0.5,2.5,1.1875,2.15,2.01,9.64
1541195158508821964,128,0,/imu_data_acquisition2,224063.0,0.150451660156,0.0241088867188,0.689819335938,0.707763671875,-1.4375,2.3125,1.875,1.2,3.04,9.83
1541195158515122890,129,0,/imu_data_acquisition2,224069.0,0.150329589844,0.0242919921875,0.68994140625,0.707702636719,0.875,2.875,0.875,1.2,3.04,-0.01
1541195158529778003,130,0,/imu_data_acquisition2,224080.0,0.14990234375,0.0242919921875,0.690185546875,0.70751953125,-3.8125,3.8125,3.3125,2.35,1.59,9.29
1541195158538100004,131,0,/imu_data_acquisition2,224092.0,0.149719238281,0.0244750976562,0.690307617188,0.707458496094,0.25,3.5625,1.1875,2.2,2.78,-0.01
1541195158555207014,132,0,/imu_data_acquisition2,224103.0,0.149230957031,0.0245971679688,0.690490722656,0.707336425781,-2.625,5.0,2.375,2.21,2.17,9.08
1541195158559609889,133,0,/imu_data_acquisition2,224113.0,-6.103515625e-05,-6.103515625e-05,-6.103515625e-05,0.707214355469,-2.1875,4.25,2.3125,3.4,-0.01,-0.01
1541195158566592931,134,0,/imu_data_acquisition2,224121.0,0.148498535156,0.025146484375,0.690856933594,0.707153320312,1.0625,7.0625,0.6875,2.42,2.53,9.89
1541195158576611995,135,0,/imu_data_acquisition2,224130.0,0.148132324219,0.0255737304688,0.690979003906,0.707092285156,0.0,6.4375,1.0625,2.82,2.75,8.8
1541195158588038921,136,0,/imu_data_acquisition2,224142.0,0.1474609375,0.0256958007812,0.691223144531,0.706970214844,-4.25,7.5625,2.625,3.07,2.33,8.82
1541195158598521947,137,0,/imu_data_acquisition2,224153.0,0.146667480469,0.02587890625,0.691528320312,0.706848144531,-4.9375,8.25,2.75,2.79,1.93,-0.01
1541195158607964038,138,0,/imu_data_acquisition2,224163.0,0.145751953125,0.0259399414062,0.69189453125,0.706665039062,-7.125,8.8125,3.625,2.79,1.93,9.32
1541195158618762969,139,0,/imu_data_acquisition2,224171.0,0.144958496094,0.0260009765625,0.692199707031,0.706481933594,-6.25,7.6875,4.0,2.74,2.3,9.43
1541195158628246068,140,0,/imu_data_acquisition2,224180.0,0.144287109375,0.0260009765625,0.692443847656,0.706420898438,-5.125,-0.0625,-0.0625,3.09,2.41,9.35
1541195158635384082,141,0,/imu_data_acquisition2,224190.0,0.143432617188,0.0258178710938,0.692810058594,0.706237792969,-8.5,6.3125,4.875,3.35,2.02,9.32
1541195158649637937,142,0,/imu_data_acquisition2,224204.0,0.142578125,0.0258178710938,0.693115234375,0.706115722656,-7.1875,7.5625,3.5,3.51,2.06,9.16
1541195158659496068,143,0,/imu_data_acquisition2,224213.0,0.141540527344,0.0258178710938,0.693603515625,0.705871582031,-8.5,8.9375,5.25,3.51,-0.01,-0.01
1541195158665548086,144,0,/imu_data_acquisition2,224220.0,0.14013671875,0.026123046875,0.694152832031,0.705627441406,-8.5625,14.9375,5.8125,3.71,1.84,-0.01
1541195158679804086,145,0,/imu_data_acquisition2,224232.0,0.138854980469,0.0267944335938,0.694580078125,0.705383300781,-5.3125,17.0625,3.875,3.11,2.11,9.73
1541195158688141107,146,0,/imu_data_acquisition2,224243.0,0.137634277344,0.0275268554688,0.694885253906,0.705322265625,-3.625,16.6875,1.5625,3.06,1.87,9.35
1541195158700871944,147,0,/imu_data_acquisition2,224254.0,0.136535644531,0.0286254882812,0.695068359375,0.705261230469,0.3125,18.6875,0.0625,2.69,2.17,9.48
1541195158710293054,148,0,/imu_data_acquisition2,224264.0,0.135314941406,0.0299072265625,0.6953125,0.705200195312,0.1875,21.4375,0.3125,3.69,2.09,9.09
1541195158718310117,149,0,/imu_data_acquisition2,224270.0,0.133911132812,0.0317993164062,0.695617675781,0.705078125,3.5625,27.4375,-0.5625,3.69,2.09,9.09
1541195158726685047,150,0,/imu_data_acquisition2,224280.0,0.131958007812,0.0343017578125,0.696044921875,0.704956054688,4.875,37.4375,0.125,3.39,2.04,9.17
1541195158737957954,151,0,/imu_data_acquisition2,224291.0,0.129577636719,0.037841796875,0.696472167969,0.704772949219,9.3125,50.5,-1.625,3.27,2.0,9.44
1541195158750225067,152,0,/imu_data_acquisition2,224305.0,0.126647949219,0.0427856445312,0.69677734375,0.704711914062,16.375,65.3125,-5.75,5.38,2.52,9.04
1541195158758076906,153,0,/imu_data_acquisition2,224311.0,0.122314453125,0.0492553710938,-6.103515625e-05,0.704772949219,16.875,89.875,-9.75,5.38,2.52,9.04
1541195158767263889,154,0,/imu_data_acquisition2,224321.0,0.115539550781,0.0586547851562,-6.103515625e-05,0.704956054688,20.3125,134.8125,-17.125,5.09,2.52,9.5
1541195158779460906,155,0,/imu_data_acquisition2,224333.0,0.10595703125,-6.103515625e-05,-6.103515625e-05,0.705322265625,24.5,185.0,-26.8125,3.57,2.98,10.07
1541195158784879922,156,0,/imu_data_acquisition2,224339.0,0.0945434570312,0.0867919921875,0.697021484375,0.705444335938,32.125,222.6875,-32.375,3.64,3.62,10.87
1541195158798923969,157,0,/imu_data_acquisition2,224353.0,0.08154296875,0.1044921875,0.696655273438,0.705078125,38.625,254.875,-33.3125,3.91,5.1,11.01
1541195158810101985,158,0,/imu_data_acquisition2,224364.0,0.0655517578125,0.122863769531,0.696960449219,0.703430175781,18.875,288.25,-21.5,3.34,4.65,11.26
1541195158815131902,159,0,/imu_data_acquisition2,224370.0,0.04736328125,0.1416015625,-6.103515625e-05,0.700561523438,3.8125,310.6875,-10.5,1.17,4.88,11.1
1541195158825962066,160,0,/imu_data_acquisition2,224380.0,0.0277099609375,0.15966796875,0.699401855469,0.696105957031,-13.25,320.5625,7.125,1.65,3.27,13.86
1541195158840941905,161,0,/imu_data_acquisition2,224392.0,0.0106811523438,0.178771972656,0.700500488281,0.690856933594,16.875,309.0625,13.875,9.03,2.3,16.08
1541195158848027944,162,0,/imu_data_acquisition2,224403.0,0.00360107421875,0.200561523438,0.698425292969,0.68701171875,128.375,245.0,-2.4375,9.65,22.35,18.72
1541195158869003057,164,0,/imu_data_acquisition2,224420.0,0.0057373046875,0.219299316406,0.707763671875,0.671508789062,7.6875,-0.0625,-0.0625,13.85,2.56,5.96
1541195158876626014,165,0,/imu_data_acquisition2,224431.0,-6.103515625e-05,-6.103515625e-05,-6.103515625e-05,0.661010742188,56.375,22.5,167.125,8.77,5.04,9.82
1541195158887715101,166,0,/imu_data_acquisition2,224440.0,0.01708984375,0.227355957031,0.72509765625,0.649841308594,58.1875,4.0,181.375,8.21,0.28,9.72
1541195158898886919,167,0,/imu_data_acquisition2,224452.0,0.0244140625,-6.103515625e-05,-6.103515625e-05,0.638671875,60.5625,-8.0,182.1875,7.16,-0.29,11.4
1541195158912523031,168,0,/imu_data_acquisition2,224464.0,0.0331420898438,0.231079101562,-6.103515625e-05,0.628112792969,51.6875,-0.0625,-0.0625,6.59,-1.8,11.38
1541195158917845964,169,0,/imu_data_acquisition2,224470.0,0.04248046875,0.229370117188,0.750244140625,0.61865234375,36.4375,-65.6875,169.0,5.29,-4.84,10.47
1541195158925595998,170,0,/imu_data_acquisition2,224479.0,0.0523071289062,0.226196289062,0.756958007812,0.61083984375,29.6875,-86.5,146.6875,4.79,-4.69,9.99
1541195158935664892,171,0,/imu_data_acquisition2,224490.0,0.0618286132812,0.221069335938,0.762817382812,0.6044921875,10.75,-0.0625,-0.0625,4.25,-4.92,9.97
1541195158948884963,172,0,/imu_data_acquisition2,224502.0,0.0704956054688,0.214111328125,0.767822265625,0.599731445312,-9.9375,-112.1875,107.125,3.3,-4.98,10.8
1541195158956039905,173,0,/imu_data_acquisition2,224509.0,0.0787353515625,0.205688476562,0.771728515625,0.596618652344,-25.375,-123.25,83.75,2.8,-4.33,11.38
1541195158966819047,174,0,/imu_data_acquisition2,224521.0,0.0867309570312,0.196044921875,0.774475097656,0.595153808594,-36.875,-135.1875,61.0,2.26,-3.26,11.29
1541195158976685047,175,0,/imu_data_acquisition2,224529.0,0.09423828125,0.184936523438,0.7763671875,0.595153808594,-5.0,-0.0625,-0.0625,1.7,-3.06,10.99
1541195158986208915,176,0,/imu_data_acquisition2,224541.0,0.101440429688,0.173156738281,0.777099609375,0.596496582031,-61.125,-151.5,21.625,0.86,-1.96,10.75
1541195158997862100,177,0,/imu_data_acquisition2,224552.0,0.108215332031,0.161010742188,0.776733398438,0.599182128906,-66.0625,-153.9375,1.375,0.38,-1.15,11.62
1541195159008985996,178,0,/imu_data_acquisition2,224563.0,0.11474609375,0.148498535156,0.775390625,0.602966308594,-71.4375,-157.625,-15.4375,0.0,-0.59,12.16
1541195159017373085,179,0,/imu_data_acquisition2,224571.0,0.121276855469,0.1357421875,0.773071289062,0.607604980469,-72.5,-162.375,-30.875,-0.81,0.63,12.67
1541195159025875091,180,0,/imu_data_acquisition2,224580.0,0.1279296875,0.123168945312,0.769836425781,0.613037109375,-70.0,-164.75,-43.9375,-1.27,-0.01,-0.01
1541195159036709070,181,0,/imu_data_acquisition2,224590.0,0.134704589844,0.11083984375,0.765808105469,0.618896484375,-65.8125,-165.8125,-54.1875,-1.75,1.78,12.72
1541195159047070026,182,0,/imu_data_acquisition2,224601.0,0.141662597656,0.0989379882812,-6.103515625e-05,0.625061035156,-60.5625,-165.375,-61.0625,-2.87,2.22,11.78
1541195159057861089,183,0,/imu_data_acquisition2,224612.0,0.148498535156,0.0875244140625,0.756225585938,0.631164550781,-56.6875,-161.75,-65.4375,-3.51,2.11,11.74
1541195159067956924,184,0,/imu_data_acquisition2,224620.0,0.155334472656,0.0769653320312,0.750854492188,0.637329101562,-49.25,-155.9375,-69.75,-3.98,2.38,11.43
1541195159075371980,185,0,/imu_data_acquisition2,224630.0,0.16162109375,0.0669555664062,0.745239257812,0.643432617188,-46.9375,-147.5,-71.8125,-4.66,1.6,10.71
1541195159087599039,186,0,/imu_data_acquisition2,224641.0,0.16748046875,0.057861328125,0.739440917969,0.649475097656,-42.625,-136.625,-75.3125,-4.77,1.77,10.3
1541195159098351955,187,0,/imu_data_acquisition2,224649.0,0.172729492188,0.0497436523438,0.733581542969,0.655395507812,-38.5625,-124.375,-77.6875,-4.65,2.11,10.04
1541195159112348079,188,0,/imu_data_acquisition2,224665.0,0.177185058594,0.0424194335938,0.727783203125,0.661193847656,-37.625,-110.875,-77.375,-4.34,2.55,10.1
1541195159119280099,189,0,/imu_data_acquisition2,224671.0,0.180725097656,0.0355834960938,0.722290039062,0.666625976562,-39.8125,-97.625,-73.5,-4.01,3.47,10.65
1541195159124597072,190,0,/imu_data_acquisition2,224679.0,0.183532714844,0.0289916992188,0.71728515625,0.671569824219,-42.5625,-88.9375,-66.875,-0.94,-0.01,-0.01
1541195159136802911,191,0,/imu_data_acquisition2,224691.0,0.185607910156,0.0228271484375,0.712707519531,0.676025390625,-44.0625,-77.8125,-60.125,-3.41,3.58,9.63
1541195159150593042,192,0,/imu_data_acquisition2,224705.0,0.187072753906,0.0172119140625,0.708740234375,0.679992675781,-43.6875,-67.3125,-52.25,-2.61,3.9,8.78
1541195159154416084,193,0,/imu_data_acquisition2,224709.0,0.187744140625,-6.103515625e-05,-6.103515625e-05,0.683349609375,-44.8125,-56.25,-43.125,-2.13,4.07,8.76
1541195159166270971,194,0,/imu_data_acquisition2,224720.0,0.188171386719,0.0074462890625,0.70263671875,0.686157226562,-40.25,-14.3125,-0.0625,-1.8,4.7,8.96
1541195159176755905,195,0,/imu_data_acquisition2,224730.0,0.188110351562,0.00335693359375,0.700561523438,0.688354492188,-39.0625,-38.0,-26.25,-1.04,4.56,8.84
1541195159184650897,196,0,/imu_data_acquisition2,224739.0,0.187866210938,-0.000244140625,0.699035644531,0.690002441406,-35.375,-30.375,-18.0,-0.61,4.86,8.47
1541195159197134017,197,0,/imu_data_acquisition2,224750.0,0.187377929688,-0.00335693359375,0.698059082031,0.691101074219,-32.4375,-23.375,-9.625,-0.4,4.55,8.57
1541195159205163002,198,0,/imu_data_acquisition2,224760.0,0.186889648438,-0.0059814453125,0.697631835938,0.691650390625,-26.875,-18.5625,-2.25,-0.18,4.6,8.85
1541195159216332912,199,0,/imu_data_acquisition2,224770.0,0.1865234375,-0.0081787109375,0.697631835938,0.691711425781,-20.75,-14.9375,4.25,0.24,4.59,-0.01
1541195159231097936,200,0,/imu_data_acquisition2,224781.0,0.186462402344,-0.0100708007812,0.698059082031,0.691284179688,-15.375,-14.1875,11.0625,0.4,4.56,9.05
1541195159236974954,201,0,/imu_data_acquisition2,224790.0,0.186645507812,-0.0118408203125,-6.103515625e-05,0.6904296875,-11.5,-14.1875,17.625,0.43,4.25,8.81
1541195159247339010,202,0,/imu_data_acquisition2,224801.0,0.186828613281,-0.0134887695312,-6.103515625e-05,0.689147949219,-8.6875,-12.625,23.3125,0.51,3.6,8.13
1541195159258347988,203,0,/imu_data_acquisition2,224810.0,0.18701171875,-0.014892578125,0.701416015625,0.687622070312,-6.75,-10.0625,27.4375,0.48,3.39,8.36
1541195159267838954,204,0,/imu_data_acquisition2,224820.0,0.187255859375,-0.0162353515625,0.703063964844,0.685852050781,-4.9375,-9.5,30.75,0.65,3.28,8.34
1541195159324163913,205,0,/imu_data_acquisition2,224830.0,0.187255859375,-0.017578125,0.704833984375,0.683959960938,-6.375,-7.5625,33.5,0.64,2.86,-0.01
1541195159328027963,206,0,/imu_data_acquisition2,224841.0,0.187316894531,-0.01904296875,0.706787109375,0.681945800781,-7.3125,-8.4375,35.4375,0.81,2.6,8.89
1541195159329519033,207,0,/imu_data_acquisition2,224850.0,0.187316894531,-0.0205078125,0.708618164062,0.679992675781,-7.4375,-8.25,34.6875,0.68,2.62,9.16
1541195159331517934,208,0,/imu_data_acquisition2,224860.0,0.187377929688,-0.0220947265625,0.710388183594,0.678039550781,-8.0,-9.375,33.625,0.59,2.84,9.39
1541195159332725048,209,0,/imu_data_acquisition2,224871.0,0.187438964844,-0.0238037109375,0.712097167969,0.676208496094,-9.4375,-11.125,33.3125,0.51,2.76,9.45
1541195159334681034,210,0,/imu_data_acquisition2,224879.0,0.187438964844,-0.0257568359375,0.713684082031,0.674377441406,-11.4375,-12.625,32.125,0.38,2.81,9.64
1541195159337183952,211,0,/imu_data_acquisition2,224889.0,0.1875,-0.02783203125,0.715209960938,0.672729492188,-13.125,-14.4375,30.5,0.31,3.01,9.33
1541195159344336986,212,0,/imu_data_acquisition2,224899.0,0.187194824219,-0.0301513671875,0.716613769531,0.671203613281,-17.9375,-12.9375,29.0625,-0.27,2.98,9.46
1541195159354892015,213,0,/imu_data_acquisition2,224909.0,0.186706542969,-0.0325317382812,0.717834472656,0.669921875,-21.1875,-12.375,26.1875,-0.4,2.91,9.14
1541195159367503881,214,0,/imu_data_acquisition2,224921.0,0.185729980469,-0.0350952148438,0.718872070312,0.6689453125,-26.75,-10.0,22.8125,-0.87,2.79,9.19
1541195159374805927,215,0,/imu_data_acquisition2,224929.0,-6.103515625e-05,-6.103515625e-05,-6.103515625e-05,0.668334960938,-31.6875,-8.0625,17.75,-1.52,2.92,9.39
1541195159386394023,216,0,/imu_data_acquisition2,224940.0,0.1826171875,-0.04052734375,0.720092773438,0.668151855469,-36.9375,-6.0,11.6875,-2.02,2.86,9.55
1541195159395960092,217,0,/imu_data_acquisition2,224950.0,0.180358886719,-0.0435180664062,0.72021484375,0.66845703125,-43.75,-4.25,5.9375,-3.43,1.45,8.15
1541195159405313968,218,0,/imu_data_acquisition2,224960.0,0.178283691406,-0.0451049804688,0.719543457031,0.669677734375,-32.9375,3.875,-10.875,-4.93,3.32,8.17
1541195159417474985,219,0,/imu_data_acquisition2,224971.0,0.177734375,-0.044189453125,0.717651367188,0.671875,-2.0625,9.5625,-35.9375,-11.95,4.32,4.35
1541195159427350997,220,0,/imu_data_acquisition2,224981.0,0.176940917969,-0.0418701171875,0.715881347656,0.674133300781,7.3125,22.625,-37.125,-11.01,1.18,-8.4
1541195159435426950,221,0,/imu_data_acquisition2,224990.0,0.17724609375,-0.0283813476562,0.713317871094,0.677490234375,108.25,101.25,-77.75,-16.57,11.8,-0.37
1541195159446129083,222,0,/imu_data_acquisition2,225000.0,0.168212890625,-0.0158081054688,0.712707519531,0.680786132812,27.1875,177.1875,-56.0,12.99,-16.82,39.83
1541195159455674886,223,0,/imu_data_acquisition2,225010.0,0.162536621094,0.0023193359375,0.710876464844,0.684265136719,99.6875,191.0625,-79.1875,-20.87,25.48,32.27
1541195159464806079,224,0,/imu_data_acquisition2,225020.0,0.186157226562,0.00775146484375,0.704711914062,0.684631347656,236.625,-0.0625,-0.0625,10.92,20.54,-34.92
1541195159476882934,225,0,/imu_data_acquisition2,225030.0,0.175537109375,0.00579833984375,0.709594726562,0.682373046875,-98.1875,83.375,61.5625,-4.68,-4.91,30.51
1541195159485788106,226,0,/imu_data_acquisition2,225039.0,0.17578125,0.0105590820312,0.709594726562,0.682250976562,42.5,36.8125,-8.9375,7.86,9.24,-5.18
1541195159496798038,227,0,/imu_data_acquisition2,225051.0,0.176574707031,0.0156860351562,0.708984375,0.682556152344,48.5,32.875,-17.875,2.82,8.01,12.8
1541195159506535053,228,0,/imu_data_acquisition2,225061.0,0.172424316406,0.0167236328125,0.710571289062,0.681945800781,-23.5625,46.5625,15.1875,3.14,1.28,6.31
1541195159515450954,229,0,/imu_data_acquisition2,225069.0,0.17138671875,0.0187377929688,0.710876464844,0.681884765625,8.75,25.75,-0.0625,1.57,4.15,11.14
1541195159524997949,230,0,/imu_data_acquisition2,225080.0,0.169921875,0.0211791992188,0.710876464844,0.682189941406,8.125,32.0625,-7.625,1.9,3.92,10.8
1541195159536158084,231,0,/imu_data_acquisition2,225091.0,0.168762207031,0.02197265625,0.710876464844,0.682434082031,-2.8125,15.8125,-3.6875,1.94,2.85,9.28
1541195159545265913,232,0,/imu_data_acquisition2,225099.0,0.167114257812,0.0223999023438,0.710998535156,0.682678222656,-10.1875,17.5625,-2.25,2.32,2.21,9.82
1541195159556097030,233,0,/imu_data_acquisition2,225111.0,0.16552734375,0.022705078125,0.711120605469,0.682983398438,-11.1875,15.5,-2.8125,2.66,2.05,9.55
1541195159566798925,234,0,/imu_data_acquisition2,225121.0,0.164367675781,0.02294921875,0.711059570312,0.683288574219,-7.8125,11.6875,-3.6875,2.59,-0.01,-0.01
1541195159578126907,235,0,/imu_data_acquisition2,225130.0,0.163146972656,0.0233764648438,-6.103515625e-05,0.683471679688,-6.875,13.6875,-2.3125,2.08,1.75,-0.01
1541195159586175918,236,0,/imu_data_acquisition2,225140.0,0.162292480469,0.023681640625,0.711242675781,0.683532714844,-4.625,10.3125,-0.75,2.17,2.1,9.36
1541195159596939086,237,0,/imu_data_acquisition2,225151.0,0.161743164062,0.0242309570312,0.711364746094,0.683532714844,-0.4375,9.125,0.125,2.02,2.21,9.81
1541195159613782882,238,0,/imu_data_acquisition2,225167.0,0.161315917969,0.0245361328125,0.711608886719,0.683349609375,-0.375,6.4375,2.6875,2.42,2.2,9.63
1541195159617691993,239,0,/imu_data_acquisition2,225173.0,0.161071777344,0.0247192382812,-6.103515625e-05,0.68310546875,0.0,4.1875,4.1875,2.37,2.37,9.28
1541195159629808902,240,0,/imu_data_acquisition2,225180.0,0.160888671875,0.02490234375,0.712219238281,0.682800292969,0.625,3.875,4.4375,2.3,2.66,9.64
1541195159639903068,241,0,/imu_data_acquisition2,225194.0,0.160766601562,0.0248413085938,0.712524414062,0.682556152344,-1.375,1.4375,4.5,2.44,2.46,9.45
1541195159647272109,242,0,/imu_data_acquisition2,225201.0,0.160522460938,0.0244140625,-6.103515625e-05,0.682312011719,-5.375,-1.25,5.3125,2.33,2.62,9.35
1541195159656516075,243,0,/imu_data_acquisition2,225210.0,0.160217285156,-6.103515625e-05,-6.103515625e-05,0.68212890625,-6.4375,-0.8125,4.0625,2.42,2.36,9.51
1541195159665122032,244,0,/imu_data_acquisition2,225220.0,0.159973144531,0.0231323242188,-6.103515625e-05,0.682067871094,-8.3125,-3.9375,3.125,2.53,2.61,9.42
1541195159677340984,245,0,/imu_data_acquisition2,225231.0,0.159790039062,0.0219116210938,0.713317871094,0.682006835938,-11.3125,-5.8125,3.5,2.3,-0.01,-0.01
1541195159686067104,246,0,/imu_data_acquisition2,225239.0,0.159484863281,0.020751953125,0.713439941406,0.682006835938,-12.0,-5.3125,2.6875,2.07,2.4,9.33
1541195159695651054,247,0,/imu_data_acquisition2,225250.0,0.1591796875,0.0194091796875,0.713500976562,0.682067871094,-13.75,-8.5,2.6875,1.86,2.4,9.98
1541195159707761049,248,0,/imu_data_acquisition2,225260.0,0.158996582031,0.0177001953125,0.713562011719,0.682067871094,-15.8125,-11.9375,3.6875,2.13,2.28,9.86
1541195159716965913,249,0,/imu_data_acquisition2,225269.0,0.158935546875,0.0160522460938,0.713684082031,0.682006835938,-15.0625,-12.4375,4.125,3.12,1.79,8.82
1541195159727070093,250,0,/imu_data_acquisition2,225280.0,0.159118652344,0.0143432617188,0.713745117188,0.681945800781,-12.5,-15.0625,4.375,3.66,2.06,8.68
1541195159740665912,251,0,/imu_data_acquisition2,225290.0,0.159301757812,0.013427734375,0.713745117188,0.681945800781,-6.0,-9.3125,1.875,3.64,1.82,8.57
1541195159744847059,252,0,/imu_data_acquisition2,225300.0,0.158996582031,0.01318359375,0.713806152344,0.681884765625,-4.5,0.625,1.1875,3.22,1.57,8.77
1541195159758953094,253,0,/imu_data_acquisition2,225311.0,0.158447265625,0.0137329101562,0.7138671875,0.681945800781,0.0,9.5625,-1.25,2.98,1.97,9.6
1541195159767337083,254,0,/imu_data_acquisition2,225320.0,0.157836914062,0.0145263671875,0.713928222656,0.682006835938,1.6875,11.3125,-1.25,2.32,2.35,9.92
1541195159774400949,255,0,/imu_data_acquisition2,225329.0,0.157104492188,-6.103515625e-05,-6.103515625e-05,0.682067871094,2.8125,14.875,-1.8125,2.43,2.25,10.25
1541195159786429882,256,0,/imu_data_acquisition2,225340.0,0.156555175781,0.0161743164062,0.714111328125,0.68212890625,0.75,9.6875,-1.1875,2.86,1.9,8.74
1541195159796644926,257,0,/imu_data_acquisition2,225350.0,0.156127929688,0.0169677734375,0.714050292969,0.682250976562,2.75,-0.0625,-0.0625,2.07,2.85,10.66
1541195159804723978,258,0,/imu_data_acquisition2,225360.0,0.155700683594,0.01708984375,0.714111328125,0.682312011719,-2.375,4.625,-0.625,2.2,-0.01,-0.01
1541195159816147089,259,0,/imu_data_acquisition2,225370.0,0.1552734375,0.0172729492188,0.714111328125,0.682373046875,-2.25,5.0,-0.875,2.45,-0.01,-0.01
1541195159825931072,260,0,/imu_data_acquisition2,225380.0,0.154907226562,0.0172729492188,0.714172363281,0.682434082031,-2.5,3.3125,-0.25,2.1,2.16,9.63
1541195159835005044,261,0,/imu_data_acquisition2,225390.0,0.154602050781,0.0173950195312,0.714172363281,0.682434082031,-1.8125,3.25,-0.125,2.53,2.04,-0.01
1541195159848678112,262,0,/imu_data_acquisition2,225402.0,0.154296875,0.0174560546875,0.714233398438,0.682434082031,-1.875,3.125,0.5,2.08,2.19,9.1
1541195159855869054,263,0,/imu_data_acquisition2,225410.0,0.153991699219,0.0177612304688,0.714294433594,0.682434082031,-0.25,5.0,0.0625,2.01,2.29,9.84
1541195159865408897,264,0,/imu_data_acquisition2,225420.0,0.153747558594,0.0178833007812,0.71435546875,0.682434082031,-0.9375,3.25,0.25,1.98,2.34,-0.01
1541195159876243114,265,0,/imu_data_acquisition2,225430.0,0.153503417969,0.0181274414062,0.714416503906,0.682434082031,-0.0625,3.875,-0.1875,2.06,2.17,9.49
1541195159885833978,266,0,/imu_data_acquisition2,225440.0,0.153503417969,0.0181274414062,0.714416503906,0.682434082031,-0.75,2.9375,-0.125,2.03,2.35,9.59
1541195159895196914,267,0,/imu_data_acquisition2,225450.0,-6.103515625e-05,-6.103515625e-05,-6.103515625e-05,0.682434082031,-1.0,2.0625,-0.4375,2.15,2.26,9.44
1541195159906431913,268,0,/imu_data_acquisition2,225460.0,0.152954101562,0.0182495117188,0.714477539062,0.682495117188,-1.25,1.375,-0.4375,1.92,2.3,9.61
1541195159916490077,269,0,/imu_data_acquisition2,225470.0,0.152954101562,0.0182495117188,0.714477539062,0.682495117188,-1.8125,0.0,-0.25,2.03,2.21,9.4
1541195159925425052,270,0,/imu_data_acquisition2,225480.0,0.152893066406,0.0181274414062,0.714477539062,0.682495117188,-2.375,0.0625,-0.1875,1.9,2.21,-0.01
1541195159937266111,271,0,/imu_data_acquisition2,225491.0,0.152709960938,0.0179443359375,0.714477539062,0.682556152344,-1.75,-0.3125,-0.25,2.24,1.92,8.92
1541195159946409940,272,0,/imu_data_acquisition2,225500.0,0.152648925781,0.0178833007812,0.714477539062,0.682556152344,-3.0625,-1.375,0.5,1.27,2.56,9.89
1541195159956563949,273,0,/imu_data_acquisition2,225511.0,0.152526855469,0.017578125,0.714477539062,0.6826171875,-1.375,0.75,-0.0625,2.22,2.02,9.25
1541195159965423107,274,0,/imu_data_acquisition2,225520.0,0.152404785156,0.017578125,0.714477539062,0.6826171875,-1.9375,-0.75,0.375,2.26,2.23,9.69
1541195159977366924,275,0,/imu_data_acquisition2,225531.0,0.15234375,0.0173950195312,0.714477539062,0.6826171875,-2.3125,0.0,0.875,1.89,2.04,9.14
1541195159987930059,276,0,/imu_data_acquisition2,225542.0,0.151977539062,0.0172119140625,0.714599609375,0.682556152344,-1.0,2.0625,0.75,2.23,-0.01,-0.01
1541195159998158931,277,0,/imu_data_acquisition2,225550.0,0.151977539062,0.0172119140625,0.714599609375,0.682556152344,-1.25,-0.0625,1.0,1.39,2.42,9.16
1541195160009639978,278,0,/imu_data_acquisition2,225563.0,0.151794433594,0.0173950195312,0.714721679688,0.682495117188,1.0,3.0,0.25,2.03,2.23,10.36
1541195160017513990,279,0,/imu_data_acquisition2,225572.0,0.151611328125,0.0172729492188,0.71484375,0.682434082031,-2.125,1.25,1.625,2.53,1.71,8.59
1541195160026982069,280,0,/imu_data_acquisition2,225580.0,0.151611328125,0.0172729492188,0.71484375,0.682434082031,-2.125,1.25,1.625,1.65,2.48,9.94
1541195160037159919,281,0,/imu_data_acquisition2,225591.0,0.151550292969,0.0175170898438,0.71484375,0.682434082031,0.25,3.0625,0.5,2.12,1.68,9.5
1541195160047203063,282,0,/imu_data_acquisition2,225601.0,0.1513671875,0.0177001953125,0.714904785156,0.682434082031,-1.75,1.625,0.9375,1.77,2.44,9.63
1541195160057311058,283,0,/imu_data_acquisition2,225611.0,0.151123046875,0.0176391601562,0.714965820312,0.682373046875,1.9375,3.5625,-1.4375,2.17,2.09,8.96
1541195160066580057,284,0,/imu_data_acquisition2,225621.0,0.151062011719,0.0180053710938,0.714965820312,0.682434082031,-0.375,3.6875,-0.625,2.29,2.09,9.0
1541195160078146934,285,0,/imu_data_acquisition2,225632.0,0.150817871094,0.0182495117188,0.714965820312,0.682495117188,1.5625,2.375,-1.625,1.85,2.68,-0.01
1541195160086797952,286,0,/imu_data_acquisition2,225640.0,0.150756835938,0.0184936523438,0.714904785156,0.682556152344,1.5625,2.375,-1.625,1.88,2.07,9.38
1541195160096447944,287,0,/imu_data_acquisition2,225651.0,0.150573730469,0.0186767578125,0.71484375,0.6826171875,0.0,3.1875,-0.875,2.12,-0.01,-0.01
1541195160106946945,288,0,/imu_data_acquisition2,225661.0,0.150390625,0.0188598632812,0.71484375,0.682678222656,-0.3125,2.6875,-1.0,1.91,2.33,9.62
1541195160116261959,289,0,/imu_data_acquisition2,225670.0,-6.103515625e-05,-6.103515625e-05,-6.103515625e-05,0.682739257812,-1.0,2.625,-0.3125,2.06,1.97,9.24
1541195160130323886,290,0,/imu_data_acquisition2,225684.0,0.149841308594,0.0192260742188,0.714904785156,0.682739257812,-0.875,1.875,-0.1875,1.76,2.5,9.84
1541195160138001918,291,0,/imu_data_acquisition2,225692.0,0.149841308594,0.0192260742188,0.714904785156,0.682739257812,-1.5,1.625,0.25,1.5,2.64,10.06
1541195160145348072,292,0,/imu_data_acquisition2,225700.0,-6.103515625e-05,-6.103515625e-05,-6.103515625e-05,0.682739257812,0.4375,2.5,-0.5,2.2,1.81,8.91
1541195160157361030,293,0,/imu_data_acquisition2,225711.0,0.149475097656,0.0193481445312,0.714965820312,0.682739257812,-0.1875,1.875,-0.1875,1.97,2.39,9.77
1541195160167957067,294,0,/imu_data_acquisition2,225722.0,0.149353027344,0.0194702148438,0.714965820312,0.682739257812,0.625,1.375,-1.125,1.75,2.36,9.83
1541195160175709962,295,0,/imu_data_acquisition2,225730.0,0.149291992188,0.0195922851562,-6.103515625e-05,0.682800292969,1.5625,2.625,-0.0625,2.15,2.11,9.51
1541195160186429977,296,0,/imu_data_acquisition2,225740.0,0.149230957031,0.0198364257812,0.71484375,0.682922363281,1.5625,2.625,-1.9375,2.08,2.07,9.2
1541195160198031902,297,0,/imu_data_acquisition2,225751.0,0.149230957031,0.0200805664062,0.714721679688,0.682983398438,2.4375,2.8125,-2.4375,2.49,1.81,8.89
1541195160206443071,298,0,/imu_data_acquisition2,225761.0,0.149169921875,0.0204467773438,0.714660644531,0.68310546875,-0.625,1.5625,-0.4375,2.14,2.14,9.57
1541195160218535900,299,0,/imu_data_acquisition2,225772.0,0.149047851562,0.0205078125,0.714660644531,0.68310546875,2.125,2.75,-1.25,2.03,2.39,9.44
1541195160230454921,300,0,/imu_data_acquisition2,225780.0,0.148986816406,0.0208129882812,0.714599609375,0.683166503906,2.125,2.75,-1.25,1.49,2.42,9.36
1541195160238039016,301,0,/imu_data_acquisition2,225793.0,0.14892578125,0.0215454101562,0.714416503906,0.683349609375,2.75,3.6875,-2.5625,1.69,2.84,8.89
1541195160247242927,302,0,/imu_data_acquisition2,225801.0,0.14892578125,0.0215454101562,0.714416503906,0.683349609375,4.0625,4.375,-3.5,1.69,3.03,8.52
1541195160285649061,303,0,/imu_data_acquisition2,225812.0,0.148864746094,0.0220947265625,0.714233398438,0.683532714844,3.125,5.5625,-3.0625,2.03,3.15,9.63
1541195160303467988,304,0,/imu_data_acquisition2,225821.0,0.148681640625,0.0226440429688,0.714111328125,0.683654785156,-5.8125,-0.0625,-0.0625,2.44,-0.07,10.45
1541195160369230031,305,0,/imu_data_acquisition2,225832.0,0.147888183594,0.0228271484375,0.714233398438,0.683715820312,-10.25,4.4375,0.875,2.68,1.47,9.63
1541195160380994081,306,0,/imu_data_acquisition2,225843.0,0.14697265625,0.0224609375,0.71435546875,0.683776855469,-10.25,4.4375,0.875,2.77,1.88,9.27
1541195160385540008,307,0,/imu_data_acquisition2,225851.0,0.147033691406,0.0227661132812,0.714111328125,0.684020996094,1.125,4.25,-2.875,2.52,1.98,-0.01
1541195160387571096,308,0,/imu_data_acquisition2,225863.0,0.146545410156,0.0233154296875,0.713928222656,0.684326171875,-0.8125,3.875,-1.6875,2.41,1.93,-0.01
1541195160390832901,309,0,/imu_data_acquisition2,225872.0,0.146545410156,0.0233154296875,0.713928222656,0.684326171875,-1.125,3.8125,-0.6875,2.47,1.94,9.41
1541195160397886037,310,0,/imu_data_acquisition2,225880.0,0.146240234375,0.0234985351562,0.713928222656,0.684326171875,-1.125,3.8125,-0.0625,2.47,-0.01,-0.01
1541195160398672103,311,0,/imu_data_acquisition2,225893.0,0.145935058594,0.023681640625,0.713989257812,0.684326171875,0.0,4.125,-0.125,2.42,2.78,9.04
1541195160399831056,312,0,/imu_data_acquisition2,225901.0,0.145629882812,-6.103515625e-05,-6.103515625e-05,0.684326171875,1.0625,3.0,-1.5,2.44,2.5,9.1
1541195160406162977,313,0,/imu_data_acquisition2,225911.0,0.1455078125,0.024169921875,0.713989257812,0.684387207031,-3.75,4.5625,1.6875,2.48,2.0,9.18
1541195160410603046,314,0,/imu_data_acquisition2,225923.0,0.14501953125,0.024169921875,0.714172363281,0.684326171875,-3.4375,4.75,0.3125,2.36,1.95,9.27
1541195160418092966,315,0,/imu_data_acquisition2,225930.0,0.14453125,0.0242309570312,0.714233398438,0.684387207031,-3.4375,4.75,0.3125,2.36,1.95,9.27
1541195160419807910,316,0,/imu_data_acquisition2,225940.0,0.143920898438,0.0244140625,0.71435546875,0.684387207031,-3.8125,6.5,-0.3125,2.31,2.14,9.55
1541195160421077966,317,0,/imu_data_acquisition2,225951.0,0.143249511719,0.024658203125,0.714294433594,0.6845703125,-3.5,6.25,-0.375,2.91,2.67,9.39
1541195160422049045,318,0,/imu_data_acquisition2,225961.0,0.142700195312,-6.103515625e-05,-6.103515625e-05,0.6845703125,-3.5,6.25,-0.0625,3.2,1.76,8.96
1541195160425645112,319,0,/imu_data_acquisition2,225972.0,0.142028808594,0.0249633789062,0.714538574219,0.6845703125,-8.875,7.375,4.4375,3.07,1.74,9.54
1541195160438083887,321,0,/imu_data_acquisition2,225993.0,0.140197753906,0.0247802734375,0.715148925781,0.684326171875,-7.9375,7.4375,-0.0625,3.81,1.59,-0.01
1541195160449764013,322,0,/imu_data_acquisition2,226002.0,0.139282226562,0.0247192382812,0.715270996094,0.684387207031,-7.9375,6.4375,-3.5625,3.07,2.41,8.91
1541195160456670999,323,0,/imu_data_acquisition2,226011.0,0.138427734375,0.024658203125,0.715148925781,0.684692382812,-7.3125,-0.0625,-0.0625,3.89,1.07,-0.01
1541195160468709945,324,0,/imu_data_acquisition2,226022.0,0.13720703125,0.0250854492188,0.714904785156,0.685119628906,-13.375,12.4375,-0.0625,3.42,1.62,9.51
1541195160478501081,325,0,/imu_data_acquisition2,226030.0,0.135620117188,0.0250244140625,0.71484375,0.685546875,-13.375,12.4375,-4.125,3.42,1.62,9.51
1541195160485791921,326,0,/imu_data_acquisition2,226040.0,0.134338378906,0.0255737304688,0.714477539062,0.686157226562,-6.75,14.875,-9.75,3.45,-0.01,-0.01
1541195160498354911,327,0,/imu_data_acquisition2,226052.0,0.132934570312,0.0263061523438,0.713989257812,0.686889648438,-1.375,20.8125,-12.5625,3.78,2.06,9.25
1541195160509032011,328,0,/imu_data_acquisition2,226061.0,0.131591796875,0.027587890625,0.713500976562,0.687622070312,-1.375,20.8125,-12.5625,3.24,1.99,9.24
1541195160516972064,329,0,/imu_data_acquisition2,226072.0,0.130004882812,0.0291748046875,0.713256835938,0.688171386719,-0.5625,30.0625,-5.125,3.99,1.39,9.54
1541195160528565883,330,0,/imu_data_acquisition2,226081.0,0.128173828125,0.031005859375,0.713256835938,0.688354492188,-0.5625,30.0625,-0.0625,3.99,1.39,9.54
1541195160537497997,331,0,/imu_data_acquisition2,226089.0,0.126037597656,0.0330810546875,0.713500976562,0.688415527344,0.125,35.75,-2.5,3.86,2.16,9.28
1541195160546231031,332,0,/imu_data_acquisition2,226101.0,0.123901367188,0.0361328125,0.713684082031,0.6884765625,7.75,-0.0625,-0.0625,3.78,2.18,-0.01
1541195160558387994,333,0,/imu_data_acquisition2,226112.0,0.12109375,0.0397338867188,0.714050292969,0.688415527344,14.875,66.75,-8.75,5.78,1.92,9.31
1541195160570293903,334,0,/imu_data_acquisition2,226122.0,0.117919921875,0.0446166992188,0.714172363281,0.688537597656,14.875,66.75,-8.75,6.62,2.94,8.77
1541195160576406955,335,0,/imu_data_acquisition2,226131.0,0.11328125,0.0505981445312,0.714172363281,0.688903808594,12.625,87.5,-14.1875,6.62,2.94,8.77
1541195160587271928,336,0,/imu_data_acquisition2,226141.0,0.106811523438,0.0591430664062,0.713500976562,0.68994140625,18.4375,123.1875,-29.125,4.84,2.87,9.96
1541195160598635911,337,0,/imu_data_acquisition2,226152.0,0.0966796875,0.0701904296875,0.712707519531,0.691223144531,9.375,173.6875,-6.4375,4.02,4.1,10.48
1541195160607013940,338,0,/imu_data_acquisition2,226162.0,0.0830688476562,0.0834350585938,-6.103515625e-05,0.692504882812,-12.375,312.75,-44.1875,5.07,5.55,11.34
1541195160618858098,339,0,/imu_data_acquisition2,226173.0,0.063232421875,0.101257324219,-6.103515625e-05,0.692810058594,-43.4375,351.1875,-26.9375,3.76,7.26,11.33
1541195160624562978,340,0,/imu_data_acquisition2,226179.0,0.039306640625,-6.103515625e-05,-6.103515625e-05,0.691345214844,-43.4375,351.1875,-26.9375,3.76,7.26,11.33
1541195160636913061,341,0,/imu_data_acquisition2,226191.0,0.0119018554688,0.135375976562,0.713195800781,0.687683105469,-89.5625,368.625,-1.375,-1.39,3.21,11.43
1541195160647675991,342,0,/imu_data_acquisition2,226202.0,-0.0155029296875,0.151306152344,0.714172363281,0.683288574219,-89.5625,368.625,-1.375,1.54,2.09,14.93
1541195160659535884,343,0,/imu_data_acquisition2,226213.0,-0.041259765625,0.167236328125,0.7158203125,0.676696777344,62.375,265.5625,10.9375,19.53,12.8,20.68
1541195160668092966,344,0,/imu_data_acquisition2,226222.0,-0.0535888671875,0.186157226562,0.714416503906,0.67236328125,183.0625,-0.0625,-0.0625,10.45,35.14,21.63
1541195160676589965,345,0,/imu_data_acquisition2,226229.0,-0.05126953125,0.205078125,0.711853027344,0.669738769531,183.0625,138.3125,18.25,10.45,35.14,21.63
1541195160686343908,346,0,/imu_data_acquisition2,226241.0,-0.0480346679688,0.206420898438,0.721862792969,0.658813476562,5.875,3.75,180.625,13.42,23.7,14.6
1541195160697897911,347,0,/imu_data_acquisition2,226252.0,-0.0426025390625,0.209411621094,0.733520507812,0.645202636719,30.875,3.5625,222.25,10.23,7.84,6.71
1541195160710122108,348,0,/imu_data_acquisition2,226262.0,-0.0333251953125,0.213745117188,0.74462890625,0.631408691406,74.4375,-18.875,229.625,7.36,2.37,11.73
1541195160719002962,349,0,/imu_data_acquisition2,226274.0,-0.0235595703125,0.216613769531,0.756896972656,0.616088867188,80.25,-68.1875,243.3125,6.54,0.19,12.27
1541195160727549076,350,0,/imu_data_acquisition2,226280.0,-0.0105590820312,0.218627929688,0.76806640625,0.601806640625,80.25,-68.1875,243.3125,6.54,0.19,12.27
1541195160738457918,351,0,/imu_data_acquisition2,226293.0,0.00408935546875,0.218566894531,0.778442382812,0.588439941406,75.25,-0.0625,-0.0625,3.62,-5.47,10.2
1541195160750103950,352,0,/imu_data_acquisition2,226304.0,0.0193481445312,0.216369628906,0.787780761719,0.576354980469,51.8125,-135.8125,185.8125,2.88,-6.53,9.97
1541195160759870052,353,0,/imu_data_acquisition2,226313.0,0.0343017578125,0.212829589844,0.795532226562,0.566284179688,51.8125,-135.8125,185.8125,1.98,-7.52,12.0
1541195160767508029,354,0,/imu_data_acquisition2,226322.0,0.048095703125,0.207885742188,0.801635742188,0.558410644531,33.8125,-141.0625,151.9375,1.53,-8.18,13.28
1541195160776273012,355,0,/imu_data_acquisition2,226330.0,0.060791015625,0.201049804688,0.806274414062,0.553039550781,10.4375,-149.5625,116.75,1.53,-8.18,13.28
1541195160788994073,356,0,/imu_data_acquisition2,226342.0,0.07275390625,0.192260742188,0.809143066406,0.550476074219,-10.375,-163.25,78.125,1.01,-8.64,14.16
1541195160796936035,357,0,/imu_data_acquisition2,226351.0,0.0841064453125,0.182006835938,0.81005859375,0.551025390625,-26.4375,-176.4375,35.75,-0.08,-8.29,14.84
1541195160809289932,358,0,/imu_data_acquisition2,226363.0,0.094970703125,0.170593261719,0.808959960938,0.554504394531,-39.8125,-187.125,-6.3125,-1.59,-6.9,15.19
1541195160819868087,359,0,/imu_data_acquisition2,226373.0,-6.103515625e-05,-6.103515625e-05,-6.103515625e-05,0.560791015625,-52.4375,-196.5,-45.25,-2.46,-5.92,14.85
1541195160825016021,360,0,/imu_data_acquisition2,226380.0,0.114990234375,0.145202636719,0.800842285156,0.569519042969,-60.9375,-201.3125,-82.1875,-2.46,-5.92,14.85
1541195160836649894,361,0,/imu_data_acquisition2,226390.0,0.123901367188,0.131896972656,0.794006347656,0.580322265625,-68.5,-202.125,-115.375,-4.11,-3.71,14.58
1541195160850362062,362,0,/imu_data_acquisition2,226401.0,0.132202148438,0.11865234375,0.785522460938,0.592834472656,-72.375,-200.9375,-143.5,-4.71,-2.3,14.3
1541195160857671022,363,0,/imu_data_acquisition2,226412.0,0.139892578125,-6.103515625e-05,-6.103515625e-05,0.606384277344,-72.1875,-195.75,-164.6875,-6.03,1.37,13.39
1541195160869334936,364,0,/imu_data_acquisition2,226423.0,0.147277832031,0.093994140625,0.764587402344,0.620361328125,-65.875,-189.0,-178.75,-6.1,2.21,13.05
1541195160875502109,365,0,/imu_data_acquisition2,226429.0,0.154418945312,0.0834350585938,0.752868652344,0.634338378906,-54.125,-178.5,-185.625,-6.1,2.21,13.05
1541195160886900901,366,0,/imu_data_acquisition2,226441.0,0.161560058594,0.074462890625,0.740844726562,0.647644042969,-38.875,-165.625,-186.0625,-6.03,3.05,12.89
1541195160898209095,367,0,/imu_data_acquisition2,226452.0,0.168579101562,0.0670166015625,0.728942871094,0.660095214844,-24.9375,-152.3125,-180.0,-5.56,3.71,-0.01
1541195160910550117,368,0,/imu_data_acquisition2,226462.0,0.175537109375,0.0607299804688,-6.103515625e-05,0.671447753906,-13.3125,-141.625,-169.6875,-4.93,3.32,10.95
1541195160917859077,369,0,/imu_data_acquisition2,226472.0,0.182312011719,-6.103515625e-05,-6.103515625e-05,0.681579589844,-5.3125,-130.25,-157.0625,-4.16,2.72,10.13
1541195160928396940,370,0,/imu_data_acquisition2,226480.0,0.1884765625,0.0507202148438,0.696350097656,0.690673828125,-1.75,-116.4375,-143.625,-4.16,2.72,10.13
1541195160936325073,371,0,/imu_data_acquisition2,226490.0,0.193908691406,-6.103515625e-05,-6.103515625e-05,0.69873046875,-1.0,-103.4375,-130.625,-3.76,2.86,9.97
1541195160945703983,372,0,/imu_data_acquisition2,226500.0,0.198486328125,0.0428466796875,0.678649902344,0.705871582031,-5.0,-92.0,-116.25,-3.51,2.92,9.68
1541195160959042072,373,0,/imu_data_acquisition2,226512.0,-6.103515625e-05,-6.103515625e-05,-6.103515625e-05,0.712036132812,-9.5,-83.25,-99.8125,-2.2,3.73,8.51
1541195160970613002,374,0,/imu_data_acquisition2,226523.0,0.204895019531,0.0353393554688,0.665161132812,0.717163085938,-16.6875,-68.75,-82.0,-1.21,4.59,7.23
1541195160976246118,375,0,/imu_data_acquisition2,226531.0,0.207275390625,0.0321044921875,0.66015625,0.721252441406,-13.5,-60.0625,-65.6875,-1.21,4.59,7.23
1541195160986907005,376,0,/imu_data_acquisition2,226541.0,0.208801269531,0.0289916992188,0.656616210938,0.724182128906,-17.25,-48.3125,-45.625,-0.92,4.29,7.89
1541195160996145963,377,0,/imu_data_acquisition2,226550.0,0.210083007812,0.026123046875,0.654235839844,0.72607421875,-14.8125,-40.6875,-27.0,-0.14,4.67,7.75
1541195161008157014,378,0,/imu_data_acquisition2,226563.0,0.211181640625,0.0233154296875,0.653137207031,0.726806640625,-13.75,-35.8125,-8.0625,0.37,-0.01,-0.01
1541195161019330978,379,0,/imu_data_acquisition2,226573.0,-6.103515625e-05,-6.103515625e-05,-6.103515625e-05,0.726623535156,-8.25,-33.125,7.625,0.95,3.9,7.63
1541195161024915933,380,0,/imu_data_acquisition2,226579.0,-6.103515625e-05,-6.103515625e-05,-6.103515625e-05,0.725524902344,-5.0,-32.375,22.1875,0.95,3.9,-0.01
1541195161036051988,381,0,/imu_data_acquisition2,226590.0,0.215515136719,0.0153198242188,0.655456542969,0.7236328125,-3.875,-30.125,35.75,0.48,3.65,8.36
1541195161047661066,382,0,/imu_data_acquisition2,226601.0,0.217224121094,0.01220703125,0.657836914062,0.721069335938,-3.5625,-33.4375,48.25,0.91,3.23,7.43
1541195161059602022,383,0,/imu_data_acquisition2,226613.0,0.218994140625,0.0089111328125,0.66064453125,0.717956542969,-2.5625,-34.3125,57.3125,0.5,2.6,7.81
1541195161068901062,384,0,/imu_data_acquisition2,226624.0,0.220825195312,0.00537109375,0.663940429688,0.714416503906,-3.625,-35.4375,64.875,1.01,1.84,7.44
1541195161077140092,385,0,/imu_data_acquisition2,226630.0,0.222717285156,0.00152587890625,0.667419433594,0.710571289062,-3.875,-37.75,69.875,1.01,-0.01,-0.01
1541195161084943056,386,0,/imu_data_acquisition2,226640.0,0.224609375,-0.00262451171875,0.671081542969,0.706481933594,-6.25,-39.875,74.0,0.85,1.79,7.75
1541195161109565973,388,0,/imu_data_acquisition2,226662.0,0.227905273438,-0.0120849609375,0.678649902344,0.698120117188,-15.1875,-43.5625,78.6875,1.38,1.98,8.92
1541195161119837999,389,0,/imu_data_acquisition2,226673.0,-6.103515625e-05,-6.103515625e-05,-6.103515625e-05,0.69384765625,-22.5,-14.375,-0.0625,1.1,1.93,-0.01
