%time,field.header.seq,field.header.stamp,field.header.frame_id,field.time_stamp,field.quat_x,field.quat_y,field.quat_z,field.quat_w,field.gyro_x,field.gyro_y,field.gyro_z,field.accel_x,field.accel_y,field.accel_z
1455209365240684032,1,0,/imu_data_acquisition2,12851.0,0.0381469726562,-6.103515625e-05,-6.103515625e-05,0.319946289062,6.6875,0.5,5.3125,0.07,4.01,-0.01
1455209365245812892,2,0,/imu_data_acquisition2,12861.0,0.0386352539062,0.187316894531,0.928100585938,0.319458007812,5.0625,0.8125,4.9375,-0.19,3.96,9.36
1455209365255812883,3,0,/imu_data_acquisition2,12871.0,0.0391845703125,0.187927246094,0.928100585938,0.319030761719,5.75,1.625,3.625,0.09,4.09,9.16
1455209365268817901,4,0,/imu_data_acquisition2,12883.0,0.039794921875,0.1884765625,0.928100585938,0.318603515625,5.0,1.625,3.875,-0.09,4.13,9.75
1455209365279006004,5,0,/imu_data_acquisition2,12894.0,0.0401000976562,0.188659667969,0.92822265625,0.318115234375,1.125,3.0,4.5625,0.25,3.63,8.8
1455209365285917997,6,0,/imu_data_acquisition2,12901.0,0.0404663085938,0.188842773438,0.928405761719,0.317504882812,1.5,4.0,5.0625,0.25,3.63,8.8
1455209365295933961,7,0,/imu_data_acquisition2,12911.0,0.041015625,0.188842773438,0.928588867188,0.316833496094,0.0,3.0625,5.875,0.25,3.77,9.11
1455209365305813074,8,0,/imu_data_acquisition2,12921.0,-6.103515625e-05,-6.103515625e-05,-6.103515625e-05,0.316223144531,2.0,5.5,5.125,0.3,3.87,8.9
1455209365318692922,9,0,/imu_data_acquisition2,12933.0,0.0408935546875,0.189270019531,0.928894042969,0.315612792969,-0.5625,8.3125,5.5,0.14,3.67,8.88
1455209365328661918,10,0,/imu_data_acquisition2,12943.0,0.0400390625,0.189086914062,0.92919921875,0.31494140625,-5.4375,10.9375,7.1875,0.62,3.72,8.47
1455209365335947036,11,0,/imu_data_acquisition2,12951.0,0.0387573242188,0.188659667969,0.929626464844,0.314208984375,-9.5625,13.875,6.5625,0.62,3.72,8.47
1455209365345839023,12,0,/imu_data_acquisition2,12961.0,0.036865234375,0.188354492188,0.929809570312,0.31396484375,-10.75,20.25,-0.75,0.15,4.06,8.83
1455209365358561038,13,0,/imu_data_acquisition2,12973.0,0.0345458984375,0.188781738281,0.9296875,0.314453125,-4.125,25.9375,-10.75,0.05,3.89,7.96
1455209365371640920,14,0,/imu_data_acquisition2,12984.0,0.03173828125,0.188903808594,0.929504394531,0.315246582031,-8.8125,29.6875,-16.0,0.03,3.97,8.77
1455209365379739999,15,0,/imu_data_acquisition2,12994.0,0.0281372070312,0.188171386719,0.929443359375,0.316162109375,-26.25,44.9375,-22.25,0.43,4.0,8.98
1455209365389034986,16,0,/imu_data_acquisition2,13003.0,0.0235595703125,0.187377929688,0.929382324219,0.317260742188,-26.25,44.9375,-22.25,0.43,4.0,8.98
1455209365396965026,17,0,/imu_data_acquisition2,13012.0,0.0184326171875,0.186462402344,0.929138183594,0.318664550781,-29.1875,49.75,-27.5625,0.21,3.92,8.19
1455209365409358024,18,0,/imu_data_acquisition2,13024.0,0.0122680664062,0.185119628906,0.929016113281,0.320251464844,-37.625,58.875,-31.1875,-1.12,3.17,7.74
1455209365422564983,19,0,/imu_data_acquisition2,13035.0,0.00482177734375,0.182861328125,0.929016113281,0.321655273438,-73.8125,79.0,-31.8125,0.04,2.74,6.94
1455209365431747913,20,0,/imu_data_acquisition2,13045.0,-0.00390625,0.17919921875,0.929260253906,0.322998046875,-67.5625,92.6875,-42.125,-1.89,4.58,11.42
1455209365440087080,21,0,/imu_data_acquisition2,13053.0,-0.013671875,0.176391601562,0.929077148438,0.324829101562,-67.5625,92.6875,-42.125,-1.89,4.58,11.42
1455209365448079109,22,0,/imu_data_acquisition2,13061.0,-0.0255126953125,0.17236328125,0.929016113281,0.326416015625,-89.9375,111.625,-42.75,-0.09,3.57,11.5
1455209365461183071,23,0,/imu_data_acquisition2,13074.0,-0.0362548828125,0.166381835938,0.929321289062,0.327697753906,-107.125,92.375,-37.3125,-2.02,3.77,12.04
1455209365470601081,24,0,/imu_data_acquisition2,13084.0,-0.0462646484375,0.160461425781,0.929138183594,0.329895019531,-101.8125,99.0625,-59.3125,0.38,3.56,9.32
1455209365482372045,25,0,/imu_data_acquisition2,13095.0,-0.0576171875,0.154968261719,0.928405761719,0.332824707031,-101.8125,99.0625,-59.3125,-0.23,3.5,10.3
1455209365489497900,26,0,/imu_data_acquisition2,13102.0,-0.0682983398438,0.147766113281,0.927429199219,0.336730957031,-116.4375,82.5,-71.75,-0.23,3.5,10.3
1455209365499846935,27,0,/imu_data_acquisition2,13113.0,-0.081298828125,0.13720703125,0.926330566406,0.341247558594,-162.8125,93.125,-84.625,-0.83,3.22,11.42
1455209365507730960,28,0,/imu_data_acquisition2,13122.0,-0.09423828125,0.126525878906,0.925048828125,0.345581054688,-162.8125,93.125,-84.625,-0.76,3.53,10.86
1455209365520528078,29,0,/imu_data_acquisition2,13134.0,-0.108825683594,0.113525390625,0.923583984375,0.349670410156,-195.0625,102.3125,-86.875,0.66,4.2,10.43
1455209365529876947,30,0,/imu_data_acquisition2,13144.0,-0.129089355469,0.095458984375,0.922485351562,0.351135253906,-6.4375,-0.0625,-0.0625,-3.58,-0.79,11.59
1455209365536820888,31,0,/imu_data_acquisition2,13152.0,-0.15185546875,0.0800170898438,0.921142578125,0.349365234375,-264.125,188.875,-0.0625,-3.58,-0.79,11.59
1455209365548311948,32,0,/imu_data_acquisition2,13162.0,-0.175964355469,0.0718994140625,0.919189453125,0.344909667969,-194.625,237.4375,3.0625,7.05,2.43,11.79
1455209365560431003,33,0,/imu_data_acquisition2,13174.0,-0.211791992188,0.0697631835938,0.914367675781,0.337951660156,-179.8125,396.875,21.3125,-5.62,-1.49,13.19
1455209365571142911,34,0,/imu_data_acquisition2,13184.0,-0.25830078125,0.0762939453125,0.905090332031,0.3291015625,-130.8125,561.25,36.5625,-6.06,-2.11,13.51
1455209365580533027,35,0,/imu_data_acquisition2,13195.0,-0.303771972656,0.092041015625,0.89306640625,0.318908691406,-27.875,595.25,69.375,-6.61,0.7,11.5
1455209365590115070,36,0,/imu_data_acquisition2,13202.0,-0.344421386719,0.1103515625,0.879089355469,0.310485839844,24.25,558.75,58.1875,-6.61,0.7,11.5
1455209365596935987,37,0,/imu_data_acquisition2,13212.0,-0.381958007812,0.12255859375,0.864990234375,0.301452636719,-29.25,505.3125,42.625,-6.27,-1.76,13.47
1455209365609292030,38,0,/imu_data_acquisition2,13223.0,-0.412963867188,0.137084960938,0.850708007812,0.294860839844,29.3125,443.75,37.625,-6.46,0.1,16.44
1455209365622173070,39,0,/imu_data_acquisition2,13235.0,-0.437377929688,0.153686523438,0.83642578125,0.292236328125,92.5625,378.4375,17.75,-4.6,4.87,13.37
1455209365631392002,40,0,/imu_data_acquisition2,13244.0,-0.458923339844,0.164367675781,0.823913574219,0.289123535156,37.5,320.375,4.0,-7.21,10.35,30.17
1455209365640774011,41,0,/imu_data_acquisition2,13253.0,-0.481201171875,0.1650390625,0.814697265625,0.278442382812,-109.5625,290.5625,32.375,-7.21,10.35,30.17
1455209365647763967,42,0,/imu_data_acquisition2,13261.0,-0.502258300781,0.156311035156,0.810791015625,0.256713867188,-269.5,239.125,106.3125,-1.54,8.9,39.84
1455209365658433914,43,0,/imu_data_acquisition2,13273.0,-0.509643554688,0.144592285156,0.814331054688,0.237121582031,-258.5625,50.6875,114.9375,-0.5,-8.42,33.56
1455209365670721054,44,0,/imu_data_acquisition2,13285.0,-0.506652832031,0.144958496094,0.816162109375,0.236877441406,7.125,-38.3125,15.375,2.52,-0.54,16.3
1455209365683691024,45,0,/imu_data_acquisition2,13295.0,-0.496032714844,0.152465820312,0.81787109375,0.248596191406,170.4375,-112.25,-45.375,3.49,1.51,8.17
1455209365687031984,46,0,/imu_data_acquisition2,13302.0,-0.482666015625,0.159484863281,0.820739746094,0.260681152344,173.0,-147.5,-43.1875,3.49,1.51,8.17
1455209365699182033,47,0,/imu_data_acquisition2,13313.0,-0.469848632812,0.164367675781,0.824462890625,0.269287109375,128.75,-147.0625,-19.875,3.04,1.93,10.56
1455209365709255933,48,0,/imu_data_acquisition2,13321.0,-0.455993652344,0.168029785156,0.829162597656,0.276245117188,109.5625,-163.0625,-5.375,2.33,0.96,9.36
1455209365720048904,49,0,/imu_data_acquisition2,13335.0,-0.440490722656,0.172241210938,0.834228515625,0.283386230469,120.625,-179.8125,-0.3125,1.34,2.96,9.86
1455209365731806039,50,0,/imu_data_acquisition2,13345.0,-0.423278808594,0.17578125,0.84033203125,0.289489746094,112.375,-202.375,13.5625,1.1,2.18,10.42
1455209365737670898,51,0,/imu_data_acquisition2,13351.0,-0.404724121094,0.177673339844,0.847595214844,0.293579101562,87.4375,-223.375,32.1875,1.1,2.18,10.42
1455209365747330904,52,0,/imu_data_acquisition2,13362.0,-0.384399414062,0.178771972656,0.855651855469,0.296875,80.4375,-245.0625,42.75,0.81,1.38,11.16
1455209365760843038,53,0,/imu_data_acquisition2,13375.0,-0.362121582031,0.180114746094,0.86376953125,0.300598144531,91.875,-266.1875,44.5625,-0.79,2.78,13.77
1455209365776551961,54,0,/imu_data_acquisition2,13385.0,-0.337951660156,0.181701660156,0.871826171875,0.304443359375,101.5,-284.125,47.8125,-0.79,2.78,13.77
1455209365780577898,55,0,/imu_data_acquisition2,13395.0,-0.311950683594,0.182189941406,0.880432128906,0.307189941406,91.125,-307.5625,59.8125,-2.76,2.41,16.94
1455209365789844036,56,0,/imu_data_acquisition2,13403.0,-6.103515625e-05,-6.103515625e-05,-6.103515625e-05,0.309204101562,81.125,-339.0,70.6875,-2.76,2.41,16.94
1455209365796684980,57,0,/imu_data_acquisition2,13411.0,-0.251647949219,0.180541992188,0.898254394531,0.311706542969,99.5,-371.8125,71.1875,-1.09,-0.01,-0.01
1455209365808635950,58,0,/imu_data_acquisition2,13423.0,-0.217224121094,0.181396484375,0.905822753906,0.315185546875,130.1875,-392.8125,67.5,-3.6,0.62,11.26
1455209365821033000,59,0,/imu_data_acquisition2,13435.0,-0.182067871094,0.18310546875,0.912109375,0.318298339844,144.375,-394.1875,69.625,-2.18,1.76,2.32
1455209365833885908,60,0,/imu_data_acquisition2,13446.0,-0.148559570312,0.185302734375,0.917053222656,0.320373535156,143.625,-368.25,73.5625,-2.31,3.19,3.5
1455209365838864088,61,0,/imu_data_acquisition2,13453.0,-0.119140625,0.186889648438,0.921020507812,0.3203125,119.75,-321.125,83.125,-2.31,3.19,3.5
1455209365849203109,62,0,/imu_data_acquisition2,13463.0,-0.0942993164062,0.186401367188,0.924926757812,0.317565917969,76.375,-272.0,99.3125,-3.06,4.88,7.86
1455209365856216907,63,0,/imu_data_acquisition2,13471.0,-0.0725708007812,0.182678222656,0.929382324219,0.3125,25.1875,-5.3125,-0.0625,-4.34,5.62,14.35
1455209365870300054,64,0,/imu_data_acquisition2,13485.0,-0.0511474609375,0.176879882812,0.933776855469,0.306884765625,1.8125,-249.3125,119.1875,-4.65,1.59,17.81
1455209365881378889,65,0,/imu_data_acquisition2,13495.0,-0.0286865234375,0.171691894531,0.937194824219,0.30224609375,13.875,-259.0625,107.9375,-4.18,1.92,16.79
1455209365886816978,66,0,/imu_data_acquisition2,13501.0,-0.0062255859375,0.168151855469,0.939453125,0.298583984375,35.125,-255.625,92.875,-4.18,1.92,16.79
1455209365899662017,67,0,/imu_data_acquisition2,13513.0,0.0151977539062,0.165771484375,0.940856933594,0.294982910156,46.4375,-239.5,87.8125,-6.33,6.89,22.89
1455209365908587932,68,0,/imu_data_acquisition2,13521.0,0.0365600585938,0.162414550781,0.942199707031,0.290710449219,35.125,-241.4375,95.0625,-7.36,7.58,23.43
1455209365921086072,69,0,/imu_data_acquisition2,13535.0,0.0584106445312,0.156616210938,0.943725585938,0.285339355469,10.125,-252.5625,109.375,-7.18,5.69,20.26
1455209365931050062,70,0,/imu_data_acquisition2,13546.0,0.07958984375,0.149963378906,0.945068359375,0.279296875,-1.0625,-246.875,115.875,-6.54,0.02,12.59
1455209365938381910,71,0,/imu_data_acquisition2,13551.0,0.0994262695312,0.144714355469,0.945678710938,0.273681640625,11.1875,-5.1875,-0.0625,-6.54,0.02,12.59
1455209365946989059,72,0,/imu_data_acquisition2,13562.0,0.117248535156,0.140502929688,0.945556640625,0.269104003906,16.125,-205.0,86.8125,-6.96,0.77,-0.01
1455209365958317995,73,0,/imu_data_acquisition2,13571.0,0.132446289062,0.135375976562,0.945251464844,0.265686035156,-3.6875,-181.5,69.6875,-8.47,3.76,11.21
1455209365970460891,74,0,/imu_data_acquisition2,13584.0,0.144775390625,0.127258300781,0.9453125,0.263061523438,-47.9375,-159.1875,61.9375,-9.44,4.25,12.8
1455209365980765104,75,0,/imu_data_acquisition2,13595.0,0.154357910156,0.114440917969,0.946105957031,0.260681152344,-111.1875,-142.5625,65.25,-10.6,2.16,15.25
1455209365988909959,76,0,/imu_data_acquisition2,13602.0,0.163146972656,0.099853515625,0.946716308594,0.259155273438,-133.8125,-140.125,57.1875,-12.75,0.23,19.54
1455209365996372938,77,0,/imu_data_acquisition2,13611.0,0.174743652344,0.0878295898438,0.94580078125,0.259338378906,-98.625,-168.9375,32.5625,-15.04,-1.22,16.16
1455209366007436990,78,0,/imu_data_acquisition2,13622.0,0.189208984375,0.0802001953125,0.943176269531,0.261169433594,-42.5,-192.3125,2.5,-16.82,0.83,10.99
1455209366020896911,79,0,/imu_data_acquisition2,13635.0,0.203796386719,0.074462890625,0.940002441406,0.26318359375,-20.3125,-189.625,-6.0625,-19.04,2.82,6.75
1455209366029572010,80,0,/imu_data_acquisition2,13643.0,0.215881347656,0.067626953125,0.937561035156,0.264099121094,-38.5,-162.875,9.8125,-22.47,-1.51,-2.51
1455209366039140939,81,0,/imu_data_acquisition2,13654.0,0.224426269531,0.0616455078125,0.935913085938,0.264404296875,-38.5625,-117.8125,13.375,-21.38,-3.28,-6.39
1455209366049618005,82,0,/imu_data_acquisition2,13662.0,0.228820800781,0.0593872070312,0.934875488281,0.264892578125,-11.9375,-58.5,0.3125,-18.17,-2.75,-9.77
1455209366062114000,83,0,/imu_data_acquisition2,13675.0,0.2265625,0.0597534179688,0.935363769531,0.264892578125,-3.4375,27.25,-0.875,-13.4,1.1,-4.54
1455209366071068048,84,0,/imu_data_acquisition2,13686.0,0.218017578125,0.0599975585938,0.937744140625,0.263732910156,-23.0,102.625,13.75,-12.1,2.25,2.59
1455209366081720113,85,0,/imu_data_acquisition2,13694.0,0.206481933594,0.0593872070312,0.941040039062,0.261352539062,-38.625,135.875,29.875,-11.56,3.69,9.72
1455209366086986064,86,0,/imu_data_acquisition2,13702.0,0.195129394531,0.0565185546875,0.944580078125,0.257934570312,-61.0,128.6875,48.5,-11.14,4.61,15.44
1455209366098750114,87,0,/imu_data_acquisition2,13712.0,0.184387207031,0.0468139648438,0.948486328125,0.253356933594,-133.8125,102.6875,77.8125,-7.34,-13.5,12.36
1455209366108925104,88,0,/imu_data_acquisition2,13722.0,0.172668457031,0.0343017578125,0.9521484375,0.249816894531,-170.0,104.25,72.1875,3.89,-28.79,7.27
1455209366118802070,89,0,/imu_data_acquisition2,13733.0,0.16650390625,0.0570068359375,0.950622558594,0.255676269531,226.875,130.6875,-119.8125,-2.75,-22.97,12.4
1455209366129937887,90,0,/imu_data_acquisition2,13745.0,0.172424316406,0.101989746094,0.94189453125,0.269653320312,502.8125,43.3125,-268.875,8.86,25.9,-2.62
1455209366138201951,91,0,/imu_data_acquisition2,13751.0,0.16748046875,0.113586425781,0.937683105469,0.282470703125,92.375,68.1875,-186.1875,4.68,14.4,-15.79
1455209366146882057,92,0,/imu_data_acquisition2,13762.0,0.15185546875,0.116455078125,0.9375,0.290649414062,-36.5,171.125,-117.5,4.21,13.07,-9.83
1455209366158113956,93,0,/imu_data_acquisition2,13772.0,0.131530761719,0.131469726562,0.937255859375,0.294921875,89.375,270.9375,-103.75,-10.62,30.34,18.26
1455209366167717933,94,0,/imu_data_acquisition2,13782.0,0.108276367188,0.146484375,0.93798828125,0.295043945312,84.125,312.125,-58.125,-13.4,30.38,31.92
1455209366180598020,95,0,/imu_data_acquisition2,13795.0,0.0864868164062,0.133056640625,0.943969726562,0.289428710938,-228.5,212.0,62.375,-5.08,6.0,22.56
1455209366188663959,96,0,/imu_data_acquisition2,13802.0,0.05908203125,0.104736328125,0.952209472656,0.280700683594,-414.5,231.875,112.0625,-9.85,-36.11,35.78
1455209366197623968,97,0,/imu_data_acquisition2,13812.0,0.0494995117188,-6.103515625e-05,-6.103515625e-05,0.284423828125,-32.6875,103.5625,-7.75,1.35,-19.76,9.23
1455209366209080934,98,0,/imu_data_acquisition2,13823.0,0.0570068359375,0.149536132812,0.939697265625,0.302307128906,534.125,36.5,-259.125,-7.51,18.54,10.23
1455209366220300912,99,0,/imu_data_acquisition2,13834.0,0.065185546875,0.186645507812,0.928466796875,0.314453125,454.125,12.875,-186.125,-0.72,-0.01,-0.01
1455209366228914022,100,0,/imu_data_acquisition2,13842.0,0.0584716796875,0.169799804688,0.933410644531,0.310729980469,-218.625,22.75,57.6875,-0.72,-6.19,4.37
1455209366237926006,101,0,/imu_data_acquisition2,13853.0,0.0452270507812,0.148620605469,0.940063476562,0.303527832031,-291.0625,87.6875,92.0,-1.49,-14.81,22.37
1455209366318805932,102,0,/imu_data_acquisition2,13863.0,0.0471801757812,0.157348632812,0.937377929688,0.307067871094,107.1875,1.75,-49.8125,-0.13,-5.03,13.59
1455209366325184106,103,0,/imu_data_acquisition2,13871.0,0.0523681640625,0.173400878906,0.932434082031,0.312622070312,202.9375,-12.25,-79.25,-0.27,13.69,8.74
1455209366327626943,105,0,/imu_data_acquisition2,13897.0,0.0496215820312,0.170532226562,0.933654785156,0.311096191406,-59.25,10.4375,22.5,0.13,3.69,9.01
1455209366328896999,106,0,/imu_data_acquisition2,13901.0,0.0499267578125,0.172180175781,-6.103515625e-05,0.311462402344,20.0,2.0,-6.3125,0.13,3.69,9.01
1455209366330066919,107,0,/imu_data_acquisition2,13911.0,0.0518188476562,0.177185058594,0.931640625,0.313049316406,64.125,-6.5,-22.5,0.79,7.17,9.01
1455209366330960035,108,0,/imu_data_acquisition2,13921.0,0.0521240234375,0.178161621094,0.931274414062,0.3134765625,12.6875,-1.3125,-5.5,0.43,4.45,7.36
1455209366333136081,109,0,/imu_data_acquisition2,13931.0,0.0513916015625,0.177673339844,0.931518554688,0.313110351562,-8.375,7.3125,3.25,-0.17,3.29,10.83
1455209366334150075,110,0,/imu_data_acquisition2,13941.0,0.0513305664062,0.177917480469,0.931518554688,0.313110351562,1.9375,1.5625,-0.4375,0.0,2.11,9.01
1455209366336373090,111,0,/imu_data_acquisition2,13951.0,0.0517578125,0.18017578125,0.930908203125,0.3134765625,27.5,2.5625,-6.4375,0.44,4.34,9.73
1455209366346159934,112,0,/imu_data_acquisition2,13961.0,0.0519409179688,0.181457519531,0.930603027344,0.313537597656,16.0,2.3125,-2.3125,0.38,4.16,9.05
1455209366356820106,113,0,/imu_data_acquisition2,13971.0,0.0516357421875,0.181762695312,0.9306640625,0.313232421875,1.9375,5.375,2.75,-0.01,3.27,9.97
1455209366366960048,114,0,/imu_data_acquisition2,13982.0,0.0514526367188,0.182250976562,0.9306640625,0.313110351562,4.6875,3.5625,0.375,0.12,3.54,9.33
1455209366380090951,115,0,/imu_data_acquisition2,13994.0,0.0515747070312,0.183044433594,0.930419921875,0.313293457031,9.6875,1.3125,-2.9375,0.02,4.29,9.32
1455209366386094093,116,0,/imu_data_acquisition2,14001.0,0.051513671875,0.183288574219,0.930358886719,0.313354492188,2.375,1.3125,-1.125,0.28,3.79,9.45
1455209366399154901,117,0,/imu_data_acquisition2,14012.0,0.0513305664062,0.183044433594,0.930419921875,0.313354492188,-2.75,2.4375,-0.375,-0.21,3.51,9.5
1455209366407495021,118,0,/imu_data_acquisition2,14021.0,0.0512084960938,0.183349609375,0.930297851562,0.313537597656,2.6875,1.75,-3.5,-0.23,3.8,9.02
1455209366418049097,119,0,/imu_data_acquisition2,14032.0,0.0510864257812,0.183776855469,0.930053710938,0.31396484375,4.5625,2.0,-5.5,0.06,3.66,8.85
1455209366430057048,120,0,/imu_data_acquisition2,14043.0,0.05078125,0.184020996094,0.929931640625,0.314270019531,1.875,3.5,-4.5625,-0.45,3.59,9.21
1455209366438191890,121,0,/imu_data_acquisition2,14051.0,0.050537109375,0.184326171875,0.929809570312,0.314514160156,2.5625,3.0,-3.75,0.05,3.62,9.22
1455209366446760892,122,0,/imu_data_acquisition2,14062.0,0.05029296875,0.184631347656,0.929748535156,0.314636230469,1.875,3.75,-2.8125,0.15,3.43,9.79
1455209366462682962,123,0,/imu_data_acquisition2,14077.0,0.0502319335938,0.185485839844,0.929504394531,0.314819335938,10.0625,2.75,-3.625,0.01,3.37,9.87
1455209366469902038,124,0,/imu_data_acquisition2,14082.0,0.050537109375,0.186828613281,0.929138183594,0.315124511719,16.1875,0.9375,-4.25,0.27,3.49,8.93
1455209366481431961,125,0,/imu_data_acquisition2,14096.0,0.0506591796875,0.187866210938,0.928894042969,0.315124511719,12.375,2.625,-1.25,-0.11,3.46,9.47
1455209366488619089,126,0,/imu_data_acquisition2,14102.0,0.05078125,0.188842773438,0.9287109375,0.315002441406,11.625,2.4375,0.1875,-0.16,3.39,9.65
1455209366496243000,127,0,/imu_data_acquisition2,14111.0,0.0511474609375,0.190368652344,0.928405761719,0.315063476562,19.0625,1.5,-1.8125,-0.5,3.82,9.16
1455209366507967948,128,0,/imu_data_acquisition2,14122.0,0.0516357421875,0.192016601562,0.927978515625,0.315124511719,20.5,-0.1875,-1.875,0.09,4.18,9.47
1455209366520333051,129,0,/imu_data_acquisition2,14133.0,0.0520629882812,0.193176269531,0.927734375,0.315063476562,15.25,-0.4375,-0.5,0.09,4.11,9.26
1455209366526335000,130,0,/imu_data_acquisition2,14141.0,0.0524291992188,0.194396972656,0.927490234375,0.315002441406,15.1875,-0.375,-0.5,-0.47,3.79,8.84
1455209366537981986,131,0,/imu_data_acquisition2,14152.0,0.0527954101562,0.195373535156,0.92724609375,0.315002441406,12.875,0.0,-0.75,0.18,4.08,9.12
1455209366551227092,132,0,/imu_data_acquisition2,14164.0,0.0528564453125,0.196105957031,0.927124023438,0.314880371094,8.375,2.1875,-0.4375,-0.09,3.82,8.95
1455209366556329965,133,0,/imu_data_acquisition2,14171.0,0.0526733398438,0.19677734375,0.927062988281,0.314819335938,7.0625,4.25,-0.125,0.05,3.63,9.55
1455209366569214105,134,0,/imu_data_acquisition2,14184.0,0.0526733398438,0.197448730469,0.926879882812,0.314758300781,7.8125,3.0,-0.6875,-0.04,3.57,8.85
1455209366581554889,135,0,/imu_data_acquisition2,14194.0,0.0526123046875,0.198303222656,0.9267578125,0.314636230469,10.375,4.3125,-0.1875,-0.1,4.05,9.49
1455209366586724042,136,0,/imu_data_acquisition2,14202.0,0.0524291992188,0.198608398438,0.926818847656,0.314331054688,4.1875,4.4375,2.375,-0.27,3.54,9.07
1455209366600162982,137,0,/imu_data_acquisition2,14214.0,0.0520629882812,0.198608398438,0.927001953125,0.313903808594,1.1875,6.0625,4.0625,-0.1,3.71,9.64
1455209366610882043,138,0,/imu_data_acquisition2,14223.0,0.0518798828125,0.198669433594,0.927124023438,0.313537597656,2.0625,4.625,3.875,-0.01,3.67,9.18
1455209366616724014,139,0,/imu_data_acquisition2,14232.0,0.0517578125,0.199035644531,0.927185058594,0.313110351562,4.375,5.0,3.75,-0.02,3.98,9.16
1455209366628242015,140,0,/imu_data_acquisition2,14242.0,0.0514526367188,0.199096679688,0.927368164062,0.312561035156,-0.1875,4.9375,5.8125,0.31,3.69,8.86
1455209366638113021,141,0,/imu_data_acquisition2,14252.0,0.0509643554688,0.199279785156,0.927551269531,0.31201171875,0.0,7.1875,5.5625,0.08,3.99,9.16
1455209366646722078,142,0,/imu_data_acquisition2,14261.0,0.050537109375,0.199523925781,0.927734375,0.311462402344,0.6875,7.25,5.75,0.58,3.94,8.76
1455209366658929109,143,0,/imu_data_acquisition2,14272.0,0.0498657226562,0.199462890625,0.927978515625,0.310729980469,-3.375,8.875,7.0,0.18,3.82,8.62
1455209366669238090,144,0,/imu_data_acquisition2,14282.0,0.0487060546875,0.199279785156,0.928344726562,0.309997558594,-6.0,14.0,7.125,0.37,3.82,8.9
1455209366677391052,145,0,/imu_data_acquisition2,14292.0,0.047119140625,0.198608398438,0.928833007812,0.309265136719,-14.25,17.0625,6.4375,0.97,3.21,8.51
1455209366688322067,146,0,/imu_data_acquisition2,14302.0,0.0451049804688,0.198974609375,0.928833007812,0.309265136719,-3.25,23.875,-5.4375,0.14,4.05,9.01
1455209366697755098,147,0,/imu_data_acquisition2,14311.0,0.0423583984375,0.199645996094,0.928649902344,0.309753417969,-2.5,31.0,-12.75,0.27,4.24,-0.01
1455209366707434892,148,0,/imu_data_acquisition2,14322.0,0.0400390625,0.199401855469,0.928649902344,0.310241699219,-14.5625,34.0,-15.375,0.23,3.86,8.24
1455209366719923973,149,0,/imu_data_acquisition2,14333.0,0.03564453125,0.198913574219,0.928588867188,0.311279296875,-21.8125,43.875,-21.9375,0.02,4.13,8.68
1455209366728646993,150,0,/imu_data_acquisition2,14342.0,0.0304565429688,0.198425292969,0.928344726562,0.312927246094,-24.1875,51.375,-30.75,-0.16,4.5,8.8
1455209366737844944,151,0,/imu_data_acquisition2,14352.0,0.024169921875,0.196838378906,0.928283691406,0.314636230469,-41.5625,59.0625,-33.0,-0.24,4.08,8.73
1455209366750112056,152,0,/imu_data_acquisition2,14363.0,0.0169067382812,0.194580078125,0.928283691406,0.316345214844,-52.125,67.4375,-35.25,0.07,3.62,8.36
1455209366757560968,153,0,/imu_data_acquisition2,14371.0,0.008544921875,0.192077636719,0.928283691406,0.318298339844,-59.4375,78.375,-39.8125,-0.63,3.84,8.45
1455209366768641948,154,0,/imu_data_acquisition2,14383.0,-0.0010986328125,0.189025878906,0.928344726562,0.320129394531,-69.6875,90.0625,-41.75,-1.37,3.58,8.26
1455209366779891967,155,0,/imu_data_acquisition2,14393.0,-0.0111083984375,0.184509277344,0.928588867188,0.321838378906,-88.6875,89.0625,-40.4375,-0.37,3.4,9.29
1455209366786499977,156,0,/imu_data_acquisition2,14401.0,-0.0198974609375,0.1806640625,0.928283691406,0.324462890625,-74.5,75.9375,-49.4375,-1.63,4.07,9.85
1455209366799993038,157,0,/imu_data_acquisition2,14414.0,-0.02880859375,0.17578125,0.927917480469,0.327453613281,-86.0625,72.9375,-54.25,-0.33,3.11,9.45
1455209366809384107,158,0,/imu_data_acquisition2,14423.0,-0.0376586914062,0.169738769531,0.927429199219,0.331176757812,-98.625,66.125,-63.625,-1.31,3.33,8.93
1455209366816463947,159,0,/imu_data_acquisition2,14431.0,-0.0465087890625,0.161071777344,0.926879882812,0.335754394531,-126.8125,54.5625,-73.875,-1.52,1.83,10.7
1455209366828428030,160,0,/imu_data_acquisition2,14443.0,-0.0545654296875,0.14892578125,0.926391601562,0.341491699219,-161.3125,29.25,-87.25,-0.16,2.67,-0.01
1455209366840981960,161,0,/imu_data_acquisition2,14455.0,-0.0619506835938,0.134826660156,0.925537109375,0.348327636719,-178.375,12.375,-100.5,-2.42,4.89,9.75
1455209366846143960,162,0,/imu_data_acquisition2,14461.0,-0.0697631835938,0.114440917969,0.925109863281,0.355163574219,-249.75,-8.8125,-8.0,-1.26,2.83,10.75
1455209366859630107,163,0,/imu_data_acquisition2,14473.0,-0.0789184570312,0.089599609375,0.924743652344,0.361389160156,-305.5625,-12.6875,-102.1875,0.05,1.57,11.05
1455209366869441032,164,0,/imu_data_acquisition2,14483.0,-0.0877075195312,0.0637817382812,0.923645019531,0.367614746094,-313.5,-19.4375,-106.4375,-0.18,0.17,10.2
1455209366876657962,165,0,/imu_data_acquisition2,14492.0,-0.0960083007812,0.0392456054688,0.922241210938,0.372436523438,-298.0,-18.0625,-91.1875,6.7,0.21,10.86
1455209366890166997,166,0,/imu_data_acquisition2,14505.0,-0.103271484375,0.0196533203125,0.921569824219,0.373779296875,-243.8125,-7.25,-42.875,7.72,2.49,10.95
1455209366898166894,167,0,/imu_data_acquisition2,14511.0,-0.121032714844,0.00787353515625,0.920593261719,0.371215820312,-210.5,143.5625,4.8125,10.03,2.18,12.05
1455209366907651901,168,0,/imu_data_acquisition2,14522.0,-0.154296875,0.00250244140625,0.918273925781,0.364562988281,-213.75,343.3125,51.6875,10.17,4.59,13.06
1455209366919126987,169,0,/imu_data_acquisition2,14533.0,-0.206237792969,0.003173828125,0.912109375,0.354187011719,-12.5,-0.0625,-0.0625,2.13,-5.1,12.77
1455209366928822040,170,0,/imu_data_acquisition2,14541.0,-0.268676757812,0.0164184570312,0.900695800781,0.341003417969,-150.9375,759.75,124.25,-7.74,-5.9,15.26
1455209366937217950,171,0,/imu_data_acquisition2,14552.0,-0.32666015625,0.0401611328125,0.886474609375,0.325378417969,-27.1875,764.0625,173.9375,-8.3,-7.78,14.21
1455209366950187921,172,0,/imu_data_acquisition2,14564.0,-0.374816894531,0.0700073242188,0.869445800781,0.314086914062,91.9375,692.4375,146.0,-14.05,8.47,27.22
1455209366958756923,173,0,/imu_data_acquisition2,14571.0,-0.0154418945312,-6.103515625e-05,-6.103515625e-05,0.314086914062,86.6875,517.6875,136.625,-8.11,2.97,30.05
1455209366967354059,174,0,/imu_data_acquisition2,14582.0,-0.426513671875,0.105102539062,0.849182128906,0.293212890625,4.375,254.5,114.25,7.4,0.88,23.49
1455209366981453895,175,0,/imu_data_acquisition2,14594.0,-0.438110351562,0.114135742188,0.844177246094,0.287048339844,25.9375,181.125,75.8125,-3.06,11.19,39.84
1455209366988554954,176,0,/imu_data_acquisition2,14601.0,-0.448608398438,0.113159179688,0.842224121094,0.276794433594,-96.1875,125.4375,76.25,3.51,-8.21,26.56
1455209366998858928,177,0,/imu_data_acquisition2,14612.0,-0.448608398438,0.113159179688,0.842224121094,0.276794433594,-30.75,-72.1875,76.25,7.68,-13.09,3.04
1455209367009319067,178,0,/imu_data_acquisition2,14622.0,-0.443481445312,0.112182617188,0.846984863281,0.270874023438,185.4375,-70.5625,1.875,7.07,-2.67,5.43
1455209367017200946,179,0,/imu_data_acquisition2,14631.0,-0.424133300781,0.139831542969,0.846862792969,0.288696289062,247.625,-57.75,-10.5,5.37,4.34,1.44
1455209367028587102,180,0,/imu_data_acquisition2,14642.0,-0.416137695312,0.153381347656,0.846374511719,0.294860839844,194.75,-41.4375,18.0625,4.55,5.24,5.96
1455209367039004087,181,0,/imu_data_acquisition2,14652.0,-0.410034179688,0.163391113281,0.846923828125,0.296447753906,128.875,-32.1875,46.625,3.27,5.28,9.78
1455209367046642065,182,0,/imu_data_acquisition2,14661.0,-0.402526855469,0.169250488281,0.849914550781,0.294860839844,71.375,-66.0,69.0,3.49,2.42,13.1
1455209367057218074,183,0,/imu_data_acquisition2,14672.0,-0.393371582031,0.171325683594,0.855163574219,0.290832519531,23.125,-102.0,86.6875,3.39,-0.86,13.89
1455209367068017005,184,0,/imu_data_acquisition2,14682.0,-0.381591796875,0.171997070312,0.861633300781,0.287109375,17.25,-139.1875,87.3125,3.27,-3.64,13.05
1455209367076816082,185,0,/imu_data_acquisition2,14691.0,-0.366394042969,0.174682617188,0.867797851562,0.286682128906,64.0,-173.0,68.1875,2.36,-2.39,10.99
1455209367088448047,186,0,/imu_data_acquisition2,14702.0,-0.347961425781,0.1796875,0.873352050781,0.289611816406,115.5,-202.125,48.625,1.97,-0.55,9.26
1455209367101722002,187,0,/imu_data_acquisition2,14712.0,-0.327575683594,0.185607910156,0.878540039062,0.2939453125,137.8125,-221.0,40.8125,1.44,1.4,8.37
1455209367106528997,188,0,/imu_data_acquisition2,14721.0,-0.306518554688,0.190551757812,0.883850097656,0.297546386719,127.0,-230.75,46.0625,0.23,3.41,8.97
1455209367118693113,189,0,/imu_data_acquisition2,14732.0,-0.285278320312,0.192810058594,0.889953613281,0.299072265625,90.0625,-240.1875,61.8125,-0.12,2.62,10.05
1455209367128154993,190,0,/imu_data_acquisition2,14742.0,-0.263916015625,0.192260742188,0.896850585938,0.298461914062,52.3125,-248.75,78.0625,-0.73,1.67,11.64
1455209367137166976,191,0,/imu_data_acquisition2,14752.0,-0.241760253906,0.190490722656,0.903930664062,0.296997070312,39.0,-260.5625,84.9375,-1.24,0.54,12.22
1455209367148639917,192,0,/imu_data_acquisition2,14762.0,-0.241760253906,0.190490722656,0.903930664062,0.296997070312,50.125,-274.0625,84.125,-1.86,0.53,10.44
1455209367158175945,193,0,/imu_data_acquisition2,14772.0,-0.218139648438,0.189086914062,0.910522460938,0.295959472656,74.5,-280.6875,79.1875,-2.25,1.6,8.5
1455209367167839050,194,0,/imu_data_acquisition2,14782.0,-0.168518066406,0.189758300781,0.921142578125,0.295104980469,80.625,-277.375,79.875,-2.51,2.88,7.44
1455209367179038047,195,0,/imu_data_acquisition2,14793.0,-0.145324707031,0.188293457031,0.926086425781,0.29296875,49.25,-263.5625,89.8125,-3.31,2.83,11.41
1455209367188446998,196,0,/imu_data_acquisition2,14802.0,-0.145324707031,0.188293457031,0.926086425781,0.29296875,-4.625,-253.5625,101.0625,-3.37,0.64,13.33
1455209367199007034,197,0,/imu_data_acquisition2,14814.0,-0.103454589844,0.174987792969,0.936828613281,0.28466796875,-34.1875,-251.5,97.75,-2.98,-1.1,14.13
1455209367207981109,198,0,/imu_data_acquisition2,14822.0,-0.103454589844,0.174987792969,0.936828613281,0.28466796875,-34.1875,-251.5,97.75,-4.38,1.64,17.7
1455209367217786073,199,0,/imu_data_acquisition2,14832.0,-0.06201171875,0.163146972656,0.943725585938,0.280822753906,8.4375,-251.375,59.4375,-4.98,3.37,17.59
1455209367229408979,200,0,/imu_data_acquisition2,14843.0,-0.06201171875,0.163146972656,0.943725585938,0.280822753906,10.0,-257.8125,55.0625,-5.15,4.01,17.74
1455209367238641977,201,0,/imu_data_acquisition2,14852.0,-0.0404052734375,0.158081054688,0.946044921875,0.279968261719,-12.375,-259.125,63.4375,-4.89,3.21,18.62
1455209367251305103,202,0,/imu_data_acquisition2,14865.0,0.001708984375,0.142822265625,-6.103515625e-05,0.275756835938,-29.75,-257.75,70.875,-6.13,1.44,22.7
1455209367259135007,203,0,/imu_data_acquisition2,14873.0,0.023193359375,0.134460449219,0.9521484375,0.273498535156,-26.5,-265.25,67.1875,-6.21,0.28,22.09
1455209367271338939,204,0,/imu_data_acquisition2,14883.0,0.023193359375,0.134460449219,0.9521484375,0.273498535156,-14.9375,-278.75,58.25,-6.02,-1.22,20.62
1455209367279087066,205,0,/imu_data_acquisition2,14892.0,0.0458984375,0.126647949219,0.952819824219,0.271911621094,2.0,-282.5625,45.25,-6.43,-1.58,17.95
1455209367290903091,206,0,/imu_data_acquisition2,14905.0,0.0930786132812,0.115844726562,0.950805664062,0.271911621094,30.6875,-285.5625,24.25,-6.38,0.73,16.17
1455209367300080060,207,0,/imu_data_acquisition2,14912.0,0.0930786132812,0.115844726562,0.950805664062,0.271911621094,37.9375,-281.25,11.1875,-6.56,2.35,14.63
1455209367308713912,208,0,/imu_data_acquisition2,14923.0,0.116577148438,0.1123046875,0.948181152344,0.273376464844,13.75,-269.0,12.125,-8.44,4.09,11.11
1455209367320766925,209,0,/imu_data_acquisition2,14935.0,0.138549804688,0.107055664062,0.945434570312,0.274719238281,-7.4375,-255.5625,12.6875,-8.9,6.95,8.39
1455209367333606958,210,0,/imu_data_acquisition2,14942.0,0.158874511719,0.100402832031,0.942565917969,0.276062011719,-8.6875,-240.375,9.625,-9.11,9.76,6.2
1455209367339663982,211,0,/imu_data_acquisition2,14954.0,0.192932128906,0.083984375,0.9375,0.277160644531,-58.4375,-12.5625,-0.0625,-10.32,2.59,7.3
1455209367350913047,212,0,/imu_data_acquisition2,14965.0,0.192932128906,0.083984375,0.9375,0.277160644531,-120.625,-156.375,59.4375,-11.34,0.01,8.94
1455209367356771945,213,0,/imu_data_acquisition2,14971.0,0.202880859375,0.0697631835938,0.937072753906,0.275451660156,-120.625,-156.375,59.4375,-12.56,2.35,10.24
1455209367371515989,214,0,/imu_data_acquisition2,14984.0,0.2109375,0.0595703125,0.9365234375,0.273681640625,-16.5,-100.8125,33.9375,-14.89,6.26,12.28
1455209367381426095,215,0,/imu_data_acquisition2,14993.0,0.21875,0.0552978515625,0.935546875,0.271789550781,-28.5625,-92.6875,47.5625,-19.1,4.05,11.18
1455209367388199090,216,0,/imu_data_acquisition2,15002.0,0.2255859375,0.050048828125,0.934997558594,0.268981933594,-64.6875,-95.5,72.0,-20.42,-0.03,6.7
1455209367399600028,217,0,/imu_data_acquisition2,15013.0,0.231994628906,0.0413818359375,0.93505859375,0.264892578125,-55.3125,-90.5625,79.8125,-21.03,-2.78,1.4
1455209367410135030,218,0,/imu_data_acquisition2,15022.0,0.238159179688,0.033447265625,0.935180664062,0.259948730469,-55.3125,-90.5625,79.8125,-18.68,-4.84,-4.9
1455209367418577909,219,0,/imu_data_acquisition2,15033.0,0.242919921875,0.0298461914062,0.935485839844,0.254943847656,23.0625,-2.5625,50.625,-16.94,-3.83,-1.95
1455209367433248043,220,0,/imu_data_acquisition2,15044.0,0.243713378906,0.0305786132812,0.936462402344,0.25048828125,38.1875,59.5,29.4375,-15.31,-2.17,2.68
1455209367442172050,221,0,/imu_data_acquisition2,15053.0,0.239868164062,0.0342407226562,0.938171386719,0.247192382812,27.25,99.5625,15.25,-8.33,-12.73,4.14
1455209367448498010,222,0,/imu_data_acquisition2,15062.0,-6.103515625e-05,-6.103515625e-05,-6.103515625e-05,0.2451171875,27.25,99.5625,15.25,7.71,-1.04,-0.01
1455209367458108901,223,0,/imu_data_acquisition2,15072.0,0.2216796875,0.0385131835938,0.943115234375,0.244689941406,-27.75,130.5,6.6875,3.36,8.92,27.8
1455209367469739913,224,0,/imu_data_acquisition2,15083.0,0.209228515625,0.049560546875,0.944396972656,0.248779296875,275.8125,123.25,-176.8125,7.99,19.85,13.33
1455209367478154897,225,0,/imu_data_acquisition2,15093.0,0.204345703125,0.0772705078125,0.941284179688,0.257385253906,97.4375,57.875,-162.1875,2.77,14.73,-3.18
1455209367490288972,226,0,/imu_data_acquisition2,15104.0,0.200744628906,0.0890502929688,0.93798828125,0.268188476562,-42.875,103.9375,-107.0,2.34,11.58,-4.8
1455209367498835086,227,0,/imu_data_acquisition2,15113.0,0.190734863281,0.0897827148438,0.937561035156,0.276611328125,-42.875,103.9375,-107.0,-0.34,16.89,5.87
1455209367507940053,228,0,/imu_data_acquisition2,15122.0,0.176147460938,0.0916137695312,0.939025878906,0.280639648438,31.6875,237.375,-28.4375,-6.15,13.59,19.47
1455209367520349979,229,0,/imu_data_acquisition2,15134.0,0.157836914062,0.100158691406,0.941467285156,0.280517578125,-140.5625,191.125,52.5625,0.34,-9.52,11.26
1455209367529593944,230,0,/imu_data_acquisition2,15143.0,0.139709472656,0.0928344726562,0.946228027344,0.276550292969,-291.8125,180.375,99.9375,3.09,-20.97,19.27
1455209367538328886,231,0,/imu_data_acquisition2,15153.0,0.119201660156,0.072509765625,0.952575683594,0.270446777344,-165.3125,224.75,34.5,-14.0,-2.21,-0.01
1455209367549088001,232,0,/imu_data_acquisition2,15163.0,0.0975341796875,0.06396484375,0.956359863281,0.267883300781,-165.3125,224.75,34.5,3.55,0.04,1.03
1455209367556492090,233,0,/imu_data_acquisition2,15171.0,0.0830078125,0.074951171875,0.955810546875,0.27197265625,74.125,195.75,-71.5625,3.55,0.04,1.03
1455209367569397926,234,0,/imu_data_acquisition2,15184.0,0.0852661132812,0.104675292969,0.949462890625,0.283386230469,276.0625,156.125,-149.6875,-2.53,13.25,10.47
1455209367580441951,235,0,/imu_data_acquisition2,15193.0,0.0779418945312,0.131530761719,0.944152832031,0.291870117188,14.1875,76.0625,-24.9375,3.66,-0.77,3.82
1455209367588632106,236,0,/imu_data_acquisition2,15203.0,0.0719604492188,0.134704589844,0.94384765625,0.292907714844,-113.5,67.75,32.25,-0.24,-2.49,18.09
1455209367599555015,237,0,/imu_data_acquisition2,15213.0,0.0640869140625,0.127136230469,0.9462890625,0.290283203125,-113.5,67.75,32.25,-0.62,-0.89,12.14
1455209367607768058,238,0,/imu_data_acquisition2,15221.0,0.0587768554688,0.127624511719,0.946716308594,0.289794921875,-13.5,62.5,-1.4375,-0.62,-0.89,12.14
1455209367619259119,239,0,/imu_data_acquisition2,15234.0,0.05908203125,0.136962890625,0.944458007812,0.292724609375,64.8125,16.0625,-28.4375,0.44,3.89,-0.01
1455209367629548072,240,0,/imu_data_acquisition2,15243.0,0.05908203125,0.142639160156,0.943115234375,0.294494628906,-9.8125,13.4375,-1.4375,0.34,2.04,10.44
1455209367638813972,241,0,/imu_data_acquisition2,15253.0,0.0577392578125,0.142211914062,0.943237304688,0.294494628906,7.625,6.75,-7.75,0.42,3.41,8.94
1455209367650109052,242,0,/imu_data_acquisition2,15262.0,0.0572509765625,0.143005371094,0.942993164062,0.294982910156,7.625,6.75,-7.75,0.42,3.41,8.94
1455209367664252042,243,0,/imu_data_acquisition2,15272.0,0.0574340820312,0.14501953125,0.942321777344,0.296081542969,23.25,2.8125,-15.1875,0.81,2.98,9.08
1455209367669156074,244,0,/imu_data_acquisition2,15284.0,0.0571899414062,0.146362304688,0.94189453125,0.296936035156,24.9375,7.6875,-16.0625,1.02,2.84,8.6
1455209367681138038,245,0,/imu_data_acquisition2,15294.0,0.0570068359375,0.148620605469,0.941223144531,0.297973632812,39.0625,7.0625,-19.0625,0.63,2.68,9.24
1455209367690656900,246,0,/imu_data_acquisition2,15305.0,0.0569458007812,-6.103515625e-05,-6.103515625e-05,0.300048828125,35.9375,12.125,-14.8125,0.63,2.95,10.41
1455209367700807094,247,0,/imu_data_acquisition2,15314.0,0.0569458007812,0.155212402344,0.939453125,0.300048828125,35.9375,12.125,-14.8125,0.47,3.38,10.24
1455209367706787109,248,0,/imu_data_acquisition2,15321.0,0.0568237304688,0.158142089844,0.938842773438,0.300598144531,32.75,10.0625,-10.5,0.47,3.38,10.24
1455209367721297025,249,0,/imu_data_acquisition2,15334.0,0.0567626953125,0.161254882812,0.938110351562,0.301147460938,42.0625,5.5,-13.1875,0.97,4.29,8.87
1455209367731167078,250,0,/imu_data_acquisition2,15345.0,0.0572509765625,0.164794921875,0.937255859375,0.301940917969,42.5625,6.0,-12.9375,0.64,3.82,9.27
1455209367740959882,251,0,/imu_data_acquisition2,15354.0,0.0576782226562,0.168334960938,0.936340332031,0.302673339844,42.5625,6.0,-12.9375,-0.1,3.08,9.2
1455209367750399112,252,0,/imu_data_acquisition2,15363.0,0.0575561523438,0.17138671875,0.935668945312,0.303039550781,34.0625,10.75,-9.0625,0.0,4.09,9.91
1455209367760359048,253,0,/imu_data_acquisition2,15372.0,0.0576782226562,0.174438476562,0.934997558594,0.303405761719,35.25,8.5625,-8.375,0.0,4.09,9.91
1455209367774652957,254,0,/imu_data_acquisition2,15384.0,0.0582885742188,0.178039550781,0.934143066406,0.303833007812,43.75,4.4375,-8.6875,0.06,3.95,8.71
1455209367780652046,255,0,/imu_data_acquisition2,15394.0,0.0590209960938,0.181030273438,0.933410644531,0.304016113281,27.1875,0.75,-1.3125,0.46,4.19,10.11
1455209367789868116,256,0,/imu_data_acquisition2,15404.0,0.0596313476562,0.183227539062,0.932983398438,0.304016113281,20.25,1.5,1.625,0.0,3.3,9.06
1455209367801584959,257,0,/imu_data_acquisition2,15411.0,0.06005859375,0.184875488281,0.932739257812,0.303771972656,20.25,1.5,1.625,0.0,3.3,9.06
1455209367810329914,258,0,/imu_data_acquisition2,15422.0,0.060546875,0.186340332031,0.932495117188,0.303527832031,18.625,0.1875,1.625,0.13,3.92,9.29
1455209367819215059,259,0,/imu_data_acquisition2,15433.0,0.0611572265625,0.188110351562,0.93212890625,0.303405761719,22.1875,-0.1875,0.5,0.0,4.45,9.17
1455209367830805063,260,0,/imu_data_acquisition2,15444.0,0.061767578125,0.189514160156,0.931884765625,0.303100585938,17.875,-1.0625,2.9375,-0.14,3.51,9.37
1455209367846296072,261,0,/imu_data_acquisition2,15454.0,0.0621948242188,0.189636230469,0.932067871094,0.302368164062,3.5625,-2.875,9.75,0.71,3.17,8.89
1455209367849590063,262,0,/imu_data_acquisition2,15462.0,0.0628662109375,0.189392089844,0.932373046875,0.301391601562,-0.4375,-5.875,13.3125,0.71,3.17,8.89
1455209367859945058,263,0,/imu_data_acquisition2,15472.0,0.0636596679688,0.189819335938,0.932495117188,0.300659179688,7.625,-5.4375,9.5,0.28,3.58,8.71
1455209367871926069,264,0,/imu_data_acquisition2,15484.0,0.064208984375,0.190979003906,0.932312011719,0.30029296875,15.4375,-1.3125,4.0,0.3,4.15,9.3
1455209367880086898,265,0,/imu_data_acquisition2,15494.0,0.0646362304688,0.192016601562,0.932189941406,0.299987792969,13.3125,0.0625,3.0625,0.32,3.86,9.0
1455209367891755104,266,0,/imu_data_acquisition2,15504.0,0.0646362304688,0.192687988281,0.93212890625,0.299621582031,7.75,2.6875,3.25,0.09,3.91,9.08
1455209367898905992,267,0,/imu_data_acquisition2,15512.0,0.0646362304688,0.193176269531,0.93212890625,0.299377441406,5.3125,2.25,2.3125,0.09,3.91,9.08
1455209367909282922,268,0,/imu_data_acquisition2,15524.0,0.0646362304688,0.193908691406,0.932006835938,0.29931640625,8.625,3.0625,-0.0625,0.07,4.06,8.95
1455209367925265073,269,0,/imu_data_acquisition2,15536.0,0.0645751953125,0.194580078125,0.931884765625,0.29931640625,7.0,4.0,-2.0625,0.04,4.01,9.32
1455209367935338020,270,0,/imu_data_acquisition2,15544.0,0.0643920898438,0.195251464844,0.931762695312,0.299377441406,7.0,4.0,-2.0625,0.44,3.62,9.16
1455209367939342975,271,0,/imu_data_acquisition2,15554.0,0.0641479492188,0.195556640625,0.931701660156,0.299377441406,3.8125,5.0,-1.5625,0.03,3.77,9.3
1455209367949878931,272,0,/imu_data_acquisition2,15563.0,0.0639038085938,0.195739746094,0.931701660156,0.299255371094,2.5,4.1875,-0.5625,0.03,3.77,9.3
1455209367957437992,273,0,/imu_data_acquisition2,15571.0,0.0637817382812,0.1962890625,0.931640625,0.299194335938,5.375,3.875,0.5,0.44,4.04,9.66
1455209367969341039,274,0,/imu_data_acquisition2,15584.0,0.0635986328125,0.196838378906,0.931518554688,0.299072265625,5.375,3.875,0.5,0.45,4.13,9.36
1455209367980856895,275,0,/imu_data_acquisition2,15595.0,0.0633544921875,0.197143554688,0.931518554688,0.298889160156,3.25,4.0625,1.375,0.41,3.8,8.71
1455209367994534969,276,0,/imu_data_acquisition2,15605.0,0.0633544921875,0.197326660156,0.931579589844,0.298706054688,2.75,4.25,0.5,0.1,3.95,9.1
1455209367999751091,277,0,/imu_data_acquisition2,15613.0,0.0631103515625,0.197631835938,-6.103515625e-05,0.298645019531,2.75,4.25,0.5,0.1,-0.01,-0.01
1455209368009700059,278,0,/imu_data_acquisition2,15622.0,0.0628051757812,0.198120117188,0.931518554688,0.298522949219,4.25,5.1875,0.3125,0.36,4.03,8.95
1455209368019764900,279,0,/imu_data_acquisition2,15633.0,0.0623168945312,0.198425292969,0.931579589844,0.298217773438,1.875,7.125,2.6875,0.34,4.04,8.76
1455209368030462026,280,0,/imu_data_acquisition2,15645.0,0.0615844726562,0.198303222656,0.931823730469,0.297546386719,-5.125,11.4375,8.3125,0.63,3.71,9.18
1455209368042464017,281,0,/imu_data_acquisition2,15657.0,0.0606689453125,0.198181152344,0.932189941406,0.296691894531,-5.125,11.4375,-0.0625,0.03,3.64,9.11
1455209368050188064,282,0,/imu_data_acquisition2,15664.0,0.0595703125,0.197998046875,0.932556152344,0.295837402344,-5.875,14.125,8.375,0.03,3.64,9.11
1455209368058430910,283,0,/imu_data_acquisition2,15673.0,0.0582275390625,0.197875976562,0.932861328125,0.295288085938,-6.3125,16.125,3.8125,1.11,3.67,8.33
1455209368070725917,284,0,/imu_data_acquisition2,15684.0,0.0557250976562,-6.103515625e-05,-6.103515625e-05,0.295471191406,-3.6875,28.4375,-8.0,0.62,3.52,7.69
1455209368081181049,285,0,/imu_data_acquisition2,15694.0,0.0524291992188,0.198486328125,0.932861328125,0.296020507812,-10.3125,35.8125,-13.5,0.14,-0.01,-0.01
1455209368090632915,286,0,/imu_data_acquisition2,15705.0,0.0485229492188,0.197937011719,0.932983398438,0.296752929688,-20.5,39.375,-16.5625,0.32,3.9,8.03
1455209368098011970,287,0,/imu_data_acquisition2,15711.0,0.043701171875,0.197326660156,0.932983398438,0.2978515625,-24.25,48.5625,-23.0,0.32,3.9,8.03
1455209368108155965,288,0,/imu_data_acquisition2,15722.0,0.03759765625,0.196228027344,0.93310546875,0.299072265625,-34.4375,60.75,-26.9375,0.15,4.1,8.18
1455209368118834018,289,0,/imu_data_acquisition2,15732.0,0.030029296875,0.194152832031,0.933471679688,0.300109863281,-51.1875,73.625,-26.9375,0.12,4.0,8.21
1455209368133445024,290,0,/imu_data_acquisition2,15745.0,0.0208740234375,0.190856933594,0.93408203125,0.301086425781,-70.125,87.625,-28.5,0.29,3.73,7.93
1455209368140449047,291,0,/imu_data_acquisition2,15755.0,0.0098876953125,-6.103515625e-05,-6.103515625e-05,0.30224609375,-84.125,105.75,-34.125,-0.06,5.27,11.25
1455209368150122880,292,0,/imu_data_acquisition2,15764.0,-0.0015869140625,0.183288574219,0.934997558594,0.303588867188,-82.625,110.1875,-38.6875,-0.06,5.27,11.25
1455209368156380891,293,0,/imu_data_acquisition2,15771.0,-0.01171875,0.178283691406,-6.103515625e-05,0.305297851562,-92.8125,90.25,-40.0625,-0.87,4.43,9.46
1455209368170512914,294,0,/imu_data_acquisition2,15785.0,-0.0223388671875,0.171203613281,0.935791015625,0.307495117188,-117.4375,87.4375,-45.6875,-1.98,3.3,11.34
1455209368182030916,295,0,/imu_data_acquisition2,15795.0,-0.032958984375,0.160766601562,0.936218261719,0.310668945312,-154.25,73.625,-58.375,-1.83,3.13,10.71
1455209368192562103,296,0,/imu_data_acquisition2,15805.0,-0.0426635742188,0.146362304688,0.936462402344,0.315856933594,-193.4375,44.3125,-80.5625,-0.6,3.14,11.02
1455209368199553966,297,0,/imu_data_acquisition2,15813.0,-0.0514526367188,0.127685546875,0.936645507812,0.322143554688,-237.5625,16.8125,-93.3125,-0.6,3.14,11.02
1455209368213697910,298,0,/imu_data_acquisition2,15825.0,-0.0596313476562,0.103576660156,0.936767578125,0.328918457031,-294.6875,-11.8125,-101.8125,0.01,2.81,10.28
1455209368220412969,299,0,/imu_data_acquisition2,15833.0,-0.0678100585938,0.072021484375,0.937133789062,0.334716796875,-378.0,-39.25,-95.375,0.01,2.81,10.28
1455209368231448888,300,0,/imu_data_acquisition2,15846.0,-0.0768432617188,0.0389404296875,0.9365234375,0.339904785156,-318.875,-14.375,-78.4375,2.24,-0.42,11.15
1455209368241869926,301,0,/imu_data_acquisition2,15854.0,-0.0850830078125,0.0128173828125,0.93505859375,0.343933105469,-318.875,-14.375,-0.0625,2.24,-0.42,11.15
1455209368343013048,302,0,/imu_data_acquisition2,15862.0,-0.0971069335938,-0.00518798828125,-6.103515625e-05,0.344360351562,-247.8125,61.125,-29.5625,11.33,-1.78,10.71
1455209368399882078,303,0,/imu_data_acquisition2,15872.0,-0.119506835938,-0.0136108398438,0.932434082031,0.340698242188,-188.0625,214.75,26.5,5.44,-0.66,10.98
1455209368403526067,304,0,/imu_data_acquisition2,15885.0,-0.154113769531,-0.0120239257812,0.929626464844,0.334533691406,-131.4375,392.0625,64.625,9.3,-3.91,12.27
1455209368405213117,305,0,/imu_data_acquisition2,15895.0,-0.202331542969,0.0,0.923400878906,0.326232910156,-75.0625,589.25,95.625,3.19,0.28,12.03
1455209368407134056,306,0,/imu_data_acquisition2,15905.0,-0.256896972656,0.0208740234375,0.914306640625,0.312438964844,-15.5625,700.125,166.25,-2.53,-3.84,12.83
1455209368407866954,307,0,/imu_data_acquisition2,15911.0,-0.311462402344,0.0501098632812,0.9013671875,0.296691894531,70.1875,743.25,197.9375,-2.53,-3.84,12.83
1455209368408862113,308,0,/imu_data_acquisition2,15921.0,-0.360778808594,0.080322265625,0.885009765625,0.283081054688,108.625,701.9375,170.375,-10.28,-0.88,17.72
1455209368409862041,309,0,/imu_data_acquisition2,15931.0,-0.399658203125,0.10400390625,0.869506835938,0.270935058594,81.1875,565.625,139.75,-12.92,0.84,27.85
1455209368411784887,310,0,/imu_data_acquisition2,15943.0,-0.416687011719,0.122680664062,0.860412597656,0.266479492188,127.5,283.375,83.8125,-10.32,2.49,35.93
1455209368413201093,311,0,/imu_data_acquisition2,15952.0,-0.418640136719,0.150512695312,0.853271484375,0.272033691406,315.1875,135.0625,55.3125,-13.28,27.07,30.52
1455209368414666891,312,0,/imu_data_acquisition2,15961.0,-0.423400878906,0.154968261719,0.852722167969,0.263793945312,-9.9375,79.5625,94.9375,-1.66,22.39,38.71
1455209368416001081,313,0,/imu_data_acquisition2,15971.0,-0.417053222656,0.143859863281,0.863586425781,0.244140625,-210.75,-117.0,188.9375,6.85,-8.48,5.58
1455209368417413949,314,0,/imu_data_acquisition2,15981.0,-0.411315917969,0.144653320312,-6.103515625e-05,0.235412597656,-26.8125,-65.875,117.25,6.54,-9.12,9.67
1455209368419612884,315,0,/imu_data_acquisition2,15993.0,-0.403015136719,0.157348632812,0.869140625,0.239624023438,173.0625,-59.6875,34.3125,5.76,-2.49,3.59
1455209368420861959,316,0,/imu_data_acquisition2,16002.0,-0.395202636719,0.170959472656,0.86865234375,0.244995117188,189.0,-49.3125,22.5,4.83,2.25,2.21
1455209368422337055,317,0,/imu_data_acquisition2,16011.0,-0.389770507812,0.177795410156,0.869812011719,0.244812011719,82.4375,-41.0625,48.25,3.38,0.83,10.79
1455209368423893928,318,0,/imu_data_acquisition2,16021.0,-0.383483886719,0.178955078125,0.873168945312,0.241882324219,9.625,-70.9375,58.4375,3.94,-2.61,12.48
1455209368425765037,319,0,/imu_data_acquisition2,16031.0,-0.374694824219,0.180053710938,0.876892089844,0.241394042969,26.3125,-104.0,39.0625,3.76,-3.73,13.36
1455209368429452896,320,0,/imu_data_acquisition2,16042.0,-0.362854003906,0.182495117188,0.880493164062,0.244506835938,65.75,-138.3125,14.5625,3.52,-2.99,12.78
1455209368442008972,321,0,/imu_data_acquisition2,16057.0,-0.348571777344,0.18505859375,0.884338378906,0.249389648438,89.8125,-193.875,-8.625,2.81,-0.29,9.6
1455209368448481082,322,0,/imu_data_acquisition2,16061.0,-0.332275390625,0.187377929688,0.888305664062,0.255676269531,89.8125,-193.875,-8.625,2.81,-0.29,9.6
1455209368457539081,323,0,/imu_data_acquisition2,16072.0,-0.314514160156,0.189880371094,0.892150878906,0.262878417969,99.9375,-210.25,-14.75,2.41,1.51,9.59
1455209368466087102,324,0,/imu_data_acquisition2,16081.0,-0.295593261719,0.191772460938,0.896240234375,0.269470214844,94.3125,-223.5,-7.8125,0.79,4.69,12.85
1455209368480582952,325,0,/imu_data_acquisition2,16094.0,-0.275390625,0.192199707031,0.901062011719,0.2744140625,75.0,-241.375,10.125,-0.33,4.7,14.23
1455209368488315105,326,0,/imu_data_acquisition2,16103.0,-0.253051757812,0.191528320312,0.906616210938,0.278137207031,65.0625,-267.0625,27.5625,-0.42,2.91,13.32
1455209368501106977,327,0,/imu_data_acquisition2,16113.0,-0.228637695312,0.192138671875,0.911804199219,0.28173828125,86.375,-284.25,35.5625,-1.29,2.6,8.9
1455209368512871980,328,0,/imu_data_acquisition2,16123.0,-0.203125,0.194030761719,0.916442871094,0.285034179688,103.75,-288.8125,42.625,-1.48,2.89,6.03
1455209368519349098,329,0,/imu_data_acquisition2,16134.0,-0.178527832031,0.195983886719,0.920471191406,0.287048339844,99.875,-274.5,53.0625,-1.38,3.71,4.5
1455209368531887054,330,0,/imu_data_acquisition2,16145.0,-0.156494140625,0.196105957031,0.924560546875,0.286804199219,66.0,-248.4375,67.75,-1.21,3.76,4.7
1455209368538264989,331,0,/imu_data_acquisition2,16152.0,-0.137268066406,0.193115234375,0.928955078125,0.284362792969,18.0625,-222.9375,81.4375,-2.23,3.11,11.13
1455209368551542997,332,0,/imu_data_acquisition2,16164.0,-0.119079589844,0.187805175781,-6.103515625e-05,0.281005859375,-13.625,-217.875,85.0625,-2.49,1.64,14.36
1455209368558633089,333,0,/imu_data_acquisition2,16173.0,-0.100036621094,0.183288574219,0.937438964844,0.278686523438,2.0,-225.625,74.6875,-2.12,1.53,16.38
1455209368568844079,334,0,/imu_data_acquisition2,16181.0,-0.0794677734375,0.181518554688,0.940124511719,0.277404785156,40.8125,-234.5,65.5625,-3.84,5.93,18.14
1455209368581315040,335,0,/imu_data_acquisition2,16194.0,-0.0579223632812,0.180114746094,0.942443847656,0.275634765625,48.25,-242.6875,72.1875,-4.5,6.93,17.4
1455209368591347932,336,0,/imu_data_acquisition2,16205.0,-0.0362548828125,0.1767578125,0.945190429688,0.272216796875,24.8125,-247.375,90.5625,-4.28,5.87,14.94
1455209368596977949,337,0,/imu_data_acquisition2,16211.0,-0.0158081054688,0.171997070312,0.947998046875,0.267272949219,4.8125,-234.875,105.75,-4.3,3.63,15.99
1455209368608119964,338,0,/imu_data_acquisition2,16222.0,0.00311279296875,0.165954589844,0.950927734375,0.261169433594,-15.3125,-220.125,114.75,-4.63,2.49,19.11
1455209368619873046,339,0,/imu_data_acquisition2,16233.0,0.0216674804688,0.158630371094,0.953552246094,0.255187988281,-29.5,-219.3125,112.5625,-5.83,1.46,-0.01
1455209368628071069,340,0,/imu_data_acquisition2,16241.0,0.0415649414062,0.150512695312,0.955505371094,0.250366210938,-34.25,-239.5625,99.375,-6.17,-1.91,19.58
1455209368639964103,341,0,/imu_data_acquisition2,16255.0,0.062255859375,0.142272949219,0.956420898438,0.247314453125,-31.9375,-13.125,-0.0625,-6.22,-2.87,17.87
1455209368650765895,342,0,/imu_data_acquisition2,16263.0,0.0829467773438,0.135375976562,0.956115722656,0.246154785156,-16.5,-252.6875,52.375,-6.48,-2.11,16.12
1455209368658396005,343,0,/imu_data_acquisition2,16271.0,0.102966308594,0.129211425781,0.954956054688,0.246398925781,-9.375,-246.125,31.9375,-6.72,-0.25,13.85
1455209368672318935,344,0,/imu_data_acquisition2,16287.0,0.12109375,0.12158203125,0.953674316406,0.247131347656,-55.0625,-209.5625,19.0625,-0.89,-0.01,-0.01
1455209368683198928,345,0,/imu_data_acquisition2,16297.0,0.137023925781,0.112548828125,0.952331542969,0.248229980469,-55.0625,-209.5625,19.0625,-8.53,5.45,8.87
1455209368691086053,346,0,/imu_data_acquisition2,16304.0,0.151184082031,0.103332519531,0.950744628906,0.250122070312,-14.75,-0.0625,-0.0625,-8.53,5.45,8.87
1455209368700794935,347,0,/imu_data_acquisition2,16315.0,0.162841796875,0.0916748046875,0.949645996094,0.251403808594,-98.0625,-168.8125,17.625,-10.77,7.4,11.76
1455209368709234952,348,0,/imu_data_acquisition2,16321.0,0.172058105469,0.075439453125,0.949523925781,0.251281738281,-154.4375,-152.5,42.0625,-11.31,3.13,12.23
1455209368720526933,349,0,/imu_data_acquisition2,16335.0,0.180847167969,0.0603637695312,0.949096679688,0.250732421875,-141.875,-143.875,43.5,-12.0,0.31,12.47
1455209368731950044,350,0,/imu_data_acquisition2,16346.0,0.190795898438,0.0514526367188,0.94775390625,0.25048828125,-69.5,-140.9375,25.375,-14.07,3.49,8.88
1455209368737796068,351,0,/imu_data_acquisition2,16351.0,0.200988769531,0.0462646484375,0.946105957031,0.249755859375,-25.0625,-133.375,21.0,-15.55,5.35,6.56
1455209368748394966,352,0,/imu_data_acquisition2,16363.0,0.209716796875,0.040771484375,0.945068359375,0.247314453125,-29.3125,-114.625,42.25,-16.73,4.78,4.02
1455209368758811950,353,0,/imu_data_acquisition2,16372.0,0.215515136719,0.0341796875,0.945251464844,0.24267578125,-45.3125,-81.5,71.75,-17.56,2.09,1.73
1455209368768002986,354,0,/imu_data_acquisition2,16381.0,0.218322753906,0.0291137695312,0.9462890625,0.236572265625,-33.5,-40.6875,85.0,-18.34,-1.04,0.96
1455209368782516956,355,0,/imu_data_acquisition2,16396.0,0.218322753906,0.0256958007812,0.948059082031,0.230041503906,-22.0625,-3.0,87.0625,-17.22,-2.61,1.22
1455209368792768955,356,0,/imu_data_acquisition2,16407.0,0.215209960938,0.0225830078125,0.950256347656,0.223937988281,-27.875,34.5625,81.625,-15.91,-5.3,2.74
1455209368796386957,357,0,/imu_data_acquisition2,16411.0,0.210205078125,0.0218505859375,0.952453613281,0.219482421875,-11.0,60.75,56.25,-13.3,-6.97,7.1
1455209368816390037,358,0,/imu_data_acquisition2,16423.0,0.204528808594,0.0233764648438,0.954162597656,0.217346191406,7.5625,72.5625,23.1875,-10.91,-8.75,5.95
1455209368819725036,359,0,/imu_data_acquisition2,16433.0,0.196044921875,0.0218505859375,0.955871582031,0.2177734375,-41.0625,96.0625,1.1875,-6.38,-19.38,3.71
1455209368830672025,360,0,/imu_data_acquisition2,16444.0,0.184875488281,0.0322875976562,0.956237792969,0.224548339844,73.5625,152.4375,-102.6875,-0.46,-0.43,25.12
1455209368843636035,361,0,/imu_data_acquisition2,16457.0,0.182800292969,0.0680541992188,0.951721191406,0.236938476562,374.625,103.75,-231.625,11.54,14.35,13.94
1455209368848598957,362,0,/imu_data_acquisition2,16462.0,0.182495117188,0.0917358398438,0.945739746094,0.252807617188,236.75,43.9375,-247.125,9.39,13.79,-10.02
1455209368857203960,363,0,/imu_data_acquisition2,16472.0,0.172424316406,0.107543945312,0.941955566406,0.267333984375,119.0,136.5,-219.0625,1.82,28.64,-4.71
1455209368868571996,364,0,/imu_data_acquisition2,16482.0,0.158630371094,0.126892089844,0.939270019531,0.276550292969,157.1875,197.5625,-168.375,-3.44,31.89,-2.48
1455209368876800060,365,0,/imu_data_acquisition2,16491.0,0.138732910156,0.1455078125,0.939331054688,0.277893066406,139.0625,280.75,-79.625,-10.06,35.32,13.38
1455209368894433975,366,0,/imu_data_acquisition2,16508.0,0.115905761719,0.145385742188,0.94384765625,0.273071289062,-76.5,269.1875,29.375,-11.54,27.81,28.02
1455209368903162956,367,0,/imu_data_acquisition2,16517.0,0.0945434570312,0.116760253906,0.952880859375,0.263549804688,-391.25,175.4375,138.1875,2.09,-27.94,13.56
1455209368911005020,368,0,/imu_data_acquisition2,16524.0,0.0697021484375,0.094970703125,0.959167480469,0.257019042969,-324.9375,228.25,82.8125,-9.72,-33.22,34.36
1455209368918486118,369,0,/imu_data_acquisition2,16533.0,0.0624389648438,0.111633300781,0.955993652344,0.263977050781,165.125,122.625,-110.0625,-6.74,-14.28,33.27
1455209368930269956,370,0,/imu_data_acquisition2,16544.0,0.07275390625,0.152648925781,0.944763183594,0.280822753906,498.875,-19.0,-242.75,-1.41,30.69,3.89
1455209368941323041,371,0,/imu_data_acquisition2,16556.0,0.0706787109375,0.177307128906,0.938110351562,0.2890625,274.125,84.5625,-139.9375,-2.06,28.54,20.44
1455209368946537971,372,0,/imu_data_acquisition2,16561.0,0.06201171875,0.166564941406,0.941162109375,0.287414550781,-153.75,65.5625,20.1875,-1.68,3.75,8.57
1455209368960309982,373,0,/imu_data_acquisition2,16573.0,0.0549926757812,0.159240722656,0.943359375,0.285888671875,-108.625,57.625,15.375,-0.34,0.0,14.24
1455209368968656063,374,0,/imu_data_acquisition2,16583.0,0.054443359375,0.166809082031,0.941101074219,0.2890625,84.4375,24.25,-48.5625,-0.56,5.62,8.95
1455209368983800888,375,0,/imu_data_acquisition2,16598.0,0.0550537109375,0.174377441406,0.938781738281,0.2919921875,89.4375,11.5625,-44.5625,0.07,6.21,12.2
1455209368991101026,376,0,/imu_data_acquisition2,16602.0,0.0540771484375,0.176147460938,0.938293457031,0.292541503906,16.9375,15.75,-10.8125,0.07,6.21,12.2
1455209368999332904,377,0,/imu_data_acquisition2,16613.0,0.0534057617188,0.175964355469,0.938415527344,0.292541503906,-4.8125,6.625,-0.75,0.23,2.11,9.59
1455209369009197950,378,0,/imu_data_acquisition2,16622.0,0.0540161132812,0.179077148438,0.9375,0.293395996094,38.375,1.6875,-13.3125,0.03,4.54,9.94
1455209369016618967,379,0,/imu_data_acquisition2,16631.0,0.054931640625,0.182006835938,0.936584472656,0.294311523438,36.8125,-2.5625,-13.4375,0.0,5.43,8.75
1455209369030584096,380,0,/imu_data_acquisition2,16645.0,0.0550537109375,0.182922363281,0.936340332031,0.294555664062,10.625,1.375,-3.8125,0.77,3.9,10.6
1455209369039088010,381,0,/imu_data_acquisition2,16652.0,0.054931640625,0.183288574219,0.936279296875,0.294616699219,4.125,2.5625,-1.3125,0.14,2.7,9.16
1455209369047218084,382,0,/imu_data_acquisition2,16662.0,0.0550537109375,0.184753417969,-6.103515625e-05,0.294860839844,16.9375,3.0,-4.5,0.16,-0.01,-0.01
1455209369058650016,383,0,/imu_data_acquisition2,16673.0,0.0553588867188,0.185913085938,0.935607910156,0.294982910156,15.0,-0.125,-2.3125,0.07,3.84,8.96
1455209369071317911,384,0,/imu_data_acquisition2,16684.0,0.0556030273438,0.187072753906,0.935424804688,0.294860839844,13.5,1.5625,-0.375,0.16,4.17,9.63
1455209369077236890,385,0,/imu_data_acquisition2,16692.0,0.0557250976562,0.1875,0.935363769531,0.294738769531,5.75,0.4375,1.1875,-0.22,3.85,8.94
