%time,field.header.seq,field.header.stamp,field.header.frame_id,field.time_stamp,field.quat_x,field.quat_y,field.quat_z,field.quat_w,field.gyro_x,field.gyro_y,field.gyro_z,field.accel_x,field.accel_y,field.accel_z
1455210056915533065,1,0,/imu_data_acquisition2,7739.0,-0.02978515625,-0.0270385742188,0.877197265625,0.478454589844,-85.0,348.1875,52.375,1.93,0.36,13.33
1455210056923657894,2,0,/imu_data_acquisition2,7750.0,-0.0694580078125,-0.0110473632812,0.877685546875,0.47412109375,-49.6875,631.5,104.25,-1.38,-1.22,13.42
1455210056934386014,3,0,/imu_data_acquisition2,7760.0,-0.118225097656,0.0111083984375,0.876770019531,0.466003417969,-34.5,733.9375,142.6875,-3.46,-0.38,11.8
1455210056943715095,4,0,/imu_data_acquisition2,7769.0,-0.173461914062,0.038818359375,0.873352050781,0.453491210938,-31.0625,779.0625,142.5625,-5.07,0.63,16.93
1455210056957556009,5,0,/imu_data_acquisition2,7781.0,-0.231140136719,0.0682983398438,0.865600585938,0.43896484375,-31.0625,779.0625,142.5625,-9.3,-0.37,21.55
1455210056963994979,6,0,/imu_data_acquisition2,7789.0,-0.286437988281,0.0960693359375,0.853942871094,0.423706054688,-31.0625,681.5,137.5,-4.48,3.27,22.28
1455210056975029945,7,0,/imu_data_acquisition2,7800.0,-0.335021972656,0.121337890625,0.841186523438,0.406799316406,-25.3125,507.375,156.75,-9.13,12.12,37.28
1455210056985308885,8,0,/imu_data_acquisition2,7810.0,-0.369995117188,0.141235351562,0.831604003906,0.389343261719,-110.4375,209.125,91.9375,4.88,-3.73,35.51
1455210056996452093,9,0,/imu_data_acquisition2,7820.0,-0.387084960938,0.143188476562,0.829223632812,0.376892089844,-81.75,-1.5625,55.5625,5.16,-5.95,19.23
1455210057004693984,10,0,/imu_data_acquisition2,7829.0,-0.388916015625,0.139221191406,0.83203125,0.370300292969,-81.75,-1.5625,55.5625,5.16,-5.95,19.23
1455210057015799999,11,0,/imu_data_acquisition2,7841.0,-0.384094238281,0.136840820312,0.836059570312,0.367065429688,37.0625,-92.0625,31.3125,4.7,-1.78,3.44
1455210057026278018,12,0,/imu_data_acquisition2,7851.0,-0.376098632812,0.137634277344,-6.103515625e-05,0.367126464844,69.3125,-85.125,22.625,4.79,-0.42,3.05
1455210057036653041,13,0,/imu_data_acquisition2,7861.0,-0.367614746094,0.140625,0.842102050781,0.368713378906,72.5625,-77.1875,19.1875,3.98,0.15,4.3
1455210057047039985,14,0,/imu_data_acquisition2,7871.0,-0.359619140625,0.143981933594,0.84423828125,0.370483398438,54.8125,-83.8125,20.25,3.43,-0.66,9.11
1455210057055823087,15,0,/imu_data_acquisition2,7881.0,-0.351684570312,0.145874023438,0.8466796875,0.371704101562,31.0,-102.9375,20.8125,3.11,-1.77,11.32
1455210057066086053,16,0,/imu_data_acquisition2,7890.0,-0.343017578125,0.145446777344,0.849975585938,0.372375488281,31.0,-102.9375,20.8125,3.11,-1.77,11.32
1455210057076849937,17,0,/imu_data_acquisition2,7901.0,-0.333068847656,0.143005371094,0.854064941406,0.373107910156,13.875,-163.5,10.0,2.28,-2.93,14.05
1455210057086664915,18,0,/imu_data_acquisition2,7912.0,-0.320678710938,0.139099121094,0.858703613281,0.374694824219,24.5,-199.3125,-0.9375,0.95,-1.91,13.78
1455210057106467008,20,0,/imu_data_acquisition2,7931.0,-0.287292480469,0.129699707031,0.868774414062,0.382019042969,38.9375,-232.0625,-9.625,-0.35,-0.42,10.28
1455210057115624904,21,0,/imu_data_acquisition2,7941.0,-0.266662597656,0.12451171875,0.873840332031,0.387023925781,48.875,-261.0,-14.25,-0.88,0.67,6.49
1455210057128608942,22,0,/imu_data_acquisition2,7952.0,-0.244140625,0.118774414062,0.87890625,0.392150878906,52.75,-293.0,-11.625,-1.24,1.49,5.91
1455210057134896039,23,0,/imu_data_acquisition2,7961.0,-0.220703125,0.112670898438,0.8837890625,0.396911621094,52.0625,-293.375,-3.5625,-1.4,2.37,6.8
1455210057146958112,24,0,/imu_data_acquisition2,7972.0,-0.197021484375,0.106628417969,0.888366699219,0.400817871094,51.9375,-288.25,9.4375,-2.45,4.29,10.53
1455210057152647018,25,0,/imu_data_acquisition2,7978.0,-0.173461914062,0.100891113281,0.892700195312,0.403442382812,51.9375,-0.0625,-0.0625,-2.45,4.29,10.53
1455210057164911031,26,0,/imu_data_acquisition2,7990.0,-0.150024414062,0.095458984375,0.897155761719,0.404357910156,51.0625,-283.875,27.875,-4.05,4.58,14.08
1455210057177972078,27,0,/imu_data_acquisition2,8003.0,-0.12646484375,0.0897827148438,0.901794433594,0.4033203125,37.125,-291.625,72.8125,-5.15,2.35,14.6
1455210057184740066,28,0,/imu_data_acquisition2,8010.0,-0.102355957031,0.0834350585938,0.906860351562,0.400268554688,30.6875,-298.4375,90.9375,-5.49,0.96,13.21
1455210057197911024,29,0,/imu_data_acquisition2,8023.0,-0.0778198242188,0.076416015625,0.911987304688,0.3955078125,26.125,-302.1875,100.3125,-5.49,-0.23,11.82
1455210057208205938,30,0,/imu_data_acquisition2,8030.0,-0.052978515625,0.0689697265625,0.916809082031,0.389770507812,26.125,-302.1875,100.3125,-5.49,-0.23,11.82
1455210057214176893,31,0,/imu_data_acquisition2,8040.0,-0.0287475585938,0.06103515625,0.921020507812,0.383666992188,17.75,-297.5,100.3125,-4.79,-2.89,11.62
1455210057227401971,32,0,/imu_data_acquisition2,8052.0,-0.00616455078125,0.0523681640625,0.92431640625,0.377990722656,-11.75,-264.4375,71.25,-4.67,-2.54,15.25
1455210057237982034,33,0,/imu_data_acquisition2,8061.0,0.014404296875,0.0430297851562,0.926513671875,0.373474121094,-33.5625,-245.75,51.3125,-5.91,-2.69,20.37
1455210057245138883,34,0,/imu_data_acquisition2,8071.0,0.0327758789062,0.0325927734375,0.927734375,0.370300292969,-47.4375,-240.875,31.375,-6.8,-3.71,22.01
1455210057255119085,35,0,/imu_data_acquisition2,8080.0,0.0502319335938,0.021240234375,0.927978515625,0.368591308594,-47.4375,-240.875,31.375,-6.76,-2.68,21.42
1455210057268770933,36,0,/imu_data_acquisition2,8092.0,0.06884765625,0.0101928710938,0.927062988281,0.368286132812,-21.9375,-259.5,-3.125,-7.41,-1.32,21.67
1455210057275006055,37,0,/imu_data_acquisition2,8101.0,0.0884399414062,0.00042724609375,0.92529296875,0.368835449219,-13.125,-262.5,-9.5,-8.19,-0.74,20.41
1455210057286552906,38,0,/imu_data_acquisition2,8112.0,0.108520507812,-0.00872802734375,0.922790527344,0.369567871094,-19.3125,-268.0625,-14.6875,-8.36,-0.72,18.27
1455210057300625085,39,0,/imu_data_acquisition2,8123.0,0.128784179688,-0.0184326171875,0.919616699219,0.37060546875,-32.1875,-272.375,-21.125,-8.62,-0.46,15.75
1455210057305346965,40,0,/imu_data_acquisition2,8131.0,0.14892578125,-0.0292358398438,0.915710449219,0.3720703125,-43.6875,-266.8125,-27.125,-10.27,4.5,10.11
1455210057315375089,41,0,/imu_data_acquisition2,8140.0,0.168212890625,-0.0406494140625,0.9111328125,0.373962402344,-43.6875,-266.8125,-27.125,-10.27,4.5,10.11
1455210057328200101,42,0,/imu_data_acquisition2,8152.0,0.18603515625,-6.103515625e-05,-6.103515625e-05,0.376403808594,-56.125,-253.5625,-33.8125,-10.08,4.98,6.71
1455210057335525035,43,0,/imu_data_acquisition2,8161.0,0.201599121094,-0.0653686523438,0.900695800781,0.379333496094,-93.125,-197.5,-29.4375,-10.86,3.57,6.44
1455210057346957921,44,0,/imu_data_acquisition2,8172.0,0.213745117188,-0.0783081054688,0.895690917969,0.382019042969,-82.1875,-161.4375,-24.5,-12.54,2.95,5.37
1455210057354058027,45,0,/imu_data_acquisition2,8179.0,0.223449707031,-0.0892333984375,0.891357421875,0.384216308594,-82.1875,-161.4375,-24.5,-12.54,2.95,5.37
1455210057363610982,46,0,/imu_data_acquisition2,8189.0,0.231201171875,-0.09765625,0.887756347656,0.385864257812,-61.5,-127.75,-19.8125,-14.0,3.82,4.86
1455210057376390933,47,0,/imu_data_acquisition2,8201.0,0.23681640625,-0.104431152344,0.884948730469,0.387145996094,-51.9375,-96.5,-13.8125,-23.64,3.96,7.96
1455210057386113882,48,0,/imu_data_acquisition2,8211.0,0.240173339844,-0.111022949219,0.882934570312,0.387756347656,-58.0625,-69.875,-1.5625,-24.26,1.81,5.44
1455210057395915985,49,0,/imu_data_acquisition2,8222.0,0.242126464844,-0.118041992188,0.881774902344,0.387268066406,-64.375,-56.5,17.4375,-22.06,-0.63,0.17
1455210057405781984,50,0,/imu_data_acquisition2,8229.0,0.24365234375,-0.124816894531,0.881225585938,0.385375976562,-59.3125,-51.375,34.5625,-22.06,-0.63,0.17
1455210057416661977,51,0,/imu_data_acquisition2,8241.0,0.241516113281,-6.103515625e-05,-6.103515625e-05,0.382629394531,-8.3125,19.1875,41.6875,-15.05,-5.25,-3.41
1455210057426659107,52,0,/imu_data_acquisition2,8252.0,0.239318847656,-0.126525878906,0.884521484375,0.3798828125,36.8125,95.0625,28.875,-15.96,-7.54,1.38
1455210057438113927,53,0,/imu_data_acquisition2,8262.0,0.233093261719,-0.121276855469,0.887756347656,0.377990722656,36.8125,95.0625,28.875,-9.24,-6.2,7.39
1455210057449404954,54,0,/imu_data_acquisition2,8271.0,0.22412109375,-0.110473632812,0.891784667969,0.377136230469,81.4375,152.875,9.9375,4.02,9.25,20.28
1455210057454732894,55,0,/imu_data_acquisition2,8280.0,0.215270996094,-0.0943603515625,0.894714355469,0.379821777344,127.25,176.8125,-46.625,4.02,9.25,20.28
1455210057465656995,56,0,/imu_data_acquisition2,8290.0,0.202758789062,-0.0864868164062,0.895751953125,0.385986328125,13.125,177.3125,-66.625,4.47,8.6,13.08
1455210057481604099,57,0,/imu_data_acquisition2,8301.0,0.188049316406,-6.103515625e-05,-6.103515625e-05,0.391540527344,-29.375,186.5,-49.1875,4.6,10.77,1.58
1455210057486083984,58,0,/imu_data_acquisition2,8312.0,0.169799804688,-0.0740356445312,0.900207519531,0.39404296875,-19.5,254.3125,2.625,-4.74,7.18,18.63
1455210057499275922,59,0,/imu_data_acquisition2,8323.0,0.149780273438,-0.0670776367188,0.903625488281,0.395629882812,-34.125,223.3125,1.4375,-5.46,-0.79,21.0
1455210057503144025,60,0,/imu_data_acquisition2,8329.0,0.131530761719,-0.062255859375,0.906127929688,0.397094726562,-34.125,223.3125,1.4375,-5.46,-0.79,21.0
1455210057514513969,61,0,/imu_data_acquisition2,8340.0,0.115783691406,-0.0569458007812,0.907836914062,0.399047851562,-18.5625,197.875,-9.4375,-3.06,-11.05,23.05
1455210057527128934,62,0,/imu_data_acquisition2,8352.0,0.1044921875,-0.045654296875,0.908508300781,0.401977539062,88.375,102.75,-38.8125,-5.82,2.39,19.16
1455210057536901950,63,0,/imu_data_acquisition2,8361.0,0.0997314453125,-0.0350341796875,0.908386230469,0.404541015625,88.375,102.75,-38.8125,-0.67,4.69,14.24
1455210057547095060,64,0,/imu_data_acquisition2,8372.0,0.0989379882812,-0.0278930664062,0.908386230469,0.405334472656,72.1875,43.0625,-17.0,0.58,-0.43,11.95
1455210057554178953,65,0,/imu_data_acquisition2,8379.0,0.0988159179688,-0.0234375,0.908447265625,0.405517578125,47.0625,22.5625,-6.125,0.58,-0.43,11.95
1455210057563358068,66,0,/imu_data_acquisition2,8389.0,0.0980834960938,-0.0205688476562,0.90869140625,0.4052734375,27.625,22.1875,0.4375,-1.79,2.19,13.71
1455210057575501918,67,0,/imu_data_acquisition2,8401.0,0.0974731445312,-0.0184936523438,0.908874511719,0.405029296875,19.5625,16.75,1.4375,-1.06,1.12,10.15
1455210057588824987,68,0,/imu_data_acquisition2,8414.0,0.0966186523438,-0.0169677734375,0.909118652344,0.404846191406,11.8125,12.8125,-2.125,-0.35,1.63,10.32
1455210057597678899,69,0,/imu_data_acquisition2,8423.0,0.0960083007812,-0.0155639648438,0.9091796875,0.404968261719,11.375,-0.0625,-0.0625,0.0,1.27,9.78
1455210057605755090,70,0,/imu_data_acquisition2,8429.0,0.0955810546875,-0.0142822265625,0.909118652344,0.405212402344,11.375,11.0,-4.6875,0.0,1.27,9.78
1455210057615453958,71,0,/imu_data_acquisition2,8439.0,0.0952758789062,-0.0131225585938,0.908996582031,0.405578613281,10.625,8.8125,-5.75,0.34,1.44,9.99
1455210057625351905,72,0,/imu_data_acquisition2,8451.0,0.0950927734375,-0.0120239257812,0.908813476562,0.406066894531,10.5625,6.875,-7.0,0.29,0.95,9.59
1455210057636832952,73,0,/imu_data_acquisition2,8462.0,0.0947875976562,-0.010986328125,0.90869140625,0.406372070312,9.1875,8.3125,-4.8125,0.34,0.7,8.92
1455210057647638082,74,0,/imu_data_acquisition2,8472.0,0.0947875976562,-0.0101318359375,0.908569335938,0.406677246094,8.6875,3.6875,-4.875,-0.31,1.05,10.12
1455210057654493093,75,0,/imu_data_acquisition2,8479.0,0.0946655273438,-0.009521484375,0.908508300781,0.406921386719,5.875,4.25,-3.375,-0.31,1.05,10.12
1455210057667083978,76,0,/imu_data_acquisition2,8489.0,0.0946655273438,-0.00897216796875,0.908508300781,0.406921386719,5.3125,2.75,-1.125,-0.18,0.9,10.38
1455210057673171043,77,0,/imu_data_acquisition2,8499.0,0.0946044921875,-0.008544921875,0.908569335938,0.406799316406,4.8125,2.5,1.75,0.18,0.75,9.76
1455210057687371015,78,0,/imu_data_acquisition2,8512.0,0.0944213867188,-0.00811767578125,0.908752441406,0.406372070312,4.125,4.125,4.375,-0.17,1.04,10.18
1455210057698426008,79,0,/imu_data_acquisition2,8523.0,0.0941772460938,-6.103515625e-05,-6.103515625e-05,0.405944824219,0.625,4.1875,5.6875,-0.08,1.48,10.42
1455210057702881097,80,0,/imu_data_acquisition2,8529.0,0.0938720703125,-0.0076904296875,0.909240722656,0.405517578125,0.625,4.1875,5.6875,-0.08,1.48,10.42
1455210057716331958,81,0,/imu_data_acquisition2,8542.0,0.0935668945312,-0.007568359375,0.909362792969,0.405212402344,-0.25,3.9375,4.125,0.05,1.37,10.22
1455210057727001905,82,0,/imu_data_acquisition2,8551.0,0.09326171875,-0.00750732421875,0.909484863281,0.405029296875,-0.5,3.375,2.6875,0.02,1.61,9.81
1455210057738349914,83,0,/imu_data_acquisition2,8563.0,0.0929565429688,-0.00750732421875,0.909606933594,0.404846191406,-1.5625,3.4375,2.125,0.04,1.31,10.03
1455210057747329950,84,0,/imu_data_acquisition2,8573.0,0.0928344726562,-0.0074462890625,0.909606933594,0.404846191406,0.0625,1.5,0.375,-0.16,1.23,9.76
1455210057754070043,85,0,/imu_data_acquisition2,8579.0,0.0927734375,-0.00726318359375,0.909606933594,0.404907226562,1.125,1.875,-0.75,-0.16,1.23,9.76
1455210057762974023,86,0,/imu_data_acquisition2,8589.0,0.0925903320312,-0.007080078125,0.909606933594,0.404968261719,1.4375,2.4375,-1.0625,-0.31,1.11,10.09
1455210057776258945,87,0,/imu_data_acquisition2,8602.0,0.0924072265625,-0.00689697265625,0.909606933594,0.405029296875,1.25,3.0,-0.625,-0.34,1.15,9.81
1455210057787765979,88,0,/imu_data_acquisition2,8611.0,0.0921020507812,-0.00677490234375,0.909606933594,0.405029296875,0.5625,3.8125,0.0,-0.23,1.22,9.54
1455210057797962903,89,0,/imu_data_acquisition2,8623.0,0.091796875,-0.006591796875,0.90966796875,0.405029296875,-0.125,4.0625,0.25,-0.49,1.21,9.63
1455210057805459976,90,0,/imu_data_acquisition2,8631.0,0.0914306640625,-0.0064697265625,0.90966796875,0.405029296875,-0.625,4.9375,0.5625,-0.49,1.21,9.63
1455210057813652038,91,0,/imu_data_acquisition2,8639.0,0.0888671875,-0.00445556640625,0.909851074219,0.405212402344,-0.3125,2.0625,0.8125,-0.2,1.11,9.84
1455210057823108911,92,0,/imu_data_acquisition2,8649.0,0.0863037109375,-0.00250244140625,0.910095214844,0.4052734375,-1.1875,1.8125,2.125,-0.49,1.22,10.15
1455210057837519884,93,0,/imu_data_acquisition2,8663.0,0.0860595703125,-0.00250244140625,0.910217285156,0.405090332031,-1.25,2.375,2.5625,-0.75,1.13,9.94
1455210057847944021,94,0,/imu_data_acquisition2,8672.0,0.0859375,-0.0025634765625,0.910278320312,0.404968261719,-1.125,1.4375,2.375,-0.52,1.3,9.77
1455210057854173898,95,0,/imu_data_acquisition2,8680.0,0.0857543945312,-0.00262451171875,0.910400390625,0.404724121094,-1.4375,1.8125,2.5625,-0.62,1.39,10.01
1455210057864617109,96,0,/imu_data_acquisition2,8690.0,0.085693359375,-0.00274658203125,0.910461425781,0.404602050781,-1.125,0.375,2.1875,-0.18,1.44,9.71
1455210057873444080,97,0,/imu_data_acquisition2,8699.0,0.0856323242188,-0.00286865234375,0.910522460938,0.404418945312,-1.375,-0.3125,2.125,-0.41,1.3,9.78
1455210057884733915,98,0,/imu_data_acquisition2,8711.0,0.0836791992188,-0.00091552734375,0.910705566406,0.404541015625,-1.1875,-4.0,1.6875,-0.38,1.4,9.84
1455210057898906946,99,0,/imu_data_acquisition2,8723.0,0.0814208984375,0.00079345703125,0.910888671875,0.404602050781,-3.5,-2.3125,2.8125,-0.59,1.07,9.99
1455210057904092073,100,0,/imu_data_acquisition2,8729.0,0.0790405273438,0.00225830078125,0.911071777344,0.404541015625,-4.4375,-2.375,3.625,-0.59,1.07,9.99
1455210057913794994,101,0,/imu_data_acquisition2,8739.0,0.0769653320312,0.00347900390625,0.911315917969,0.404479980469,-4.0,-2.9375,3.75,-0.16,1.03,9.84
1455210058002883911,102,0,/imu_data_acquisition2,8749.0,0.07470703125,0.00494384765625,0.911499023438,0.404479980469,-3.1875,-1.25,3.25,-0.6,1.21,10.06
1455210058005196094,103,0,/imu_data_acquisition2,8761.0,0.0728759765625,0.00616455078125,0.91162109375,0.404418945312,-2.3125,-1.125,2.9375,0.1,0.92,9.88
1455210058006172895,105,0,/imu_data_acquisition2,8781.0,0.068603515625,0.00872802734375,0.912048339844,0.404235839844,-3.1875,-0.125,3.4375,-0.31,1.17,9.99
1455210058007544994,106,0,/imu_data_acquisition2,8788.0,0.0667724609375,0.010009765625,0.912231445312,0.404113769531,-3.3125,-0.375,4.0625,-0.23,1.29,10.1
1455210058008477926,107,0,/imu_data_acquisition2,8798.0,0.065185546875,0.0110473632812,0.912414550781,0.403930664062,-4.4375,-0.3125,4.5625,0.08,1.23,10.13
1455210058009579896,108,0,/imu_data_acquisition2,8808.0,0.0634765625,0.01220703125,0.91259765625,0.403686523438,-5.3125,-0.5,4.875,-0.41,1.29,9.69
1455210058012509107,109,0,/imu_data_acquisition2,8820.0,0.0632934570312,0.0117797851562,0.912780761719,0.4033203125,-5.1875,-0.3125,5.125,0.09,1.0,9.97
1455210058013814926,110,0,/imu_data_acquisition2,8828.0,0.0631713867188,0.0113525390625,0.912963867188,0.402893066406,-4.8125,0.5625,5.75,0.12,0.98,9.95
1455210058017779111,111,0,/imu_data_acquisition2,8838.0,0.0628662109375,0.0111083984375,0.913146972656,0.402526855469,-4.0625,2.3125,4.875,-0.56,1.12,9.88
1455210058022459983,112,0,/imu_data_acquisition2,8848.0,0.0625610351562,0.010986328125,0.913330078125,0.402282714844,-2.3125,2.625,3.6875,0.36,0.8,10.19
1455210058033394098,113,0,/imu_data_acquisition2,8859.0,0.062255859375,0.0110473632812,0.913391113281,0.402099609375,-0.8125,3.875,2.375,-0.01,0.92,9.53
1455210058048407077,114,0,/imu_data_acquisition2,8872.0,0.0620727539062,0.01123046875,0.913330078125,0.402282714844,1.3125,2.75,-2.5625,0.0,1.23,9.71
1455210058054095029,115,0,/imu_data_acquisition2,8878.0,0.06201171875,0.0117797851562,0.913024902344,0.403015136719,5.0,2.6875,-9.5625,0.12,1.13,9.78
1455210058064156055,116,0,/imu_data_acquisition2,8890.0,0.0618286132812,0.0130615234375,0.912475585938,0.404174804688,12.375,7.9375,-16.6875,0.0,0.91,9.23
1455210058079308032,117,0,/imu_data_acquisition2,8905.0,-6.103515625e-05,-6.103515625e-05,-6.103515625e-05,0.406005859375,24.625,19.4375,-25.375,0.15,1.19,8.86
1455210058083658933,118,0,/imu_data_acquisition2,8910.0,0.0594482421875,0.0198974609375,0.91064453125,0.408386230469,34.8125,36.8125,-33.875,-0.04,1.41,9.09
1455210058096875905,119,0,/imu_data_acquisition2,8922.0,0.056884765625,0.023681640625,0.909484863281,0.4111328125,26.75,43.875,-0.0625,-0.28,2.7,10.25
1455210058103589057,120,0,/imu_data_acquisition2,8929.0,0.0538330078125,0.02587890625,0.908325195312,0.413940429688,7.375,42.375,-38.4375,-0.79,1.81,8.77
1455210058112922906,121,0,/imu_data_acquisition2,8939.0,0.0497436523438,0.0265502929688,0.907165527344,0.416931152344,-14.5,45.5,-39.3125,-0.87,1.84,8.69
1455210058124165058,122,0,/imu_data_acquisition2,8950.0,0.0450439453125,0.0260620117188,0.906005859375,0.420043945312,-14.25,-0.0625,-0.0625,0.55,4.0,9.03
1455210058140031099,123,0,/imu_data_acquisition2,8965.0,0.0396118164062,0.0242919921875,0.90478515625,0.42333984375,-47.1875,48.0,-42.375,1.05,3.09,9.34
1455210058149532079,124,0,/imu_data_acquisition2,8974.0,0.034912109375,0.0232543945312,0.903137207031,0.427307128906,-36.0,43.4375,-52.125,1.05,3.09,9.34
1455210058156172990,125,0,/imu_data_acquisition2,8981.0,0.028564453125,0.0196533203125,0.901611328125,0.431213378906,-71.75,47.625,-49.375,-0.91,1.3,9.82
1455210058163525104,126,0,/imu_data_acquisition2,8988.0,0.021728515625,0.0137939453125,0.899719238281,0.435668945312,-98.5625,41.375,-56.5625,-1.03,-0.64,10.54
1455210058173861026,127,0,/imu_data_acquisition2,9000.0,0.015869140625,0.00726318359375,0.897155761719,0.441345214844,-100.6875,27.3125,-73.125,-1.02,0.86,11.18
1455210058185602903,128,0,/imu_data_acquisition2,9011.0,0.0113525390625,-0.0010986328125,0.89404296875,0.447814941406,-113.3125,3.0625,-84.0625,0.29,1.68,10.53
1455210058194492101,129,0,/imu_data_acquisition2,9019.0,0.006103515625,-0.0113525390625,0.890869140625,0.454040527344,-137.75,0.75,-81.0625,-0.25,1.38,11.47
1455210058203916072,130,0,/imu_data_acquisition2,9029.0,0.00079345703125,-0.0236206054688,0.887939453125,0.459350585938,-158.125,-9.5625,-70.375,-0.12,-3.02,10.22
1455210058215574026,131,0,/imu_data_acquisition2,9040.0,-0.00384521484375,-0.0345458984375,0.884948730469,0.46435546875,-140.9375,-9.0625,-67.375,5.86,0.55,11.18
1455210058223908901,132,0,/imu_data_acquisition2,9049.0,-0.0115966796875,-0.039794921875,0.882446289062,0.468627929688,-98.875,53.6875,-55.75,4.34,1.31,10.93
1455210058236093997,133,0,/imu_data_acquisition2,9062.0,-0.0270385742188,-0.0400390625,0.881408691406,0.469848632812,-88.1875,161.0,-10.8125,7.56,1.31,12.31
1455210058248419046,134,0,/imu_data_acquisition2,9073.0,-0.0535278320312,-0.0335693359375,0.88134765625,0.468200683594,-80.6875,311.5625,31.4375,7.04,1.48,13.8
1455210058253222942,135,0,/imu_data_acquisition2,9079.0,-0.0923461914062,-0.0223999023438,0.881225585938,0.463073730469,-101.625,465.6875,75.5625,7.26,-0.95,15.59
1455210058264403104,136,0,/imu_data_acquisition2,9090.0,-0.141174316406,-0.00433349609375,0.879272460938,0.454833984375,-89.375,609.3125,107.5,2.58,-0.65,13.73
1455210058275943994,137,0,/imu_data_acquisition2,9101.0,-0.196228027344,0.0205078125,0.875061035156,0.442016601562,-59.1875,714.25,155.5,-3.42,-4.34,12.58
1455210058283265113,138,0,/imu_data_acquisition2,9109.0,-0.252075195312,0.0488891601562,0.866577148438,0.427917480469,-28.6875,751.875,154.8125,-8.03,-2.81,13.02
1455210058296963930,139,0,/imu_data_acquisition2,9123.0,-0.302368164062,0.0757446289062,0.855041503906,0.414428710938,-13.375,695.8125,130.9375,-6.53,-1.34,17.13
1455210058306843042,140,0,/imu_data_acquisition2,9132.0,-0.342529296875,0.0982055664062,0.843566894531,0.401794433594,-4.375,569.6875,116.375,-2.12,-1.51,22.05
1455210058313290119,141,0,/imu_data_acquisition2,9139.0,-0.370727539062,0.114990234375,0.834838867188,0.390319824219,-2.8125,410.5,108.0625,-6.65,3.74,37.59
1455210058324590921,142,0,/imu_data_acquisition2,9150.0,-0.384765625,0.119567871094,0.830688476562,0.384216308594,-40.6875,186.5,42.5,-1.11,-3.28,39.86
1455210058339796066,143,0,/imu_data_acquisition2,9165.0,-0.387023925781,0.120178222656,0.830688476562,0.381713867188,-15.625,28.0625,24.0625,4.87,-4.93,19.66
1455210058348860979,144,0,/imu_data_acquisition2,9173.0,-0.383117675781,0.120849609375,0.83203125,0.382568359375,25.9375,-42.625,6.0625,6.33,-4.26,9.37
1455210058356189966,145,0,/imu_data_acquisition2,9182.0,-0.376281738281,0.123291015625,0.833251953125,0.385803222656,68.0625,-65.9375,-5.1875,5.1,-2.47,4.55
1455210058365663051,146,0,/imu_data_acquisition2,9190.0,-0.368774414062,0.127380371094,0.834106445312,0.389953613281,92.125,-65.625,-7.9375,4.48,-0.54,3.0
1455210058373584032,147,0,/imu_data_acquisition2,9199.0,-0.361389160156,0.131591796875,0.834899902344,0.393798828125,91.0,-62.875,-4.875,3.88,1.66,6.43
1455210058385088920,148,0,/imu_data_acquisition2,9211.0,-0.353759765625,0.134155273438,0.836364746094,0.396667480469,70.9375,-74.3125,1.0625,3.15,1.44,9.19
1455210058398947000,149,0,/imu_data_acquisition2,9223.0,-0.344543457031,0.134460449219,0.839050292969,0.39892578125,51.6875,-104.0,6.1875,3.66,0.65,10.78
1455210058404707908,150,0,/imu_data_acquisition2,9231.0,-0.333251953125,0.133422851562,0.842834472656,0.401000976562,45.25,-135.9375,11.0625,3.57,-0.94,11.98
1455210058416163921,151,0,/imu_data_acquisition2,9242.0,-0.319519042969,0.131958007812,0.847229003906,0.403442382812,53.625,-165.125,12.6875,3.05,-1.11,11.81
1455210058426255941,152,0,/imu_data_acquisition2,9249.0,-0.30322265625,0.130615234375,0.851989746094,0.406372070312,67.875,-192.1875,13.3125,2.67,-0.91,10.99
1455210058435734987,153,0,/imu_data_acquisition2,9261.0,-0.284973144531,0.129211425781,0.85693359375,0.409606933594,77.4375,-214.125,14.4375,1.62,0.07,8.92
1455210058446496009,154,0,/imu_data_acquisition2,9271.0,-0.265258789062,0.127258300781,0.862060546875,0.41259765625,78.3125,-231.3125,18.0,1.36,0.58,7.86
1455210058454847097,155,0,/imu_data_acquisition2,9278.0,-0.244812011719,0.12451171875,0.867370605469,0.414978027344,71.3125,-242.5,24.3125,0.9,1.05,7.89
1455210058464329957,156,0,/imu_data_acquisition2,9290.0,-0.223999023438,0.120849609375,0.872863769531,0.416259765625,59.8125,-249.375,33.1875,-0.01,0.94,10.06
1455210058476275920,157,0,/imu_data_acquisition2,9301.0,-0.202697753906,0.116333007812,0.878479003906,0.416687011719,51.3125,-257.6875,42.0625,-0.55,0.79,11.49
1455210058483514070,158,0,/imu_data_acquisition2,9309.0,-0.180480957031,0.111206054688,0.884155273438,0.416259765625,48.0,-269.75,50.5625,-0.9,0.77,12.62
1455210058506472110,160,0,/imu_data_acquisition2,9332.0,-0.132446289062,0.0999145507812,0.895324707031,0.413391113281,49.0,-295.375,66.6875,-1.81,1.81,11.66
1455210058513947963,161,0,/imu_data_acquisition2,9338.0,-0.107604980469,0.0935668945312,0.900756835938,0.410339355469,43.0,-299.8125,78.25,-2.26,1.89,11.13
1455210058523783922,162,0,/imu_data_acquisition2,9350.0,-0.0833740234375,0.0863037109375,0.906005859375,0.405944824219,29.0,-295.375,89.8125,-2.92,1.28,11.4
1455210058539247035,163,0,/imu_data_acquisition2,9364.0,-0.0599975585938,0.0779418945312,0.910949707031,0.400634765625,12.0625,-290.4375,96.4375,-3.71,-1.01,13.38
1455210058543226957,164,0,/imu_data_acquisition2,9369.0,-0.03759765625,0.0684204101562,0.915344238281,0.395080566406,-4.0,-285.0,94.3125,-3.99,-2.24,13.91
1455210058556114912,165,0,/imu_data_acquisition2,9382.0,-0.01611328125,0.0579223632812,0.918762207031,0.390258789062,-18.5,-279.375,81.4375,-4.19,-2.62,13.8
1455210058567171096,166,0,/imu_data_acquisition2,9390.0,0.0042724609375,0.04638671875,0.921081542969,0.386596679688,-33.4375,-272.75,61.8125,-4.75,-2.09,15.1
1455210058572629928,167,0,/imu_data_acquisition2,9399.0,0.0237426757812,0.033935546875,0.922302246094,0.38427734375,-47.1875,-267.9375,42.625,-5.09,-1.36,17.46
1455210058584666013,168,0,/imu_data_acquisition2,9410.0,0.0426025390625,0.0209350585938,0.922607421875,0.382751464844,-56.1875,-265.0625,29.0625,-4.83,-0.99,20.38
1455210058599668979,169,0,/imu_data_acquisition2,9424.0,0.0609130859375,0.0078125,0.922302246094,0.381591796875,-59.1875,-259.375,22.375,-1.14,-0.01,-0.01
1455210058604074954,170,0,/imu_data_acquisition2,9430.0,0.0794677734375,-0.0050048828125,0.921203613281,0.380798339844,-55.5,-261.125,14.625,-6.82,-2.0,-0.01
1455210058614387989,171,0,/imu_data_acquisition2,9440.0,0.0982666015625,-0.0172729492188,0.919372558594,0.380554199219,-49.5,-261.875,4.6875,-1.93,-0.01,-0.01
1455210058623842000,172,0,/imu_data_acquisition2,9449.0,0.116577148438,-0.0287475585938,0.916748046875,0.380920410156,-42.875,-254.1875,-6.125,-7.27,-3.04,17.0
1455210058633234977,173,0,/imu_data_acquisition2,9459.0,0.134033203125,-0.0394897460938,0.913452148438,0.382141113281,-40.875,-242.4375,-19.0625,-7.63,-1.46,14.75
1455210058644444942,174,0,/imu_data_acquisition2,9470.0,0.150146484375,-0.0502319335938,0.909606933594,0.384155273438,-48.1875,-227.4375,-29.5,-8.28,-0.46,14.1
1455210058653635978,175,0,/imu_data_acquisition2,9478.0,0.16455078125,-0.0615844726562,0.9052734375,0.386840820312,-64.0,-213.4375,-37.125,-9.83,1.83,13.86
1455210058663794040,176,0,/imu_data_acquisition2,9489.0,0.177734375,-0.0746459960938,0.900390625,0.390075683594,-89.875,-207.8125,-41.1875,-10.3,5.67,14.21
1455210058674474954,177,0,/imu_data_acquisition2,9500.0,0.188903808594,-0.0892944335938,0.8955078125,0.392883300781,-114.625,-194.375,-31.5625,-12.01,3.4,15.95
1455210058682625055,178,0,/imu_data_acquisition2,9508.0,0.198852539062,-0.103210449219,0.890991210938,0.394897460938,-110.625,-178.25,-21.6875,-13.06,1.46,15.62
1455210058694632053,179,0,/imu_data_acquisition2,9520.0,0.208801269531,-0.114501953125,0.88671875,0.396240234375,-80.6875,-166.75,-19.75,-15.81,1.86,12.13
1455210058704588890,180,0,/imu_data_acquisition2,9530.0,0.21923828125,-0.123046875,0.882690429688,0.397033691406,-47.9375,-158.1875,-20.0625,-18.39,3.74,10.63
1455210058712904930,181,0,/imu_data_acquisition2,9538.0,0.229553222656,-0.130249023438,0.879028320312,0.397033691406,-32.125,-151.375,-13.8125,-21.43,4.32,8.7
1455210058724224090,182,0,/imu_data_acquisition2,9550.0,0.238891601562,-0.136535644531,0.876220703125,0.395629882812,-22.0625,-136.5,4.3125,-24.6,3.53,5.02
1455210058734803915,183,0,/imu_data_acquisition2,9560.0,0.246337890625,-0.1416015625,0.874633789062,0.392761230469,-11.875,-109.3125,24.625,-24.54,1.31,-7.4
1455210058743180990,184,0,/imu_data_acquisition2,9569.0,0.250183105469,-0.14453125,0.874694824219,0.389099121094,-1.9375,-60.125,40.0625,-21.08,-0.14,-11.16
1455210058754231929,185,0,/imu_data_acquisition2,9579.0,0.2490234375,-0.144287109375,0.876708984375,0.385375976562,11.8125,12.75,49.375,-17.56,-0.5,-9.8
1455210058765542984,186,0,/imu_data_acquisition2,9590.0,0.242492675781,-0.141418457031,0.880432128906,0.382080078125,15.75,86.125,53.5625,-13.64,-8.06,2.47
1455210058773160934,187,0,/imu_data_acquisition2,9599.0,0.232727050781,-0.136108398438,0.884765625,0.380187988281,24.25,135.5625,40.6875,-12.98,-1.17,-0.01
1455210058784622907,188,0,/imu_data_acquisition2,9610.0,0.224243164062,-0.126403808594,0.888244628906,0.380493164062,68.375,142.25,-0.75,-3.75,-16.65,17.89
1455210058796855926,189,0,/imu_data_acquisition2,9619.0,0.221374511719,-0.111206054688,0.889465332031,0.384033203125,139.1875,107.25,-67.875,5.68,7.59,20.91
1455210058803272008,190,0,/imu_data_acquisition2,9629.0,0.219360351562,-0.0971069335938,0.889587402344,0.388732910156,127.0,92.0,-83.3125,8.82,8.19,5.41
1455210058815363883,191,0,/imu_data_acquisition2,9640.0,0.214538574219,-0.0910034179688,0.888366699219,0.395629882812,22.375,83.625,-88.0625,2.48,16.24,-4.09
1455210058825464963,192,0,/imu_data_acquisition2,9649.0,0.207580566406,-0.0892333984375,0.887451171875,0.401794433594,-30.3125,85.75,-66.25,7.65,14.04,-7.86
1455210058833106040,193,0,/imu_data_acquisition2,9659.0,0.194458007812,-0.083740234375,0.889526367188,0.404846191406,-10.3125,172.25,-21.6875,-0.34,12.98,18.44
1455210058846457004,194,0,/imu_data_acquisition2,9671.0,0.177062988281,-0.0783081054688,0.893371582031,0.405456542969,-23.4375,219.0,16.5,-5.2,2.34,27.13
1455210058855040073,195,0,/imu_data_acquisition2,9678.0,0.159912109375,-0.0751342773438,0.897033691406,0.405090332031,-44.1875,203.5625,30.8125,-1.27,-5.39,20.55
1455210058864804029,196,0,/imu_data_acquisition2,9690.0,0.142639160156,-0.0704345703125,0.900634765625,0.404357910156,-28.5,212.625,31.1875,0.1,-10.76,21.14
1455210058876245021,197,0,/imu_data_acquisition2,9699.0,0.124572753906,-0.0610961914062,0.903991699219,0.404479980469,15.6875,242.75,14.5,-7.87,-7.3,29.32
1455210058883188009,198,0,/imu_data_acquisition2,9709.0,0.109985351562,-6.103515625e-05,-6.103515625e-05,0.406066894531,70.1875,223.1875,-17.0625,-5.5,-0.98,14.92
1455210058895415067,199,0,/imu_data_acquisition2,9719.0,0.10107421875,-0.0372924804688,0.906616210938,0.407958984375,68.75,148.4375,-25.125,-6.31,6.89,20.45
1455210058906768083,200,0,/imu_data_acquisition2,9729.0,0.09521484375,-0.0288696289062,0.907043457031,0.409118652344,61.25,104.6875,-18.0,-2.7,1.97,13.31
1455210058913225889,201,0,/imu_data_acquisition2,9739.0,0.093994140625,-0.0231323242188,0.906921386719,0.410034179688,54.1875,40.875,-17.0,2.1,-0.09,11.39
1455210058924025058,202,0,/imu_data_acquisition2,9749.0,0.0929565429688,-0.018798828125,0.906860351562,0.410705566406,40.5,32.625,-11.4375,-0.26,1.85,11.61
1455210058934628009,203,0,/imu_data_acquisition2,9759.0,0.0911254882812,-0.0146484375,0.906921386719,0.411071777344,35.3125,39.9375,-7.9375,-0.17,1.37,10.23
1455210058972685098,204,0,/imu_data_acquisition2,9769.0,0.0897216796875,-0.0113525390625,0.907043457031,0.411254882812,28.75,31.25,-5.0,0.1,0.56,10.74
1455210058974442005,205,0,/imu_data_acquisition2,9785.0,0.088623046875,-0.008544921875,0.907104492188,0.411376953125,24.125,25.5625,-3.75,0.02,1.59,10.57
1455210058977757930,206,0,/imu_data_acquisition2,9789.0,0.088623046875,-0.008544921875,0.907104492188,0.411376953125,19.5625,19.125,-2.9375,0.08,0.88,9.99
1455210058980585098,207,0,/imu_data_acquisition2,9799.0,0.0878295898438,-0.00634765625,0.907165527344,0.411499023438,16.375,11.8125,-2.875,0.56,1.25,10.13
1455210058987675905,208,0,/imu_data_acquisition2,9810.0,0.0870971679688,-0.0030517578125,0.907104492188,0.411804199219,15.375,-0.0625,-0.0625,0.42,1.78,9.47
1455210058994535923,209,0,/imu_data_acquisition2,9819.0,0.0861206054688,-0.00146484375,0.906921386719,0.412414550781,11.375,17.875,-9.25,0.43,0.37,9.45
1455210059004811048,210,0,/imu_data_acquisition2,9829.0,0.0853271484375,0.0,0.906799316406,0.412780761719,11.625,15.5625,-6.0,0.64,1.11,10.39
1455210059014497995,211,0,/imu_data_acquisition2,9839.0,0.0853271484375,0.0,0.906799316406,0.412780761719,11.8125,13.5625,-3.8125,0.12,1.18,9.88
1455210059024211883,212,0,/imu_data_acquisition2,9849.0,0.084716796875,0.00140380859375,0.906799316406,0.413024902344,12.0625,14.875,-2.9375,-0.21,0.95,9.89
1455210059033312082,213,0,/imu_data_acquisition2,9859.0,0.0833129882812,0.00421142578125,0.906860351562,0.413146972656,10.875,13.6875,-1.0625,-0.11,0.94,10.34
1455210059044078111,214,0,/imu_data_acquisition2,9869.0,0.0827026367188,0.00537109375,0.906921386719,0.413024902344,9.6875,12.4375,0.8125,-0.09,1.14,10.27
1455210059054270982,215,0,/imu_data_acquisition2,9879.0,0.0827026367188,0.00537109375,0.906921386719,0.413024902344,8.3125,9.9375,3.0625,-0.14,1.79,10.07
1455210059063745021,216,0,/imu_data_acquisition2,9889.0,0.0822143554688,0.00634765625,0.907104492188,0.412719726562,6.25,9.625,3.4375,-0.16,1.42,10.52
1455210059074307918,217,0,/imu_data_acquisition2,9900.0,0.0816650390625,0.00714111328125,0.907287597656,0.412414550781,4.75,8.3125,2.5625,-0.18,1.64,10.05
1455210059084507942,218,0,/imu_data_acquisition2,9909.0,0.0812377929688,0.00775146484375,0.907470703125,0.412170410156,2.6875,7.4375,2.125,-0.01,1.43,10.01
1455210059093647956,219,0,/imu_data_acquisition2,9920.0,0.0802001953125,0.00860595703125,0.90771484375,0.411804199219,1.6875,7.9375,1.75,0.15,1.28,9.8
1455210059105509042,220,0,/imu_data_acquisition2,9931.0,0.07958984375,0.009033203125,0.907836914062,0.411560058594,1.75,8.625,3.125,0.07,1.46,10.01
1455210059114113092,221,0,/imu_data_acquisition2,9939.0,0.07958984375,0.009033203125,0.907836914062,0.411560058594,1.25,-0.0625,-0.0625,0.06,1.26,9.91
1455210059123680114,222,0,/imu_data_acquisition2,9949.0,0.0789184570312,0.00946044921875,0.907958984375,0.411437988281,0.0625,9.875,1.4375,0.08,1.24,10.17
1455210059134572982,223,0,/imu_data_acquisition2,9960.0,0.0781860351562,0.009765625,0.908081054688,0.411315917969,-0.4375,8.25,0.6875,-0.06,1.53,9.59
1455210059144295930,224,0,/imu_data_acquisition2,9969.0,0.0761108398438,0.0116577148438,0.908203125,0.411437988281,-1.3125,8.8125,0.625,-0.55,1.11,10.4
1455210059154222965,225,0,/imu_data_acquisition2,9980.0,0.0753784179688,0.0119018554688,0.908264160156,0.411376953125,-0.4375,7.0625,0.1875,-0.46,1.23,10.25
1455210059165361881,226,0,/imu_data_acquisition2,9990.0,0.0748291015625,-6.103515625e-05,-6.103515625e-05,0.411376953125,-0.875,7.0,0.5,0.05,0.91,10.0
1455210059173371076,227,0,/imu_data_acquisition2,9999.0,0.0742797851562,0.0123291015625,0.908386230469,0.411376953125,-0.375,5.375,0.625,0.01,1.32,9.85
1455210059184561014,228,0,/imu_data_acquisition2,10010.0,0.0738525390625,0.0125122070312,0.908386230469,0.411315917969,-1.375,6.625,1.375,-0.21,1.06,9.95
1455210059195442914,229,0,/imu_data_acquisition2,10020.0,0.0716552734375,0.0138549804688,0.908569335938,0.411315917969,-1.5625,6.25,1.6875,-0.3,1.24,9.89
1455210059203850030,230,0,/imu_data_acquisition2,10030.0,0.0693969726562,0.0153198242188,0.90869140625,0.411376953125,-1.5625,5.875,1.25,-0.06,1.4,9.88
1455210059217538118,231,0,/imu_data_acquisition2,10043.0,0.0654907226562,0.0182495117188,0.908874511719,0.411560058594,-1.0,4.6875,0.25,-0.42,1.31,10.01
1455210059224308967,232,0,/imu_data_acquisition2,10049.0,0.0654907226562,0.0182495117188,0.908874511719,0.411560058594,-1.0,4.6875,0.25,-0.42,1.31,10.01
1455210059234956026,233,0,/imu_data_acquisition2,10060.0,0.0637817382812,0.0196533203125,0.908874511719,0.411682128906,-0.125,2.375,-0.125,-0.13,1.33,9.74
1455210059245584011,234,0,/imu_data_acquisition2,10071.0,0.062255859375,0.0210571289062,0.908874511719,0.411804199219,-0.25,2.375,-0.1875,-0.63,1.26,10.01
1455210059256530046,235,0,/imu_data_acquisition2,10082.0,0.0604858398438,0.0225219726562,0.908935546875,0.411926269531,0.875,0.375,-0.3125,-0.29,1.11,9.79
1455210059264646053,236,0,/imu_data_acquisition2,10090.0,0.0590209960938,0.0237426757812,0.908935546875,0.412048339844,1.1875,-0.25,-0.0625,-0.05,1.12,10.34
1455210059275556087,237,0,/imu_data_acquisition2,10101.0,0.0576782226562,0.0248413085938,0.908935546875,0.412170410156,0.125,0.6875,0.4375,-0.56,1.15,9.96
1455210059286679983,238,0,/imu_data_acquisition2,10111.0,0.05615234375,0.0259399414062,0.908996582031,0.412231445312,-1.25,0.9375,1.375,-0.23,1.3,9.61
1455210059294258117,239,0,/imu_data_acquisition2,10120.0,0.0546875,0.0269775390625,0.908996582031,0.412231445312,-2.125,0.75,1.5,-0.13,1.19,10.2
1455210059306557893,240,0,/imu_data_acquisition2,10132.0,0.0534057617188,0.0277709960938,0.909057617188,0.412231445312,-2.25,0.75,1.5625,-0.4,1.22,9.68
1455210059315515995,241,0,/imu_data_acquisition2,10139.0,0.052001953125,0.0286865234375,0.909118652344,0.412231445312,-2.25,0.75,1.5625,-0.4,1.22,9.68
1455210059326169013,242,0,/imu_data_acquisition2,10152.0,0.0493774414062,0.0301513671875,0.909301757812,0.412170410156,-3.5625,2.25,1.625,-0.19,1.25,10.06
1455210059336496114,243,0,/imu_data_acquisition2,10160.0,0.0493774414062,0.0301513671875,0.909301757812,0.412170410156,-3.5625,2.25,1.625,-0.44,1.29,9.73
1455210059349399089,244,0,/imu_data_acquisition2,10170.0,0.0479125976562,0.031005859375,0.909301757812,0.412170410156,-3.375,3.1875,0.375,-0.22,1.18,10.13
1455210059355397939,245,0,/imu_data_acquisition2,10181.0,0.0465087890625,0.0317993164062,0.909301757812,0.412231445312,-3.1875,3.1875,-0.0625,-0.17,1.2,10.19
1455210059368246078,246,0,/imu_data_acquisition2,10191.0,0.0452880859375,0.0324096679688,0.909362792969,0.412292480469,-3.1875,3.1875,-0.0625,-0.14,1.1,9.99
1455210059373919010,247,0,/imu_data_acquisition2,10199.0,0.044189453125,0.0328979492188,0.909301757812,0.412475585938,-3.0,3.25,-1.5625,-0.19,1.0,10.07
1455210059384500026,248,0,/imu_data_acquisition2,10210.0,0.0430908203125,0.0333251953125,0.909301757812,0.41259765625,-2.75,3.5,-1.0625,-0.09,0.99,9.69
1455210059398452043,249,0,/imu_data_acquisition2,10223.0,0.0419921875,0.03369140625,0.909301757812,0.412658691406,-3.1875,4.875,0.5,0.22,0.72,9.69
1455210059404422998,250,0,/imu_data_acquisition2,10230.0,0.04150390625,0.0335693359375,0.909301757812,0.412658691406,-1.8125,3.8125,-1.125,0.12,1.24,9.48
1455210059414412021,251,0,/imu_data_acquisition2,10239.0,0.0411376953125,0.0335693359375,0.909301757812,0.412719726562,-1.8125,3.8125,-1.125,0.12,1.24,9.48
1455210059423405885,252,0,/imu_data_acquisition2,10249.0,0.0408325195312,0.0337524414062,0.909118652344,0.413208007812,0.5,3.6875,-6.3125,0.16,1.13,9.47
1455210059434427022,253,0,/imu_data_acquisition2,10260.0,0.0404663085938,0.0343627929688,0.908630371094,0.414245605469,10.8125,15.75,-19.875,-0.24,0.62,8.86
1455210059448961019,254,0,/imu_data_acquisition2,10273.0,0.03955078125,0.0358276367188,0.907958984375,0.415710449219,28.5,31.0,-32.4375,-0.05,1.59,8.8
1455210059458348035,255,0,/imu_data_acquisition2,10282.0,0.0380859375,0.0391845703125,0.906799316406,0.41796875,34.0625,38.8125,-40.0,0.08,2.64,10.17
1455210059463309049,256,0,/imu_data_acquisition2,10289.0,0.0361938476562,0.0432739257812,0.905395507812,0.420776367188,34.0625,38.8125,-40.0,-0.48,1.7,8.88
1455210059474329948,257,0,/imu_data_acquisition2,10300.0,0.0337524414062,0.0455322265625,0.904052734375,0.423645019531,11.4375,34.8125,-39.6875,-0.86,2.01,8.68
1455210059488409042,258,0,/imu_data_acquisition2,10311.0,0.0302734375,0.0463256835938,0.902709960938,0.426635742188,-42.375,47.375,-37.75,0.88,1.82,9.18
1455210059494508028,259,0,/imu_data_acquisition2,10320.0,0.0249633789062,0.0448608398438,0.901611328125,0.429443359375,-51.4375,47.3125,-38.9375,-1.53,1.59,10.53
1455210059506910085,260,0,/imu_data_acquisition2,10332.0,0.0193481445312,-6.103515625e-05,-6.103515625e-05,0.432312011719,-60.0625,49.625,-42.0625,0.72,0.51,9.04
1455210059515186071,261,0,/imu_data_acquisition2,10340.0,0.0132446289062,0.0400390625,0.899230957031,0.435424804688,-60.0625,49.625,-42.0625,-0.41,-0.01,9.65
1455210059524113893,262,0,/imu_data_acquisition2,10350.0,0.0074462890625,0.0366821289062,0.897827148438,0.438781738281,-65.625,42.25,-45.5,-1.68,0.53,10.02
1455210059536604881,263,0,/imu_data_acquisition2,10361.0,0.00115966796875,0.0323486328125,0.896240234375,0.442443847656,-84.25,35.125,-58.625,-0.57,0.84,10.59
1455210059547657966,264,0,/imu_data_acquisition2,10370.0,-0.00482177734375,0.0272827148438,0.894226074219,0.44677734375,-94.0625,11.75,-72.6875,-0.61,0.88,10.5
1455210059555517911,265,0,/imu_data_acquisition2,10381.0,-0.00946044921875,0.0206298828125,0.891662597656,0.4521484375,-103.125,-8.125,-81.125,-2.53,0.94,10.91
1455210059565609931,266,0,/imu_data_acquisition2,10390.0,-0.0128784179688,0.012451171875,0.888671875,0.458190917969,-103.125,-8.125,-81.125,-2.53,0.94,10.91
1455210059573477983,267,0,/imu_data_acquisition2,10399.0,-0.0173950195312,0.0013427734375,0.885803222656,0.463806152344,-140.5,-13.25,-77.125,-0.79,-0.01,-0.01
1455210059585891008,268,0,/imu_data_acquisition2,10412.0,-0.0202026367188,-0.0115356445312,0.882873535156,0.468994140625,-143.9375,-26.9375,-64.625,4.32,2.73,10.91
1455210059606636047,270,0,/imu_data_acquisition2,10432.0,-0.0330200195312,-0.0271606445312,0.877563476562,0.4775390625,-93.5625,192.25,-17.125,6.79,2.55,13.18
1455210059616388082,271,0,/imu_data_acquisition2,10442.0,-6.103515625e-05,-6.103515625e-05,-6.103515625e-05,0.476928710938,-111.375,348.875,27.3125,4.89,1.52,13.8
1455210059626492023,272,0,/imu_data_acquisition2,10450.0,-0.081298828125,-0.0203857421875,0.874938964844,0.476928710938,-111.375,348.875,27.3125,4.89,1.52,13.8
1455210059645708084,274,0,/imu_data_acquisition2,10471.0,-0.173156738281,0.00518798828125,-6.103515625e-05,0.463623046875,-79.9375,714.625,123.375,-10.64,1.07,-0.01
1455210059656795024,275,0,/imu_data_acquisition2,10482.0,-0.228271484375,0.029052734375,0.861694335938,0.452270507812,-38.25,735.8125,121.3125,-5.38,-3.12,18.52
1455210059663574934,276,0,/imu_data_acquisition2,10489.0,-0.282409667969,0.056640625,0.8505859375,0.440002441406,-38.25,735.8125,121.3125,-5.38,-3.12,18.52
1455210059675760030,277,0,/imu_data_acquisition2,10500.0,-0.329284667969,0.0831298828125,0.837951660156,0.42724609375,-11.5,662.0625,120.1875,-5.85,-2.45,21.7
1455210059686844110,278,0,/imu_data_acquisition2,10511.0,-0.368469238281,0.108642578125,0.824768066406,0.414916992188,20.125,581.9375,116.375,-2.77,5.15,39.86
1455210059695173025,279,0,/imu_data_acquisition2,10521.0,-0.394775390625,0.1279296875,0.815002441406,0.404479980469,25.375,408.1875,104.5,3.8,3.33,31.2
1455210059707884073,280,0,/imu_data_acquisition2,10532.0,-0.405639648438,0.134521484375,0.8115234375,0.398559570312,-10.4375,161.1875,54.625,4.54,-0.76,17.21
1455210059713169097,281,0,/imu_data_acquisition2,10538.0,-0.40625,0.136047363281,0.813171386719,0.393920898438,-13.0625,12.8125,59.0625,4.54,-0.76,17.21
1455210059724375009,282,0,/imu_data_acquisition2,10550.0,-0.402221679688,0.136108398438,0.817199707031,0.389770507812,-7.0,-51.5625,65.125,5.34,-2.93,3.95
1455210059736413002,283,0,/imu_data_acquisition2,10561.0,-0.395690917969,0.137145996094,0.821472167969,0.387023925781,19.9375,-74.1875,61.75,4.6,-2.53,2.86
1455210059747801065,284,0,/imu_data_acquisition2,10572.0,-0.388916015625,0.14013671875,0.825012207031,0.38525390625,46.3125,-65.6875,58.8125,3.5,-1.83,7.3
1455210059756233930,285,0,/imu_data_acquisition2,10582.0,-0.3828125,0.144653320312,0.827575683594,0.38427734375,69.8125,-50.5,46.125,3.24,-1.8,9.69
1455210059766644001,286,0,/imu_data_acquisition2,10589.0,-0.376403808594,0.1494140625,0.829833984375,0.383911132812,69.8125,-50.5,46.125,3.24,-1.8,9.69
1455210059773102045,287,0,/imu_data_acquisition2,10599.0,-0.368896484375,0.153076171875,0.832458496094,0.383972167969,66.1875,-69.0625,40.9375,3.18,-2.18,11.53
1455210059784856081,288,0,/imu_data_acquisition2,10611.0,-0.359558105469,0.155151367188,0.8359375,0.384521484375,58.4375,-98.8125,35.9375,1.7,-3.6,14.84
1455210059798573970,289,0,/imu_data_acquisition2,10622.0,-0.347900390625,0.155334472656,0.840270996094,0.385681152344,52.0,-135.0625,30.5625,1.59,-3.78,13.22
1455210059805696010,290,0,/imu_data_acquisition2,10631.0,-0.333312988281,0.15380859375,0.845397949219,0.387939453125,51.6875,-177.625,21.625,1.36,-3.36,11.13
1455210059814871072,291,0,/imu_data_acquisition2,10640.0,-0.313415527344,0.150817871094,0.851318359375,0.392761230469,69.3125,-245.0,3.625,1.36,-3.36,11.13
1455210059827817916,292,0,/imu_data_acquisition2,10650.0,-0.292297363281,0.147521972656,0.856994628906,0.397888183594,73.9375,-258.5,0.5625,0.65,-1.76,7.96
1455210059834821939,293,0,/imu_data_acquisition2,10661.0,-6.103515625e-05,-6.103515625e-05,-6.103515625e-05,0.402648925781,69.125,-263.125,1.8125,0.26,-1.05,7.77
1455210059847420930,294,0,/imu_data_acquisition2,10672.0,-0.249450683594,0.139099121094,0.867797851562,0.406616210938,58.625,-264.375,6.3125,-0.87,-0.47,12.37
1455210059859915018,295,0,/imu_data_acquisition2,10682.0,-0.227966308594,0.133605957031,0.873046875,0.409790039062,47.5625,-267.375,12.0625,-1.62,-0.56,14.03
1455210059863380908,296,0,/imu_data_acquisition2,10689.0,-0.2060546875,0.127319335938,0.878295898438,0.412231445312,39.6875,-275.5,17.6875,-1.62,-0.56,14.03
1455210059874746084,297,0,/imu_data_acquisition2,10699.0,-0.182922363281,0.120483398438,0.883422851562,0.414245605469,39.1875,-289.5,22.3125,-2.15,-0.5,14.21
1455210059887605905,298,0,/imu_data_acquisition2,10711.0,-6.103515625e-05,-6.103515625e-05,-6.103515625e-05,0.415588378906,38.3125,-298.5625,29.0625,-3.1,0.75,11.76
1455210059895342111,299,0,/imu_data_acquisition2,10721.0,-0.135131835938,0.105407714844,0.893127441406,0.415832519531,28.125,-298.4375,37.5625,-3.38,1.13,10.2
1455210059909367084,300,0,/imu_data_acquisition2,10733.0,-0.112609863281,0.0963745117188,0.897644042969,0.4150390625,8.6875,-289.1875,44.5,-3.26,0.54,10.87
1455210059916596889,301,0,/imu_data_acquisition2,10742.0,-0.0917358398438,0.08642578125,-6.103515625e-05,0.413513183594,-10.125,-274.25,46.8125,-4.04,-0.48,13.92
1455210059924038887,302,0,/imu_data_acquisition2,10750.0,-0.0723266601562,0.0763549804688,0.905212402344,0.411743164062,-17.875,-258.875,44.4375,-4.04,-0.48,13.92
1455210059937135934,303,0,/imu_data_acquisition2,10762.0,-0.05322265625,0.0667114257812,0.908020019531,0.41015625,-13.875,-252.625,40.375,-4.57,0.89,17.59
1455210059976003885,304,0,/imu_data_acquisition2,10773.0,-0.0343627929688,0.0576782226562,0.910339355469,0.408386230469,-9.625,-246.375,42.125,-6.04,1.22,22.34
1455210060035006046,305,0,/imu_data_acquisition2,10782.0,-0.0155639648438,0.0485229492188,0.912353515625,0.40625,-9.625,-246.375,42.125,-5.88,0.0,22.42
1455210060064640998,306,0,/imu_data_acquisition2,10791.0,0.00390625,0.0389404296875,0.914001464844,0.403869628906,-11.4375,-255.0625,43.1875,-5.88,0.0,-0.01
1455210060070080041,307,0,/imu_data_acquisition2,10799.0,0.0240478515625,0.0291137695312,0.915100097656,0.401489257812,-10.125,-264.3125,40.25,-6.03,-0.97,22.37
1455210060071758031,308,0,/imu_data_acquisition2,10808.0,-6.103515625e-05,-6.103515625e-05,-6.103515625e-05,0.399475097656,-6.875,-273.875,33.4375,-7.65,-1.52,21.54
1455210060073084115,309,0,/imu_data_acquisition2,10821.0,0.0668334960938,0.0091552734375,0.914916992188,0.39794921875,-5.1875,-283.375,24.875,-7.61,-1.99,19.72
1455210060074930906,310,0,/imu_data_acquisition2,10832.0,0.0885620117188,-0.0009765625,0.913635253906,0.396850585938,-6.4375,-284.125,16.0,-7.8,-2.02,16.74
1455210060075983047,311,0,/imu_data_acquisition2,10838.0,0.109436035156,-0.0112915039062,0.911499023438,0.396240234375,-12.75,-276.875,7.0,-7.8,-2.02,16.74
1455210060083076000,312,0,/imu_data_acquisition2,10848.0,0.129028320312,-0.02197265625,0.908752441406,0.396240234375,-23.375,-264.8125,-1.875,-1.21,-0.01,-0.01
1455210060085661888,313,0,/imu_data_acquisition2,10861.0,0.146789550781,-0.0333251953125,0.905395507812,0.397033691406,-41.3125,-249.5,-10.9375,-9.99,2.06,10.41
1455210060097901105,314,0,/imu_data_acquisition2,10872.0,0.161865234375,-0.0458984375,0.901733398438,0.398254394531,-67.5625,-226.25,-14.875,-11.32,1.18,5.76
1455210060103826045,315,0,/imu_data_acquisition2,10882.0,0.173522949219,-0.0579223632812,0.898254394531,0.399536132812,-77.8125,-187.0625,-13.0,-12.36,0.84,5.9
1455210060105904102,316,0,/imu_data_acquisition2,10890.0,0.182434082031,-0.06787109375,0.895202636719,0.400939941406,-68.0,-147.125,-15.0625,-12.36,0.84,5.9
1455210060107705116,317,0,/imu_data_acquisition2,10900.0,0.189086914062,-0.075927734375,0.892517089844,0.402404785156,-58.9375,-113.625,-16.25,-13.42,1.85,6.91
1455210060110984086,318,0,/imu_data_acquisition2,10913.0,0.193969726562,-0.0839233398438,0.89013671875,0.403747558594,-66.5625,-94.0625,-12.0,-23.34,4.37,8.79
1455210060116049051,319,0,/imu_data_acquisition2,10922.0,0.198181152344,-0.0928344726562,0.888061523438,0.404357910156,-77.4375,-91.125,0.4375,-23.34,4.37,8.79
1455210060125010013,320,0,/imu_data_acquisition2,10934.0,0.202087402344,-0.00775146484375,-6.103515625e-05,0.403747558594,-72.625,-86.6875,14.8125,-20.06,-0.93,-6.92
1455210060128114938,321,0,/imu_data_acquisition2,10940.0,0.204406738281,-0.107666015625,0.885864257812,0.40234375,-50.9375,-57.1875,23.875,-20.06,-0.93,-6.92
1455210060133600950,322,0,/imu_data_acquisition2,10951.0,0.203186035156,-0.10986328125,0.886596679688,0.400695800781,-24.1875,2.0625,27.375,-16.95,-1.31,-6.67
1455210060137773990,323,0,/imu_data_acquisition2,10963.0,0.197570800781,-0.108459472656,0.888671875,0.399291992188,-5.625,68.625,28.9375,-14.18,-5.73,1.58
1455210060148391008,324,0,/imu_data_acquisition2,10972.0,0.188659667969,-0.10400390625,0.891479492188,0.398498535156,9.9375,121.0,22.125,-14.18,-5.73,1.58
1455210060159985065,325,0,/imu_data_acquisition2,10985.0,0.178955078125,-0.0944213867188,0.894287109375,0.399108886719,125.25,169.75,-40.5,3.95,2.24,14.26
1455210060166326045,326,0,/imu_data_acquisition2,10992.0,0.170654296875,-0.07861328125,0.896362304688,0.401550292969,125.25,169.75,-40.5,3.95,2.24,14.26
1455210060175030946,327,0,/imu_data_acquisition2,11000.0,0.161560058594,-6.103515625e-05,-6.103515625e-05,0.404724121094,112.25,174.125,-48.5,4.44,10.43,17.62
1455210060189192056,328,0,/imu_data_acquisition2,11012.0,0.147827148438,-0.0569458007812,0.89794921875,0.41064453125,-7.3125,181.875,-64.1875,4.17,13.45,3.31
1455210060198123931,329,0,/imu_data_acquisition2,11023.0,0.130187988281,-0.0541381835938,0.898681640625,0.415344238281,-63.125,205.625,-39.875,3.63,14.19,1.75
1455210060208451032,330,0,/imu_data_acquisition2,11033.0,0.107788085938,-0.0487060546875,0.901306152344,0.416748046875,-52.8125,270.0,3.6875,3.63,14.19,1.75
1455210060214868068,331,0,/imu_data_acquisition2,11040.0,0.0823364257812,-0.0421142578125,0.904174804688,0.4169921875,-54.25,308.25,18.5,-6.82,0.9,21.19
1455210060225008964,332,0,/imu_data_acquisition2,11050.0,0.0580444335938,-0.00579833984375,-6.103515625e-05,0.416870117188,-64.625,287.0,19.25,-8.9,-8.24,22.87
1455210060235616922,333,0,/imu_data_acquisition2,11059.0,0.0396118164062,-0.0316772460938,0.9072265625,0.417541503906,-33.3125,224.9375,1.4375,-3.36,-13.22,19.66
1455210060248908996,334,0,/imu_data_acquisition2,11072.0,0.0269165039062,-0.0193481445312,0.906982421875,0.419860839844,68.4375,198.25,-27.125,-4.41,-23.12,30.61
1455210060257742881,335,0,/imu_data_acquisition2,11084.0,0.023193359375,-0.005126953125,0.905883789062,0.422912597656,132.6875,111.25,-42.4375,-3.96,11.6,22.13
1455210060265453100,336,0,/imu_data_acquisition2,11089.0,0.023193359375,0.009033203125,0.904663085938,0.425415039062,151.1875,70.625,-36.625,-3.96,11.6,22.13
1455210060274775981,337,0,/imu_data_acquisition2,11099.0,0.0244750976562,0.0187377929688,0.904052734375,0.426391601562,110.25,35.1875,-15.8125,-3.99,10.86,19.96
1455210060285129070,338,0,/imu_data_acquisition2,11110.0,0.02587890625,0.0250244140625,0.903564453125,0.427001953125,74.1875,16.4375,-10.625,-1.35,2.17,13.62
1455210060296525955,339,0,/imu_data_acquisition2,11120.0,0.026611328125,0.0289306640625,0.903198242188,0.427429199219,46.125,11.25,-7.1875,-0.5,3.49,10.64
1455210060308847904,340,0,/imu_data_acquisition2,11133.0,0.027099609375,0.0318603515625,0.902954101562,0.427734375,33.0,9.625,-5.6875,-1.0,1.99,11.1
1455210060316225051,341,0,/imu_data_acquisition2,11141.0,0.0276489257812,0.0340576171875,0.902648925781,0.428100585938,26.1875,4.875,-5.25,-0.6,0.91,10.58
1455210060323523044,342,0,/imu_data_acquisition2,11148.0,0.0284423828125,0.0357055664062,0.902465820312,0.428344726562,22.125,0.375,-4.5,0.01,1.67,10.73
1455210060334093093,343,0,/imu_data_acquisition2,11160.0,0.0292358398438,0.0372924804688,0.902221679688,0.4287109375,20.5,-1.1875,-4.9375,0.12,1.62,10.15
1455210060346260070,344,0,/imu_data_acquisition2,11171.0,0.030029296875,0.03857421875,0.901916503906,0.429077148438,17.6875,-2.3125,-5.6875,-0.23,1.51,-0.01
1455210060355376958,345,0,/imu_data_acquisition2,11179.0,0.03076171875,0.0396118164062,0.901672363281,0.429504394531,14.875,-2.875,-5.75,-0.12,2.58,10.29
1455210060364582061,346,0,/imu_data_acquisition2,11189.0,0.0315551757812,0.0404052734375,0.901428222656,0.429931640625,12.4375,-4.375,-5.75,0.31,0.71,9.94
1455210060376168012,347,0,/imu_data_acquisition2,11199.0,0.0320434570312,0.0409545898438,0.901184082031,0.430236816406,8.1875,-2.6875,-4.375,-0.35,1.1,9.43
1455210060383094072,348,0,/imu_data_acquisition2,11209.0,0.0325317382812,0.0413818359375,0.901062011719,0.430480957031,7.5625,-2.9375,-3.1875,0.47,0.55,9.45
1455210060394849061,349,0,/imu_data_acquisition2,11220.0,0.0327758789062,0.0418701171875,0.901062011719,0.430480957031,6.0,-0.5625,-0.125,-0.15,1.24,10.14
1455210060406898975,350,0,/imu_data_acquisition2,11231.0,0.0328369140625,0.0421752929688,0.901123046875,0.430236816406,3.5625,0.875,3.0625,-0.3,0.69,10.02
1455210060413352966,351,0,/imu_data_acquisition2,11239.0,0.0328979492188,0.0424194335938,0.901245117188,0.429992675781,3.125,1.0,3.125,-0.3,1.36,10.17
1455210060423964023,352,0,/imu_data_acquisition2,11249.0,0.032958984375,0.0425415039062,0.9013671875,0.4296875,1.8125,-0.3125,3.9375,-0.24,1.51,10.14
1455210060436547040,353,0,/imu_data_acquisition2,11259.0,0.0330200195312,0.0426635742188,0.901489257812,0.429443359375,1.125,-0.1875,2.75,-0.53,1.61,9.99
1455210060444971084,354,0,/imu_data_acquisition2,11270.0,0.033203125,0.0426635742188,0.901550292969,0.429321289062,1.3125,-2.0,1.5625,-0.04,1.91,-0.01
1455210060455183982,355,0,/imu_data_acquisition2,11280.0,0.0333251953125,0.0426025390625,0.901550292969,0.429321289062,0.5,-1.3125,0.625,-0.35,1.47,10.16
1455210060465154886,356,0,/imu_data_acquisition2,11289.0,0.0335083007812,0.0426635742188,0.901489257812,0.429382324219,1.75,-1.8125,-1.0625,0.09,1.51,9.8
1455210060472791910,357,0,/imu_data_acquisition2,11299.0,0.0335693359375,0.0428466796875,-6.103515625e-05,0.429565429688,1.875,-0.0625,-2.0625,-0.28,1.41,10.1
1455210060484277009,358,0,/imu_data_acquisition2,11309.0,0.0336303710938,0.0430297851562,0.901306152344,0.429748535156,2.375,0.6875,-2.625,-0.35,1.17,10.24
1455210060498907089,359,0,/imu_data_acquisition2,11320.0,0.03369140625,0.0432739257812,0.901184082031,0.429931640625,3.125,-0.1875,-2.75,-0.1,1.18,9.8
1455210060506207942,360,0,/imu_data_acquisition2,11331.0,0.0338134765625,0.0435180664062,0.901123046875,0.430053710938,2.8125,0.375,-1.9375,-0.61,1.19,9.99
1455210060514652967,361,0,/imu_data_acquisition2,11339.0,0.033935546875,-6.103515625e-05,-6.103515625e-05,0.43017578125,2.875,0.0,-1.125,0.1,1.2,9.52
1455210060524772882,362,0,/imu_data_acquisition2,11349.0,0.0338134765625,0.0440063476562,0.901062011719,0.43017578125,2.375,2.25,-0.625,-0.23,1.17,9.77
1455210060533391952,363,0,/imu_data_acquisition2,11359.0,0.0336303710938,0.0443115234375,0.901062011719,0.43017578125,2.375,3.4375,-0.375,-0.53,1.1,9.73
1455210060545658111,364,0,/imu_data_acquisition2,11370.0,0.0335693359375,0.044677734375,0.901000976562,0.43017578125,3.3125,2.5,-0.6875,-0.38,1.45,9.58
1455210060555638074,365,0,/imu_data_acquisition2,11380.0,0.0333862304688,0.0450439453125,0.901000976562,0.43017578125,2.8125,3.875,0.25,-0.4,1.35,10.12
1455210060563256978,366,0,/imu_data_acquisition2,11389.0,0.0332641601562,-6.103515625e-05,-6.103515625e-05,0.43017578125,2.625,2.4375,0.3125,-0.05,1.53,9.61
1455210060574843883,367,0,/imu_data_acquisition2,11399.0,0.0330200195312,0.0454711914062,0.901062011719,0.430053710938,0.5625,3.5,0.875,-0.3,1.55,10.06
1455210060583869934,368,0,/imu_data_acquisition2,11409.0,0.0328369140625,0.0454711914062,0.901062011719,0.429992675781,-0.6875,2.3125,1.0,-0.14,1.61,10.07
1455210060593595981,369,0,/imu_data_acquisition2,11419.0,0.03271484375,0.04541015625,0.901123046875,0.429931640625,-0.9375,1.125,0.625,-0.41,1.64,9.87
1455210060606376886,370,0,/imu_data_acquisition2,11432.0,0.03271484375,0.04541015625,0.901062011719,0.429992675781,-0.5,0.5625,-0.8125,-0.8,1.5,10.16
1455210060613291025,371,0,/imu_data_acquisition2,11439.0,0.03271484375,0.0453491210938,0.901000976562,0.43017578125,-0.6875,-0.8125,-2.0,-0.44,1.41,10.21
1455210060623972892,372,0,/imu_data_acquisition2,11450.0,0.0327758789062,0.0452880859375,0.900939941406,0.430358886719,-1.0,-0.875,-2.125,-0.55,1.4,10.0
1455210060636166095,373,0,/imu_data_acquisition2,11461.0,0.0327758789062,0.0450439453125,0.90087890625,0.430480957031,-1.875,-1.5,-1.8125,-0.54,1.17,10.19
1455210060646495103,374,0,/imu_data_acquisition2,11471.0,0.0328369140625,0.0447387695312,0.900817871094,0.430603027344,-3.0625,-1.9375,-1.0,-0.51,1.15,9.84
1455210060653971910,375,0,/imu_data_acquisition2,11479.0,0.0327758789062,0.0443725585938,0.90087890625,0.430541992188,-4.125,-1.5,0.6875,-0.16,0.97,9.78
1455210060665479898,376,0,/imu_data_acquisition2,11490.0,0.03271484375,0.0440673828125,0.900939941406,0.430480957031,-3.375,-0.875,0.625,0.01,1.28,9.77
1455210060677176952,377,0,/imu_data_acquisition2,11500.0,0.0325317382812,0.0439453125,0.900939941406,0.430480957031,-2.625,1.125,0.125,-0.18,1.12,9.99
1455210060685518026,378,0,/imu_data_acquisition2,11510.0,0.0323486328125,0.0438232421875,0.900939941406,0.430480957031,-2.125,1.25,-0.375,-0.13,1.54,9.75
1455210060696551084,379,0,/imu_data_acquisition2,11522.0,0.0321044921875,0.043701171875,0.900939941406,0.430541992188,-2.6875,2.1875,-0.75,-0.67,1.47,9.99
1455210060705291986,380,0,/imu_data_acquisition2,11531.0,0.0318603515625,0.04345703125,0.900939941406,0.430603027344,-3.5,1.1875,-0.625,-0.47,1.52,9.9
1455210060716200113,381,0,/imu_data_acquisition2,11542.0,0.0315551757812,0.0430908203125,0.900939941406,0.430603027344,-5.4375,1.8125,-0.375,-0.18,1.34,10.16
1455210060725158929,382,0,/imu_data_acquisition2,11549.0,0.0311889648438,0.0425415039062,0.901000976562,0.430541992188,-7.875,1.0625,0.9375,-0.08,1.29,9.69
1455210060733484983,383,0,/imu_data_acquisition2,11559.0,0.0308227539062,0.0419921875,0.901062011719,0.430603027344,-8.25,1.0,0.375,0.12,1.0,10.1
1455210060745242118,384,0,/imu_data_acquisition2,11570.0,0.0302734375,0.0415649414062,0.901062011719,0.4306640625,-6.8125,3.6875,-0.9375,0.01,1.23,10.01
1455210060754776000,385,0,/imu_data_acquisition2,11578.0,0.0296630859375,0.0411987304688,0.900939941406,0.430969238281,-6.8125,4.375,-3.625,0.14,1.21,8.83
1455210060763722896,386,0,/imu_data_acquisition2,11589.0,0.0287475585938,0.0410766601562,0.900573730469,0.431762695312,-6.5,8.25,-11.0625,0.13,1.52,9.84
1455210060775677919,387,0,/imu_data_acquisition2,11600.0,0.0275268554688,0.0414428710938,0.900085449219,0.432922363281,-2.25,14.6875,-15.5,-0.01,0.85,9.05
1455210060783972978,388,0,/imu_data_acquisition2,11609.0,0.0260009765625,-6.103515625e-05,-6.103515625e-05,0.4345703125,10.75,23.75,-23.0625,-0.24,1.36,9.09
