%time,field.header.seq,field.header.stamp,field.header.frame_id,field.time_stamp,field.quat_x,field.quat_y,field.quat_z,field.quat_w,field.gyro_x,field.gyro_y,field.gyro_z,field.accel_x,field.accel_y,field.accel_z
1455209740148643016,1,0,/imu_data_acquisition2,13911.0,0.11328125,-0.052978515625,0.838500976562,0.530395507812,-75.125,212.1875,-37.5,4.02,2.04,-1.29
1455209740154973030,2,0,/imu_data_acquisition2,13919.0,0.0921020507812,-0.04638671875,0.839477539062,0.533508300781,-70.625,255.0625,-20.1875,3.52,6.82,7.19
1455209740167408943,3,0,/imu_data_acquisition2,13932.0,0.066650390625,-0.034912109375,0.841552734375,0.534973144531,-47.0625,328.125,-0.3125,-12.9,4.62,30.02
1455209740174973011,4,0,/imu_data_acquisition2,13939.0,0.0410766601562,-0.022705078125,0.84326171875,0.535461425781,-40.625,333.875,6.5,-7.52,-0.33,20.78
1455209740190390110,5,0,/imu_data_acquisition2,13951.0,0.0228271484375,-0.0115356445312,0.843994140625,0.535705566406,-3.3125,253.375,2.0,-2.98,-8.06,18.12
1455209740197480916,6,0,/imu_data_acquisition2,13962.0,0.00982666015625,0.001220703125,0.843872070312,0.536437988281,44.6875,210.9375,-9.6875,-12.87,-5.76,23.56
1455209740208177089,7,0,/imu_data_acquisition2,13971.0,0.00421142578125,0.0181884765625,0.842041015625,0.539123535156,133.3125,163.375,-40.375,-0.15,3.31,13.21
1455209740216029882,8,0,/imu_data_acquisition2,13980.0,0.0037841796875,0.033203125,0.839599609375,0.542175292969,147.25,99.75,-47.1875,-1.12,-0.01,-0.01
1455209740228768110,9,0,/imu_data_acquisition2,13992.0,0.00543212890625,0.0443725585938,0.837890625,0.544067382812,122.375,54.0625,-29.5625,-2.21,7.94,14.19
1455209740238468885,10,0,/imu_data_acquisition2,14000.0,0.008056640625,0.05126953125,0.836547851562,0.54541015625,85.875,17.875,-20.5,-1.36,2.56,13.08
1455209740245949983,11,0,/imu_data_acquisition2,14010.0,0.00872802734375,0.0558471679688,0.835693359375,0.546264648438,49.6875,22.25,-14.3125,-0.7,-0.01,-0.01
1455209740259038925,12,0,/imu_data_acquisition2,14023.0,0.00897216796875,0.0591430664062,0.835021972656,0.546936035156,35.0625,18.625,-11.0,-1.15,0.0,11.48
1455209740265652894,13,0,/imu_data_acquisition2,14030.0,0.0089111328125,0.0617065429688,0.834533691406,0.54736328125,25.1875,16.3125,-7.9375,-0.75,1.6,11.15
1455209740277390003,14,0,/imu_data_acquisition2,14041.0,0.009033203125,0.0635375976562,0.834289550781,0.547607421875,18.9375,10.6875,-4.125,-0.24,1.59,10.2
1455209740288496971,15,0,/imu_data_acquisition2,14051.0,0.00933837890625,0.0647583007812,0.834106445312,0.547729492188,14.3125,4.8125,-2.5625,-0.87,0.65,10.04
1455209740295417070,16,0,/imu_data_acquisition2,14060.0,0.00958251953125,0.0656127929688,0.833923339844,0.5478515625,10.0,2.6875,-2.0625,0.44,1.11,9.46
1455209740306920051,17,0,/imu_data_acquisition2,14070.0,0.010009765625,0.066162109375,0.833740234375,0.548034667969,8.0625,-0.6875,-2.625,0.26,1.31,9.51
1455209740319426059,18,0,/imu_data_acquisition2,14082.0,0.0100708007812,0.0664672851562,0.833679199219,0.548156738281,3.25,1.4375,-1.875,-0.13,1.4,10.5
1455209740325764894,19,0,/imu_data_acquisition2,14090.0,0.00982666015625,0.0665893554688,0.833618164062,0.548217773438,-0.3125,3.1875,-0.6875,0.09,0.99,9.77
1455209740336683988,20,0,/imu_data_acquisition2,14101.0,0.00933837890625,0.066650390625,0.833679199219,0.548156738281,-2.8125,4.875,0.625,0.12,0.84,9.98
1455209740348932981,21,0,/imu_data_acquisition2,14111.0,0.00933837890625,0.066650390625,0.833679199219,0.548156738281,-3.6875,8.125,1.4375,-0.55,1.11,10.1
1455209740357105970,22,0,/imu_data_acquisition2,14121.0,0.00775146484375,0.06689453125,0.833923339844,0.547729492188,-3.9375,9.5625,2.8125,-0.51,0.94,9.99
1455209740367723941,23,0,/imu_data_acquisition2,14131.0,0.007080078125,0.0670166015625,0.834106445312,0.547485351562,-3.125,7.625,2.875,-0.44,1.14,9.93
1455209740380548000,24,0,/imu_data_acquisition2,14141.0,0.00653076171875,0.0671997070312,0.834167480469,0.54736328125,-2.125,6.4375,1.625,-0.45,1.26,9.87
1455209740385914087,25,0,/imu_data_acquisition2,14150.0,0.006103515625,0.0672607421875,0.834228515625,0.547241210938,-1.9375,5.0625,1.0,-0.44,1.3,9.81
1455209740398741960,26,0,/imu_data_acquisition2,14161.0,0.00567626953125,0.0673217773438,0.834289550781,0.547180175781,-2.4375,4.4375,0.625,-0.27,1.41,9.87
1455209740409662008,27,0,/imu_data_acquisition2,14171.0,0.005126953125,0.0673217773438,0.834289550781,0.547119140625,-3.25,5.6875,-0.125,-0.35,1.51,10.27
1455209740416264057,28,0,/imu_data_acquisition2,14180.0,0.00457763671875,0.0674438476562,0.834289550781,0.547180175781,-2.9375,6.0625,-1.3125,-0.41,1.54,9.91
1455209740427860975,29,0,/imu_data_acquisition2,14191.0,0.00396728515625,0.0674438476562,0.834228515625,0.547302246094,-3.0625,5.8125,-1.625,-0.57,1.24,9.92
1455209740440236091,30,0,/imu_data_acquisition2,14201.0,0.00347900390625,0.0675048828125,0.834167480469,0.54736328125,-3.1875,5.3125,-1.6875,-0.56,1.15,10.21
1455209740445988893,31,0,/imu_data_acquisition2,14210.0,0.00311279296875,0.0674438476562,0.834106445312,0.547485351562,-2.8125,3.625,-1.625,-0.45,1.14,-0.01
1455209740457915067,32,0,/imu_data_acquisition2,14221.0,0.0028076171875,0.0673828125,0.834045410156,0.547546386719,-2.8125,2.8125,-0.875,-0.34,1.0,10.2
1455209740470427036,33,0,/imu_data_acquisition2,14232.0,0.00250244140625,0.0673217773438,0.834106445312,0.547485351562,-2.3125,2.5625,-0.0625,-0.58,0.85,10.05
1455209740476428985,34,0,/imu_data_acquisition2,14241.0,0.002197265625,0.0672607421875,0.834167480469,0.547424316406,-2.5,2.8125,0.875,-0.53,1.03,9.65
1455209740488291025,35,0,/imu_data_acquisition2,14252.0,0.00189208984375,0.0671997070312,0.834228515625,0.547302246094,-2.9375,2.6875,1.6875,-0.57,1.05,10.11
1455209740502039909,36,0,/imu_data_acquisition2,14262.0,0.00189208984375,0.0671997070312,0.834228515625,0.547302246094,-3.8125,2.375,2.5625,-0.52,1.24,10.01
1455209740507491111,37,0,/imu_data_acquisition2,14271.0,0.00152587890625,0.0670166015625,0.834411621094,0.547119140625,-4.4375,2.3125,3.0625,-1.13,1.21,10.01
1455209740518682956,38,0,/imu_data_acquisition2,14282.0,0.00079345703125,0.0665893554688,0.834716796875,0.546630859375,-4.9375,2.5625,3.375,-0.89,1.36,10.0
1455209740528279066,39,0,/imu_data_acquisition2,14291.0,0.00048828125,0.0662841796875,0.834899902344,0.54638671875,-5.25,0.75,2.875,-0.63,1.24,10.07
1455209740536588907,40,0,/imu_data_acquisition2,14301.0,0.00030517578125,0.0658569335938,0.835021972656,0.546264648438,-5.25,-0.3125,2.0,-0.64,1.24,9.75
1455209740547677040,41,0,/imu_data_acquisition2,14312.0,0.00030517578125,0.0658569335938,0.835021972656,0.546264648438,-5.0625,-0.25,1.6875,-0.68,1.07,10.12
1455209740558896064,42,0,/imu_data_acquisition2,14321.0,-0.00018310546875,0.0651245117188,0.835266113281,0.546020507812,-5.375,-0.0625,-0.0625,-0.4,1.06,10.02
1455209740566752910,43,0,/imu_data_acquisition2,14331.0,-0.00018310546875,0.0651245117188,0.835266113281,0.546020507812,-5.25,0.8125,1.625,-0.65,1.02,9.9
1455209740578609943,44,0,/imu_data_acquisition2,14341.0,-0.00079345703125,0.064453125,0.83544921875,0.545776367188,-5.5625,0.75,1.9375,-0.77,1.11,10.11
1455209740586374044,45,0,/imu_data_acquisition2,14350.0,-0.00079345703125,0.064453125,0.83544921875,0.545776367188,-6.3125,0.75,2.5,-0.68,0.96,10.16
1455209740598417043,46,0,/imu_data_acquisition2,14361.0,-0.0010986328125,0.0640258789062,0.835632324219,0.545593261719,-6.875,0.375,2.9375,-0.09,0.98,9.79
1455209740608376026,47,0,/imu_data_acquisition2,14371.0,-0.00128173828125,0.0634155273438,0.835815429688,0.545349121094,-6.375,0.375,2.875,-0.86,1.04,10.07
1455209740622725963,48,0,/imu_data_acquisition2,14382.0,-0.0015869140625,0.06298828125,0.8359375,0.545166015625,-6.25,2.25,2.6875,-0.67,0.91,9.94
1455209740627346038,49,0,/imu_data_acquisition2,14391.0,-0.00201416015625,0.0626220703125,0.836120605469,0.544921875,-6.1875,2.0625,3.0625,-0.47,1.16,9.86
1455209740639038085,50,0,/imu_data_acquisition2,14402.0,-0.00238037109375,0.062255859375,0.836303710938,0.544738769531,-6.625,2.25,2.9375,-0.94,1.13,10.19
1455209740648139953,51,0,/imu_data_acquisition2,14411.0,-0.0028076171875,0.0618896484375,0.836486816406,0.544494628906,-6.625,2.25,2.9375,-0.21,1.05,9.94
1455209740658118963,52,0,/imu_data_acquisition2,14422.0,-0.00372314453125,0.0609741210938,0.836975097656,0.543823242188,-7.875,1.1875,4.625,-0.47,0.75,9.68
1455209740668497085,53,0,/imu_data_acquisition2,14432.0,-0.00372314453125,0.0609741210938,0.836975097656,0.543823242188,-7.25,1.1875,5.0,-0.1,1.0,9.59
1455209740679739952,54,0,/imu_data_acquisition2,14442.0,-0.004150390625,0.0599365234375,0.83740234375,0.543212890625,-6.0625,0.3125,3.0,-0.33,0.99,9.66
1455209740687511920,55,0,/imu_data_acquisition2,14452.0,-0.004150390625,0.0599365234375,0.83740234375,0.543212890625,-4.5625,0.6875,-0.25,-0.69,0.83,10.04
1455209740705593109,56,0,/imu_data_acquisition2,14466.0,-0.00445556640625,0.0593872070312,0.837341308594,0.543395996094,-2.5625,-1.4375,-2.5,-0.43,0.99,9.97
1455209740708065986,57,0,/imu_data_acquisition2,14470.0,-0.00445556640625,0.0593872070312,0.837341308594,0.543395996094,-2.5625,-1.4375,-2.5,-0.52,0.79,9.7
1455209740718164920,58,0,/imu_data_acquisition2,14482.0,-0.00433349609375,0.0592041015625,0.837158203125,0.543701171875,1.625,0.3125,-4.125,-0.04,1.34,9.46
1455209740730094909,59,0,/imu_data_acquisition2,14492.0,-0.00390625,0.0592651367188,0.836975097656,0.5439453125,1.875,4.1875,-8.4375,-0.56,1.59,9.64
1455209740739746093,60,0,/imu_data_acquisition2,14502.0,-0.00506591796875,0.0599975585938,0.835876464844,0.545593261719,-0.8125,10.6875,-15.5,0.18,0.43,8.62
1455209740748900890,61,0,/imu_data_acquisition2,14513.0,-0.00506591796875,0.0599975585938,0.835876464844,0.545593261719,0.1875,20.3125,-21.375,-0.62,0.33,8.75
1455209740760658025,62,0,/imu_data_acquisition2,14523.0,-0.006591796875,0.0609130859375,0.834899902344,0.546997070312,0.1875,20.3125,-21.375,-0.81,1.31,10.29
1455209740769995927,63,0,/imu_data_acquisition2,14532.0,-0.00830078125,0.0634155273438,0.833557128906,0.548706054688,5.625,33.0,-28.9375,-0.28,1.06,9.02
1455209740778410911,64,0,/imu_data_acquisition2,14543.0,-0.010498046875,0.0653076171875,0.832153320312,0.550537109375,-5.3125,30.5,-29.0,-1.04,1.86,9.8
1455209740792417049,65,0,/imu_data_acquisition2,14555.0,-0.0130615234375,0.0663452148438,0.830810546875,0.552429199219,-12.5625,34.125,-28.5,-0.74,-0.01,-0.01
1455209740798737049,66,0,/imu_data_acquisition2,14562.0,-0.020263671875,0.0659790039062,0.828369140625,0.555847167969,-36.0,31.8125,-27.125,0.07,3.28,9.86
1455209740805778026,67,0,/imu_data_acquisition2,14570.0,-0.020263671875,0.0659790039062,0.828369140625,0.555847167969,-36.0,31.8125,-27.125,0.07,1.46,9.04
1455209740825894117,68,0,/imu_data_acquisition2,14584.0,-0.0256958007812,0.0670776367188,0.824523925781,0.561279296875,-15.9375,27.3125,-41.6875,-0.45,0.89,10.16
1455209740832829952,69,0,/imu_data_acquisition2,14592.0,-0.0256958007812,0.0670776367188,0.824523925781,0.561279296875,-13.8125,30.3125,-50.375,-1.04,3.1,8.43
1455209740841918945,70,0,/imu_data_acquisition2,14602.0,-0.0313720703125,0.06884765625,0.819152832031,0.568542480469,-0.0625,32.875,-59.6875,-0.62,0.37,10.61
1455209740847590923,71,0,/imu_data_acquisition2,14611.0,-0.0313720703125,0.06884765625,0.819152832031,0.568542480469,-0.0625,32.875,-59.6875,-1.83,1.17,9.65
1455209740856585979,72,0,/imu_data_acquisition2,14621.0,-6.103515625e-05,-6.103515625e-05,-6.103515625e-05,0.573181152344,-60.25,3.0,-70.1875,-0.82,1.49,10.7
1455209740868705034,73,0,/imu_data_acquisition2,14633.0,-0.0383911132812,0.0604248046875,0.813049316406,0.577819824219,-73.4375,-17.125,-80.0,-1.12,0.75,11.7
1455209740881150960,74,0,/imu_data_acquisition2,14642.0,-0.0411987304688,0.0542602539062,0.809509277344,0.583129882812,-93.5625,-28.375,-80.625,0.31,1.05,12.01
1455209740889359951,75,0,/imu_data_acquisition2,14653.0,-0.0442504882812,0.0462036132812,0.806030273438,0.588439941406,-111.0,-37.5,-68.75,1.19,1.04,10.91
1455209740900383949,76,0,/imu_data_acquisition2,14662.0,-0.0474243164062,0.0364990234375,0.803100585938,0.5927734375,-111.0,-37.5,-68.75,4.42,1.09,10.33
1455209740906364917,77,0,/imu_data_acquisition2,14670.0,-0.0557861328125,0.0278930664062,0.801452636719,0.594787597656,-138.625,18.4375,-39.125,4.42,1.09,10.33
1455209740918703079,78,0,/imu_data_acquisition2,14682.0,-0.0708618164062,0.0233764648438,0.801391601562,0.593505859375,-147.125,236.9375,46.1875,4.01,2.08,10.73
1455209740928592920,79,0,/imu_data_acquisition2,14692.0,-0.0941772460938,0.0255737304688,0.802307128906,0.5888671875,-131.25,369.1875,71.1875,7.07,0.47,13.96
1455209740949610948,81,0,/imu_data_acquisition2,14711.0,-0.165100097656,0.0533447265625,0.801086425781,0.572814941406,-116.5,505.5625,84.375,5.02,-1.41,15.34
1455209740956170082,82,0,/imu_data_acquisition2,14720.0,-0.209411621094,0.0789794921875,0.797302246094,0.560546875,-79.4375,609.9375,112.6875,0.79,0.11,14.01
1455209740969403982,83,0,/imu_data_acquisition2,14733.0,-0.257568359375,0.111389160156,0.79052734375,0.544311523438,-32.125,748.6875,141.9375,-6.7,-1.33,15.24
1455209740980226993,84,0,/imu_data_acquisition2,14743.0,-0.307067871094,0.146423339844,0.779479980469,0.526000976562,-27.0,704.5,151.625,-6.41,0.42,18.57
1455209740990948915,85,0,/imu_data_acquisition2,14753.0,-0.352111816406,0.179565429688,0.766845703125,0.505676269531,-14.5625,603.5625,142.875,-4.38,1.78,20.49
1455209741003895998,86,0,/imu_data_acquisition2,14765.0,-0.414855957031,0.227844238281,0.745422363281,0.469421386719,-29.625,423.8125,125.4375,-6.28,6.04,35.09
1455209741008363008,87,0,/imu_data_acquisition2,14772.0,-0.414855957031,0.227844238281,0.745422363281,0.469421386719,-67.375,147.625,60.75,-5.27,-0.86,39.86
1455209741020420074,88,0,/imu_data_acquisition2,14784.0,-0.425598144531,0.231567382812,0.743835449219,0.460327148438,-31.375,28.375,55.1875,3.89,-2.32,34.16
1455209741031641006,89,0,/imu_data_acquisition2,14793.0,-0.427551269531,0.232666015625,0.74560546875,0.455200195312,15.75,-43.75,44.25,5.59,-4.31,11.06
1455209741038065910,90,0,/imu_data_acquisition2,14802.0,-0.423278808594,0.233581542969,0.74853515625,0.453796386719,65.0,-66.75,37.3125,5.19,-2.69,6.33
1455209741049776077,91,0,/imu_data_acquisition2,14812.0,-0.415832519531,0.236450195312,0.751037597656,0.455078125,65.0,-66.75,37.3125,4.89,-1.04,4.52
1455209741060092926,92,0,/imu_data_acquisition2,14822.0,-0.407775878906,0.241088867188,0.752685546875,0.457214355469,90.125,-60.8125,35.375,3.77,1.07,6.74
1455209741071016073,93,0,/imu_data_acquisition2,14833.0,-0.400085449219,0.245910644531,0.754211425781,0.458923339844,89.0,-54.1875,37.6875,2.99,1.07,9.12
1455209741080514907,94,0,/imu_data_acquisition2,14843.0,-0.39208984375,0.2490234375,0.756713867188,0.460083007812,46.125,-101.75,42.625,2.93,0.11,11.09
1455209741089435100,95,0,/imu_data_acquisition2,14853.0,-0.382873535156,0.249389648438,0.7607421875,0.460998535156,36.5,-135.0,38.6875,2.66,-2.79,12.17
1455209741102389097,96,0,/imu_data_acquisition2,14866.0,-0.371948242188,0.247741699219,0.765747070312,0.462524414062,43.6875,-165.875,29.375,2.35,-3.54,11.84
1455209741108243942,97,0,/imu_data_acquisition2,14871.0,-0.358825683594,0.244934082031,0.771118164062,0.465393066406,43.6875,-165.875,29.375,2.35,-3.54,11.84
1455209741117913961,98,0,/imu_data_acquisition2,14882.0,-0.343505859375,0.241760253906,0.776306152344,0.470031738281,71.875,-216.9375,7.3125,0.9,-1.33,11.03
1455209741130986928,99,0,/imu_data_acquisition2,14894.0,-0.326171875,0.237976074219,0.781311035156,0.475952148438,72.3125,-237.0,2.8125,0.04,-0.4,11.41
1455209741140743970,100,0,/imu_data_acquisition2,14904.0,-0.307495117188,0.233276367188,0.786315917969,0.482421875,63.6875,-257.5,2.875,-0.48,0.06,11.27
1455209741145751953,101,0,/imu_data_acquisition2,14910.0,-0.287658691406,0.22705078125,0.791687011719,0.488830566406,63.6875,-257.5,2.875,-0.48,0.06,11.27
1455209741229922056,102,0,/imu_data_acquisition2,14921.0,-0.267028808594,0.219177246094,0.79736328125,0.494873046875,51.625,-274.8125,5.1875,-0.99,0.25,10.79
1455209741233685970,103,0,/imu_data_acquisition2,14934.0,-0.223815917969,0.200988769531,0.808654785156,0.505554199219,42.3125,-291.125,12.4375,-1.77,0.22,8.91
1455209741235317945,104,0,/imu_data_acquisition2,14943.0,-0.223815917969,0.200988769531,0.808654785156,0.505554199219,42.3125,-291.125,12.4375,-1.98,1.15,9.07
1455209741236705064,105,0,/imu_data_acquisition2,14952.0,-0.201843261719,0.191955566406,0.814025878906,0.509704589844,43.25,-288.6875,20.5,-3.22,3.02,11.3
1455209741239454984,106,0,/imu_data_acquisition2,14960.0,-0.180114746094,0.182922363281,0.819458007812,0.512451171875,38.25,-282.875,33.625,-3.22,3.02,11.3
1455209741241164922,107,0,/imu_data_acquisition2,14969.0,-0.15869140625,0.173583984375,0.825134277344,0.513610839844,29.5,-279.5625,50.0,-3.53,2.88,11.99
1455209741241908073,108,0,/imu_data_acquisition2,14981.0,-0.0125732421875,-6.103515625e-05,-6.103515625e-05,0.513305664062,17.5625,-277.5,64.1875,-4.3,2.05,12.54
1455209741242582082,109,0,/imu_data_acquisition2,14992.0,-0.116882324219,0.152587890625,0.836975097656,0.512329101562,4.8125,-277.875,67.0,-4.6,-1.86,12.56
1455209741244537115,110,0,/imu_data_acquisition2,15002.0,-0.0967407226562,0.140991210938,0.842163085938,0.511352539062,-2.8125,-275.625,61.5,-4.91,-2.13,12.42
1455209741246289968,111,0,/imu_data_acquisition2,15010.0,-0.07763671875,0.129272460938,0.846374511719,0.510803222656,-9.3125,-265.125,49.1875,-4.91,-2.13,12.42
1455209741256160020,112,0,/imu_data_acquisition2,15021.0,-0.0599365234375,0.117126464844,0.849548339844,0.510803222656,-19.75,-253.75,35.75,-4.96,-0.63,13.36
1455209741270359992,113,0,/imu_data_acquisition2,15033.0,-0.0438232421875,0.1044921875,0.852172851562,0.510803222656,-33.125,-240.5,28.8125,-6.77,0.4,19.41
1455209741281790018,114,0,/imu_data_acquisition2,15043.0,-0.0286865234375,0.0911865234375,0.854431152344,0.510681152344,-45.25,-234.625,26.5625,-6.97,-0.36,19.1
1455209741289058923,115,0,/imu_data_acquisition2,15053.0,-0.0132446289062,0.0775146484375,0.856262207031,0.510498046875,-46.75,-238.75,25.3125,-0.65,-0.01,-0.01
1455209741297071933,116,0,/imu_data_acquisition2,15061.0,0.0023193359375,0.0643310546875,0.857666015625,0.510131835938,-41.0,-237.25,24.3125,-5.77,-2.36,16.74
1455209741306209087,117,0,/imu_data_acquisition2,15070.0,0.017333984375,0.0519409179688,0.858520507812,0.509887695312,-35.9375,-227.5,19.375,-6.41,-2.93,17.41
1455209741319647073,118,0,/imu_data_acquisition2,15083.0,0.0318603515625,0.03955078125,0.858520507812,0.51025390625,-38.0625,-222.8125,7.75,-7.66,-2.73,18.62
1455209741332751035,119,0,/imu_data_acquisition2,15093.0,0.0457153320312,0.0265502929688,0.857788085938,0.511291503906,-62.125,-221.4375,-16.5625,-8.27,-2.27,18.11
1455209741338535070,120,0,/imu_data_acquisition2,15103.0,0.0590209960938,0.0125732421875,0.856201171875,0.513122558594,-62.125,-221.4375,-16.5625,-9.28,-0.94,16.16
1455209741348459959,121,0,/imu_data_acquisition2,15111.0,0.072021484375,-0.002685546875,0.853576660156,0.515930175781,-77.625,-226.6875,-31.5625,-9.28,-0.94,16.16
1455209741356648921,122,0,/imu_data_acquisition2,15120.0,0.084228515625,-0.0194702148438,0.850036621094,0.519653320312,-98.125,-228.75,-45.5625,-9.77,4.15,10.73
1455209741368634939,123,0,/imu_data_acquisition2,15133.0,0.0946044921875,-0.0368041992188,0.845886230469,0.523559570312,-115.375,-214.625,-50.125,-11.51,2.12,13.07
1455209741379720926,124,0,/imu_data_acquisition2,15143.0,0.103637695312,-0.05224609375,0.841613769531,0.527404785156,-105.0,-189.1875,-51.6875,-13.07,1.16,16.28
1455209741390134096,125,0,/imu_data_acquisition2,15153.0,0.11328125,-0.0643920898438,0.837280273438,0.531066894531,-67.9375,-175.25,-54.375,-15.58,1.32,15.51
1455209741397609949,126,0,/imu_data_acquisition2,15161.0,0.125915527344,-0.0728759765625,0.832824707031,0.534118652344,-12.3125,-181.875,-56.6875,-15.58,1.32,15.51
1455209741408096075,127,0,/imu_data_acquisition2,15171.0,0.141357421875,-0.0780029296875,0.828552246094,0.536193847656,40.75,-189.25,-52.9375,-15.82,2.52,10.48
1455209741419469118,128,0,/imu_data_acquisition2,15182.0,0.157165527344,-0.0808715820312,0.824890136719,0.536987304688,67.3125,-178.8125,-40.625,-16.26,4.43,4.62
1455209741430198907,129,0,/imu_data_acquisition2,15193.0,0.170043945312,-0.0831909179688,0.822326660156,0.53662109375,57.5625,-145.75,-20.75,-19.83,4.86,-4.53
1455209741441298961,130,0,/imu_data_acquisition2,15204.0,0.17822265625,-0.0855712890625,0.821228027344,0.535278320312,29.9375,-98.0,2.6875,-19.96,3.35,-5.36
1455209741445738077,131,0,/imu_data_acquisition2,15210.0,0.181335449219,-0.0878295898438,0.821533203125,0.533386230469,2.1875,-45.9375,21.4375,-19.96,3.35,-5.36
1455209741458736896,132,0,/imu_data_acquisition2,15220.0,0.179809570312,-0.0889892578125,0.822875976562,0.531677246094,-15.5,8.3125,29.625,-17.3,-0.78,-2.85
1455209741471752882,133,0,/imu_data_acquisition2,15233.0,0.174987792969,-0.087646484375,0.824951171875,0.5302734375,-12.1875,58.9375,28.5625,-14.69,-1.82,5.49
1455209741483031034,134,0,/imu_data_acquisition2,15245.0,-6.103515625e-05,-6.103515625e-05,-6.103515625e-05,0.529235839844,33.375,118.9375,8.875,9.31,-2.72,8.59
1455209741490458965,135,0,/imu_data_acquisition2,15254.0,0.161437988281,-0.0761108398438,0.829650878906,0.528930664062,75.5625,136.6875,-10.375,4.0,0.87,19.4
1455209741498183012,136,0,/imu_data_acquisition2,15260.0,0.155334472656,-0.0645141601562,0.831481933594,0.529479980469,75.5625,136.6875,-10.375,4.0,0.87,19.4
1455209741508275985,137,0,/imu_data_acquisition2,15270.0,0.147216796875,-0.0549926757812,0.832824707031,0.530822753906,41.625,142.6875,-16.0,6.13,0.97,15.72
1455209741519440889,138,0,/imu_data_acquisition2,15283.0,0.135437011719,-0.0508422851562,0.832458496094,0.534851074219,-40.5625,144.625,-41.375,3.57,4.98,-0.13
1455209741530033111,139,0,/imu_data_acquisition2,15292.0,0.120971679688,-0.0487060546875,0.83203125,0.539184570312,-77.625,158.0625,-40.5625,3.57,4.98,-0.13
1455209741539927005,140,0,/imu_data_acquisition2,15304.0,0.104248046875,-0.0430908203125,0.832946777344,0.541748046875,-54.375,202.75,-17.4375,-0.94,9.44,19.68
1455209741549364089,141,0,/imu_data_acquisition2,15311.0,0.0856323242188,-0.03515625,0.8349609375,0.542419433594,-40.9375,237.75,5.75,-0.94,9.44,19.68
1455209741557403087,142,0,/imu_data_acquisition2,15320.0,0.0667114257812,-0.0261840820312,0.837585449219,0.541564941406,-30.5,247.1875,24.375,-5.12,-1.52,18.12
1455209741568182945,143,0,/imu_data_acquisition2,15332.0,0.0504760742188,-0.0166625976562,0.839660644531,0.540466308594,-8.75,223.0625,21.25,-2.18,-4.51,12.57
1455209741580265045,144,0,/imu_data_acquisition2,15344.0,0.035400390625,-0.006591796875,0.840637207031,0.540344238281,4.4375,214.9375,4.625,-9.82,-3.9,18.26
1455209741590212106,145,0,/imu_data_acquisition2,15353.0,0.0240478515625,0.00927734375,0.839782714844,0.542297363281,84.4375,214.375,-31.0,-9.82,-3.9,18.26
1455209741599159955,146,0,/imu_data_acquisition2,15363.0,0.0196533203125,0.0234375,0.837890625,0.544921875,111.5625,133.375,-42.625,2.38,2.33,8.65
1455209741611856937,147,0,/imu_data_acquisition2,15375.0,0.0178833007812,0.036865234375,0.836242675781,0.546813964844,122.1875,103.6875,-32.5,-3.66,8.59,15.1
1455209741615674018,148,0,/imu_data_acquisition2,15380.0,0.018310546875,0.0447387695312,0.835388183594,0.547546386719,80.6875,46.125,-14.5,-3.66,8.59,15.1
1455209741629087924,149,0,/imu_data_acquisition2,15393.0,0.0188598632812,0.0499267578125,0.834716796875,0.548095703125,55.125,27.625,-11.0,-1.88,2.54,13.76
1455209741641024112,150,0,/imu_data_acquisition2,15404.0,0.0184326171875,0.0531616210938,0.834350585938,0.54833984375,29.25,25.25,-0.0625,-1.33,1.08,11.34
1455209741645970106,151,0,/imu_data_acquisition2,15410.0,0.0181884765625,0.055419921875,0.834167480469,0.548400878906,20.4375,16.8125,-3.125,-1.33,1.08,11.34
1455209741657444953,152,0,/imu_data_acquisition2,15421.0,0.0178833007812,0.05712890625,0.833984375,0.548522949219,15.1875,13.625,-3.0,-0.35,1.12,10.57
1455209741670193910,153,0,/imu_data_acquisition2,15432.0,0.0177001953125,0.0582885742188,0.833801269531,0.548645019531,10.25,9.1875,-2.3125,-0.33,1.92,10.09
1455209741681483030,154,0,/imu_data_acquisition2,15443.0,0.0177612304688,0.0589599609375,0.833679199219,0.548828125,7.625,3.875,-2.5,-0.31,0.93,9.98
1455209741690217018,155,0,/imu_data_acquisition2,15455.0,0.0178833007812,0.0595092773438,0.833557128906,0.548950195312,5.6875,2.1875,-2.6875,0.68,0.48,10.61
1455209741701477050,156,0,/imu_data_acquisition2,15464.0,0.0177001953125,0.0601196289062,0.833435058594,0.549011230469,4.9375,5.3125,-1.375,0.68,0.48,10.61
1455209741706140041,157,0,/imu_data_acquisition2,15471.0,0.0173950195312,0.0606689453125,0.833374023438,0.549133300781,3.125,6.75,-1.6875,0.3,0.59,9.07
1455209741719770908,158,0,/imu_data_acquisition2,15484.0,0.0169067382812,0.061279296875,0.833312988281,0.549133300781,3.3125,9.125,-0.625,-0.24,0.34,10.04
1455209741732019901,159,0,/imu_data_acquisition2,15495.0,0.0164184570312,0.0619506835938,0.833312988281,0.549072265625,3.4375,8.5,0.25,0.02,0.61,9.81
1455209741742399930,160,0,/imu_data_acquisition2,15504.0,0.0159912109375,0.0625610351562,0.833374023438,0.548889160156,3.3125,9.0,1.625,-0.22,0.88,10.0
1455209741750463962,161,0,/imu_data_acquisition2,15515.0,0.0155639648438,0.063232421875,0.83349609375,0.548706054688,3.5625,8.625,2.125,-0.32,1.2,10.45
1455209741761702060,162,0,/imu_data_acquisition2,15521.0,0.01513671875,0.0638427734375,0.833618164062,0.548461914062,3.375,7.9375,2.625,-0.21,1.14,-0.01
1455209741766483068,163,0,/imu_data_acquisition2,15531.0,0.014892578125,0.0642700195312,0.833679199219,0.548278808594,2.5625,5.625,2.375,-0.33,1.37,9.79
1455209741779994964,164,0,/imu_data_acquisition2,15544.0,0.0146484375,0.064697265625,0.833740234375,0.548156738281,2.1875,5.125,1.0625,-0.36,1.31,10.02
1455209741791599988,165,0,/imu_data_acquisition2,15553.0,0.0143432617188,0.0650024414062,0.833740234375,0.548095703125,1.375,4.5625,-0.4375,-0.63,1.57,-0.01
1455209741796869039,166,0,/imu_data_acquisition2,15561.0,0.0140991210938,0.0652465820312,0.833679199219,0.548217773438,0.9375,4.25,-1.625,-0.36,1.32,-0.01
1455209741809881925,167,0,/imu_data_acquisition2,15572.0,0.013916015625,0.0655517578125,0.833557128906,0.548400878906,1.625,3.375,-2.8125,-0.42,1.43,9.74
1455209741816509962,168,0,/imu_data_acquisition2,15580.0,0.013671875,0.0658569335938,0.833435058594,0.548522949219,1.5,4.0625,-2.5625,-0.27,0.98,9.93
1455209741829005956,169,0,/imu_data_acquisition2,15593.0,0.0135498046875,0.0661010742188,0.833312988281,0.548706054688,1.5,3.125,-2.625,-0.65,0.9,9.78
1455209741840652942,170,0,/imu_data_acquisition2,15604.0,0.0133056640625,0.06640625,0.833190917969,0.548828125,1.3125,4.1875,-1.75,-0.49,0.97,9.95
1455209741845732927,171,0,/imu_data_acquisition2,15610.0,0.0131225585938,0.066650390625,0.833190917969,0.548828125,1.75,3.4375,-0.6875,-0.3,1.18,9.74
1455209741856511116,172,0,/imu_data_acquisition2,15621.0,0.012939453125,0.0669555664062,0.833129882812,0.548828125,1.625,3.125,0.375,-0.33,0.95,9.69
1455209741870105028,173,0,/imu_data_acquisition2,15633.0,0.0127563476562,0.0671997070312,0.833251953125,0.548706054688,1.25,4.0625,1.5625,-0.24,0.87,10.03
1455209741875555038,174,0,/imu_data_acquisition2,15640.0,0.0123901367188,0.0673828125,0.833312988281,0.548522949219,0.5,4.875,2.0625,-0.66,1.15,9.71
1455209741887767076,175,0,/imu_data_acquisition2,15652.0,0.0120849609375,0.0675659179688,0.833435058594,0.548278808594,-0.25,4.75,2.625,-0.64,1.3,9.82
1455209741900044918,176,0,/imu_data_acquisition2,15662.0,0.0116577148438,0.0676879882812,0.833557128906,0.548095703125,-1.125,4.625,2.25,-0.53,1.15,10.14
1455209741905570983,177,0,/imu_data_acquisition2,15670.0,0.0112915039062,0.0678100585938,0.833679199219,0.547973632812,-1.5,4.5625,1.5625,-0.96,1.43,9.98
1455209741917423009,178,0,/imu_data_acquisition2,15681.0,0.0110473632812,0.06787109375,0.833679199219,0.547912597656,-0.8125,3.4375,0.8125,-0.56,1.47,9.86
1455209741931162118,179,0,/imu_data_acquisition2,15694.0,0.0107421875,0.0679931640625,0.833740234375,0.547912597656,-0.8125,3.75,0.0625,-0.77,1.23,10.07
1455209741936120986,180,0,/imu_data_acquisition2,15700.0,0.010498046875,0.068115234375,0.833679199219,0.547912597656,-0.5,2.6875,-0.875,-0.62,1.17,9.87
1455209741947501897,181,0,/imu_data_acquisition2,15711.0,0.0103759765625,0.0682373046875,0.833618164062,0.547973632812,-0.25,1.875,-1.1875,-0.57,1.01,10.03
1455209741959677934,182,0,/imu_data_acquisition2,15721.0,0.0101928710938,0.0682983398438,0.833618164062,0.547973632812,-0.5625,2.3125,-0.125,-0.4,0.97,9.97
1455209741966221094,183,0,/imu_data_acquisition2,15730.0,0.010009765625,0.0682373046875,0.833679199219,0.547912597656,-2.3125,1.625,1.25,-0.48,1.09,9.82
1455209741979458093,184,0,/imu_data_acquisition2,15743.0,-6.103515625e-05,-6.103515625e-05,-6.103515625e-05,0.547729492188,-4.4375,1.8125,2.3125,-0.72,0.94,10.11
1455209741988025903,185,0,/imu_data_acquisition2,15751.0,0.00933837890625,0.0676879882812,0.833984375,0.547546386719,-4.5625,1.75,2.375,-0.5,1.1,9.94
1455209741995934009,186,0,/imu_data_acquisition2,15760.0,0.00897216796875,0.0674438476562,0.834106445312,0.547424316406,-4.6875,1.4375,2.0,-0.53,1.22,10.03
1455209742007558107,187,0,/imu_data_acquisition2,15771.0,0.0086669921875,0.067138671875,0.834167480469,0.547302246094,-4.875,1.125,1.375,-0.97,1.3,10.15
1455209742019474029,188,0,/imu_data_acquisition2,15780.0,0.0084228515625,0.0667724609375,0.834289550781,0.547241210938,-5.3125,-0.125,1.1875,-0.59,1.14,9.77
1455209742026388883,189,0,/imu_data_acquisition2,15790.0,0.00799560546875,0.06640625,0.834350585938,0.547119140625,-6.1875,1.5,1.4375,-0.78,0.99,10.07
1455209742039560079,190,0,/imu_data_acquisition2,15802.0,0.007568359375,0.0659790039062,0.834533691406,0.546997070312,-6.0625,1.75,2.0,-0.34,1.02,9.87
1455209742047185897,191,0,/imu_data_acquisition2,15810.0,0.00714111328125,0.065673828125,0.834655761719,0.546813964844,-6.3125,2.3125,2.375,-0.13,0.86,9.73
1455209742056129932,192,0,/imu_data_acquisition2,15820.0,0.006591796875,0.0653686523438,0.834838867188,0.546508789062,-6.5625,3.875,3.5,-0.14,1.08,9.84
1455209742069696903,193,0,/imu_data_acquisition2,15831.0,0.00592041015625,0.0650634765625,0.835083007812,0.546264648438,-7.0,4.6875,3.5,-0.16,1.04,9.87
1455209742080818891,194,0,/imu_data_acquisition2,15841.0,0.00531005859375,0.0648193359375,0.835205078125,0.546081542969,-7.125,4.3125,2.125,0.02,1.01,9.78
1455209742087910890,195,0,/imu_data_acquisition2,15852.0,0.00469970703125,0.064453125,0.835327148438,0.545959472656,-7.125,3.625,1.25,0.08,0.53,9.75
1455209742100614070,196,0,/imu_data_acquisition2,15861.0,0.00439453125,0.064208984375,0.835266113281,0.546081542969,-4.6875,1.5625,-1.875,0.03,1.34,9.68
1455209742105835914,197,0,/imu_data_acquisition2,15870.0,0.00421142578125,0.0640258789062,0.834899902344,0.546630859375,-2.5625,0.0,-7.5,-0.01,1.17,10.05
1455209742117172956,198,0,/imu_data_acquisition2,15881.0,0.00408935546875,0.0639038085938,0.834411621094,0.547424316406,-1.5,0.5625,-10.875,0.04,1.34,9.63
1455209742130642890,199,0,/imu_data_acquisition2,15891.0,0.00360107421875,0.0640869140625,0.833801269531,0.548278808594,-0.875,5.25,-12.625,-0.87,1.0,9.03
1455209742135725975,200,0,/imu_data_acquisition2,15900.0,0.00299072265625,0.0652465820312,0.832946777344,0.549499511719,8.125,12.625,-18.0625,-0.24,0.76,8.41
1455209742148185014,201,0,/imu_data_acquisition2,15911.0,0.00164794921875,0.0667724609375,0.831726074219,0.551147460938,6.875,21.6875,-25.25,-0.33,0.74,9.01
1455209742189806938,202,0,/imu_data_acquisition2,15920.0,-0.00042724609375,0.0680541992188,0.830383300781,0.553039550781,-0.1875,27.4375,-29.5625,-0.18,1.39,9.48
1455209742192293882,203,0,/imu_data_acquisition2,15930.0,-0.00311279296875,0.0694580078125,0.828735351562,0.555297851562,-2.25,33.9375,-34.4375,-0.51,0.62,8.59
1455209742193511009,204,0,/imu_data_acquisition2,15940.0,-0.00653076171875,0.0711059570312,0.826904296875,0.557800292969,-4.6875,42.1875,-39.5,-1.0,4.12,10.13
1455209742194252014,205,0,/imu_data_acquisition2,15950.0,-0.0111083984375,0.07177734375,0.825134277344,0.560241699219,-21.9375,46.875,-39.1875,0.9,-1.04,9.05
1455209742195848941,206,0,/imu_data_acquisition2,15960.0,-0.0161743164062,0.0708618164062,0.823486328125,0.562683105469,-40.75,42.0,-39.5,-0.81,0.36,9.66
1455209742207906961,207,0,/imu_data_acquisition2,15971.0,-0.0202026367188,0.071044921875,0.821166992188,0.565856933594,-22.625,38.0,-49.6875,0.97,1.36,9.26
1455209742219290018,208,0,/imu_data_acquisition2,15980.0,-0.0247192382812,0.0701293945312,0.818420410156,0.56982421875,-35.6875,35.125,-60.9375,-1.05,1.17,10.15
1455209742225936889,209,0,/imu_data_acquisition2,15990.0,-0.0285034179688,0.068603515625,0.814819335938,0.574890136719,-36.0625,23.0625,-76.875,-0.84,0.08,10.6
1455209742237724065,210,0,/imu_data_acquisition2,16001.0,-0.0313110351562,0.0660400390625,0.810485839844,0.581176757812,-37.9375,6.375,-93.1875,0.19,1.79,11.02
1455209742248404026,211,0,/imu_data_acquisition2,16010.0,-0.03466796875,0.0603637695312,0.806213378906,0.587524414062,-71.9375,-10.5625,-95.6875,1.06,1.04,11.3
1455209742256036043,212,0,/imu_data_acquisition2,16020.0,-0.0402221679688,0.05029296875,0.802551269531,0.593139648438,-129.75,-19.5,-6.625,-1.82,1.13,10.85
1455209742268198966,213,0,/imu_data_acquisition2,16031.0,-0.0460205078125,0.0374145507812,0.799499511719,0.597717285156,-159.125,-36.1875,-74.625,1.49,-0.21,9.97
1455209742276948928,214,0,/imu_data_acquisition2,16040.0,-0.053466796875,0.0249633789062,0.79736328125,0.6005859375,-168.1875,-17.6875,-52.375,4.89,2.77,10.28
1455209742287780046,215,0,/imu_data_acquisition2,16050.0,-0.0675048828125,0.01708984375,0.795776367188,0.6015625,-172.75,77.1875,-29.375,6.57,-0.62,10.75
1455209742300522089,216,0,/imu_data_acquisition2,16061.0,-0.088623046875,0.0167236328125,0.794860839844,0.60009765625,-155.25,197.375,2.625,5.67,4.5,11.89
1455209742306610107,217,0,/imu_data_acquisition2,16070.0,-0.1201171875,0.0234375,0.794982910156,0.594116210938,-167.0,345.25,57.8125,5.37,1.73,13.89
1455209742316785097,218,0,/imu_data_acquisition2,16081.0,-0.161437988281,0.0360107421875,0.793884277344,0.585144042969,-185.0625,481.6875,83.625,4.69,-3.22,15.55
1455209742328306913,219,0,/imu_data_acquisition2,16091.0,-0.21044921875,0.0568237304688,0.789794921875,0.573364257812,-164.625,618.5,100.8125,0.08,-6.12,11.66
1455209742336821079,220,0,/imu_data_acquisition2,16101.0,-0.263671875,0.0869750976562,0.782165527344,0.557800292969,-113.1875,733.5,133.625,-3.6,-5.34,12.61
1455209742347508907,221,0,/imu_data_acquisition2,16111.0,-0.315490722656,0.1201171875,0.771850585938,0.538757324219,-84.3125,751.625,158.8125,-5.47,-1.4,19.08
1455209742357377052,222,0,/imu_data_acquisition2,16120.0,-0.359375,0.149047851562,0.76220703125,0.517333984375,-81.625,653.4375,180.125,-5.76,-1.82,19.09
1455209742366252899,223,0,/imu_data_acquisition2,16130.0,-0.397338867188,0.175231933594,0.75244140625,0.495239257812,-73.375,584.375,183.625,-0.9,-0.01,-0.01
1455209742379559993,224,0,/imu_data_acquisition2,16144.0,-0.423522949219,0.192138671875,0.744873046875,0.478454589844,-66.5625,403.125,130.875,-0.93,-4.55,39.86
1455209742388493061,225,0,/imu_data_acquisition2,16152.0,-0.433654785156,0.195678710938,0.74267578125,0.471252441406,-56.5,136.9375,45.4375,3.7,-3.97,32.27
1455209742398339986,226,0,/imu_data_acquisition2,16160.0,-0.435974121094,0.197937011719,0.742736816406,0.468078613281,-9.5,39.9375,34.5625,3.22,-4.6,20.45
1455209742408220052,227,0,/imu_data_acquisition2,16172.0,-0.432434082031,0.199951171875,0.743957519531,0.468566894531,36.375,-27.4375,21.0,5.67,-2.03,6.68
1455209742419118881,228,0,/imu_data_acquisition2,16182.0,-0.425720214844,0.203491210938,0.7451171875,0.471313476562,79.75,-52.375,16.4375,5.12,-0.43,4.66
1455209742430330991,229,0,/imu_data_acquisition2,16190.0,-0.418090820312,0.208618164062,-6.103515625e-05,0.474548339844,101.875,-50.25,20.5,4.9,0.68,4.96
1455209742438359975,230,0,/imu_data_acquisition2,16202.0,-0.410705566406,0.214172363281,0.746887207031,0.477111816406,101.5,-45.0,28.625,3.98,1.09,7.27
1455209742449645996,231,0,/imu_data_acquisition2,16212.0,-0.402709960938,0.218627929688,0.748779296875,0.478881835938,88.3125,-59.375,36.75,3.28,0.14,10.57
1455209742456032037,232,0,/imu_data_acquisition2,16220.0,-0.393188476562,0.221130371094,0.752197265625,0.480346679688,74.125,-89.875,42.5625,3.41,-0.6,10.87
1455209742468947887,233,0,/imu_data_acquisition2,16233.0,-0.382019042969,0.221801757812,0.756774902344,0.481811523438,64.125,-121.0625,45.9375,3.17,-1.5,10.73
1455209742479434967,234,0,/imu_data_acquisition2,16241.0,-0.369262695312,0.221069335938,0.76220703125,0.483520507812,60.1875,-147.625,45.4375,2.55,-2.95,9.65
1455209742486330032,235,0,/imu_data_acquisition2,16251.0,-0.354919433594,0.219421386719,0.768005371094,0.485900878906,62.0,-170.625,42.0,2.17,-3.35,9.38
1455209742501255035,236,0,/imu_data_acquisition2,16265.0,-0.339233398438,0.216918945312,0.773803710938,0.488952636719,65.0625,-189.25,36.0,1.69,-3.32,9.93
1455209742511146068,237,0,/imu_data_acquisition2,16271.0,-0.322570800781,0.213500976562,0.779602050781,0.492492675781,64.6875,-204.4375,29.75,-0.3,-3.2,13.25
1455209742517863988,238,0,/imu_data_acquisition2,16282.0,-0.304809570312,0.208679199219,0.785461425781,0.496643066406,59.875,-225.3125,22.5625,-0.76,-3.16,14.01
1455209742526782989,239,0,/imu_data_acquisition2,16291.0,-0.004150390625,-6.103515625e-05,-6.103515625e-05,0.501403808594,55.4375,-252.875,14.75,-1.51,-2.85,14.04
1455209742535687923,240,0,/imu_data_acquisition2,16300.0,-0.26416015625,0.193908691406,0.797424316406,0.506713867188,53.0,-280.4375,9.0,-2.0,-2.25,13.33
1455209742547908067,241,0,/imu_data_acquisition2,16312.0,-0.241394042969,0.184387207031,0.803344726562,0.51220703125,50.1875,-303.1875,6.1875,-2.16,-0.71,10.16
1455209742559742927,242,0,/imu_data_acquisition2,16322.0,-0.217956542969,0.173889160156,0.809143066406,0.517211914062,43.875,-314.125,8.625,-2.39,0.54,8.76
1455209742565828084,243,0,/imu_data_acquisition2,16330.0,-0.195007324219,0.162414550781,0.81494140625,0.521057128906,28.8125,-312.9375,16.4375,-2.73,1.29,8.29
1455209742577215909,244,0,/imu_data_acquisition2,16341.0,-0.17333984375,0.150085449219,0.820678710938,0.523315429688,8.75,-302.75,26.875,-3.53,1.34,10.98
1455209742590054035,245,0,/imu_data_acquisition2,16351.0,-0.153198242188,0.13720703125,0.826538085938,0.523986816406,-9.5,-288.625,38.8125,-4.52,0.25,13.64
1455209742596008062,246,0,/imu_data_acquisition2,16360.0,-0.1337890625,0.123779296875,0.832153320312,0.523803710938,-19.9375,-283.25,44.25,-4.93,-1.25,14.65
1455209742607197046,247,0,/imu_data_acquisition2,16371.0,-0.113952636719,0.110473632812,0.837097167969,0.523498535156,-16.25,-285.5625,41.5,-4.97,-1.21,12.85
1455209742620364904,248,0,/imu_data_acquisition2,16381.0,-0.09423828125,0.0979614257812,0.841247558594,0.523315429688,-7.3125,-278.0625,36.25,-4.63,-0.31,11.91
1455209742631026029,249,0,/imu_data_acquisition2,16395.0,-0.0753784179688,0.0862426757812,0.844543457031,0.523132324219,-3.6875,-263.75,31.0,-4.81,1.18,12.98
1455209742641047954,250,0,/imu_data_acquisition2,16402.0,-0.05810546875,0.0745849609375,0.847412109375,0.5224609375,-12.75,-247.1875,31.5,-6.53,2.91,20.14
1455209742647558927,251,0,/imu_data_acquisition2,16411.0,-0.0420532226562,0.0620727539062,0.850219726562,0.521057128906,-29.9375,-238.875,37.6875,-7.22,2.25,21.12
1455209742660758972,252,0,/imu_data_acquisition2,16422.0,-0.026123046875,0.048583984375,0.85302734375,0.518920898438,-41.0,-243.875,43.5,-6.71,0.72,19.45
1455209742666929960,253,0,/imu_data_acquisition2,16431.0,-0.00958251953125,0.0350952148438,0.855651855469,0.516296386719,-36.5625,-249.4375,47.9375,-6.39,-0.93,18.35
1455209742678431987,254,0,/imu_data_acquisition2,16441.0,0.0072021484375,0.0228881835938,0.857788085938,0.513427734375,-21.875,-243.4375,48.0625,-7.56,-2.34,17.31
1455209742688119888,255,0,/imu_data_acquisition2,16452.0,0.0239868164062,0.0117797851562,0.859252929688,0.510803222656,-11.625,-237.25,40.75,-7.5,-2.54,16.01
1455209742699040889,256,0,/imu_data_acquisition2,16461.0,0.0402221679688,0.000732421875,0.859924316406,0.508850097656,-13.6875,-231.5625,28.9375,-7.6,-2.56,14.64
1455209742706211090,257,0,/imu_data_acquisition2,16470.0,0.0551147460938,-0.0107421875,0.859619140625,0.5078125,-26.4375,-221.0625,14.5,-8.62,-1.27,13.52
1455209742717186927,258,0,/imu_data_acquisition2,16480.0,0.0682373046875,-0.0230102539062,0.8583984375,0.507934570312,-46.25,-208.0625,-2.1875,-9.3,0.24,12.92
1455209742726861953,259,0,/imu_data_acquisition2,16490.0,0.0796508789062,-0.036376953125,0.856140136719,0.50927734375,-68.625,-197.125,-19.1875,-9.53,0.48,12.2
1455209742746217966,260,0,/imu_data_acquisition2,16504.0,0.08935546875,-0.0499267578125,0.853149414062,0.511535644531,-82.5625,-6.25,-0.0625,-11.83,-0.13,13.07
1455209742751856088,261,0,/imu_data_acquisition2,16512.0,0.0980834960938,-0.0625610351562,0.849609375,0.514465332031,-79.375,-166.4375,-42.875,-13.29,-0.28,14.05
1455209742758543014,262,0,/imu_data_acquisition2,16522.0,0.106750488281,-0.0733032226562,0.845825195312,0.517517089844,-61.9375,-154.75,-48.25,-15.02,-0.12,14.46
1455209742781774044,264,0,/imu_data_acquisition2,16544.0,0.126220703125,-0.09033203125,0.837951660156,0.523193359375,-24.25,-152.8125,-49.9375,-19.55,3.42,6.76
1455209742788604974,265,0,/imu_data_acquisition2,16551.0,0.136169433594,-0.0977172851562,0.834228515625,0.525329589844,-19.0,-147.5625,-44.375,-21.91,3.65,3.01
1455209742801270961,266,0,/imu_data_acquisition2,16562.0,0.144775390625,-0.104125976562,0.831298828125,0.526428222656,-15.3125,-128.4375,-28.8125,-23.09,2.99,-1.38
1455209742808223962,267,0,/imu_data_acquisition2,16570.0,0.144775390625,-0.104125976562,0.831298828125,0.526428222656,-5.25,-92.3125,-10.75,-19.57,1.95,-8.51
1455209742840250015,270,0,/imu_data_acquisition2,16601.0,0.146789550781,-0.101318359375,0.833984375,0.522216796875,23.25,91.8125,33.3125,-12.01,-6.89,5.74
1455209742848936080,271,0,/imu_data_acquisition2,16612.0,0.138854980469,-0.0925903320312,0.837158203125,0.520935058594,43.3125,136.75,26.25,-3.23,-13.24,9.1
1455209742874258995,272,0,/imu_data_acquisition2,16632.0,0.133056640625,-0.0792846679688,0.839050292969,0.521545410156,97.0,142.625,-10.0,2.8,-3.21,18.24
1455209742887835025,273,0,/imu_data_acquisition2,16648.0,0.121948242188,-0.0513916015625,0.839233398438,0.527465820312,68.4375,-0.0625,-0.0625,2.3,5.17,2.22
1455209742938267946,276,0,/imu_data_acquisition2,16692.0,0.0533447265625,-0.0210571289062,0.840759277344,0.538330078125,-38.8125,272.0625,23.0,-2.5,-12.96,19.71
1455209742969619035,279,0,/imu_data_acquisition2,16726.0,0.0120849609375,0.0181884765625,0.840393066406,0.54150390625,143.8125,94.0625,-41.875,-9.22,17.05,28.54
1455209742984936952,280,0,/imu_data_acquisition2,16740.0,0.0119018554688,0.03271484375,0.838256835938,0.544128417969,98.5,48.5,-17.6875,-1.34,3.24,13.06
1455209743002469062,282,0,/imu_data_acquisition2,16760.0,0.0152587890625,0.051025390625,0.835998535156,0.546203613281,38.5625,18.25,-6.6875,-0.46,1.58,10.5
1455209743005769968,283,0,/imu_data_acquisition2,16768.0,0.0154418945312,0.0534057617188,0.835632324219,0.546508789062,24.4375,13.0,-5.8125,-0.46,1.58,10.5
1455209743009282112,284,0,/imu_data_acquisition2,16773.0,0.0155029296875,0.0549926757812,0.835266113281,0.546813964844,16.5,9.125,-5.5625,-0.63,0.78,10.61
1455209743049602031,286,0,/imu_data_acquisition2,16796.0,0.0156860351562,0.05615234375,0.835083007812,0.547058105469,10.375,3.25,-3.375,-0.28,0.9,9.65
1455209743056090116,287,0,/imu_data_acquisition2,16812.0,0.0162963867188,0.0577392578125,0.834716796875,0.547424316406,8.5,-0.625,-1.875,-0.19,1.64,9.59
1455209743112618923,290,0,/imu_data_acquisition2,16852.0,0.0172119140625,0.0606689453125,0.834228515625,0.5478515625,9.6875,7.25,-1.25,-0.43,0.67,10.59
1455209743147155046,293,0,/imu_data_acquisition2,16910.0,0.01708984375,0.0642700195312,0.834411621094,0.547119140625,3.875,2.5625,0.25,-0.12,1.57,10.01
1455209743288122892,294,0,/imu_data_acquisition2,16917.0,0.01708984375,0.064697265625,0.834350585938,0.547180175781,4.5625,2.5,-1.125,-0.12,1.57,-0.01
1455209743301574945,295,0,/imu_data_acquisition2,16922.0,0.0170288085938,0.065185546875,0.834228515625,0.547302246094,4.1875,3.5,-1.8125,-0.12,1.4,10.16
1455209743304799079,296,0,/imu_data_acquisition2,16938.0,0.0169067382812,0.065673828125,0.834167480469,0.547302246094,3.8125,4.3125,-0.9375,-0.08,1.32,9.97
1455209743306818962,297,0,/imu_data_acquisition2,16946.0,0.0167846679688,0.066162109375,0.834106445312,0.54736328125,4.0625,4.8125,-0.0625,-0.67,-0.01,-0.01
1455209743308701038,298,0,/imu_data_acquisition2,16954.0,0.0164184570312,0.0667114257812,0.834045410156,0.54736328125,3.125,6.5625,-0.6875,-0.53,1.09,10.12
1455209743310636997,299,0,/imu_data_acquisition2,16964.0,0.0161743164062,0.0671997070312,0.834045410156,0.54736328125,3.1875,5.625,-0.4375,-0.18,1.19,9.98
1455209743311630010,300,0,/imu_data_acquisition2,16974.0,0.0159301757812,0.0676879882812,0.834045410156,0.547302246094,3.375,6.0625,0.125,-0.06,1.0,9.73
1455209743312870979,301,0,/imu_data_acquisition2,16983.0,0.0154418945312,0.0682983398438,0.834106445312,0.547119140625,2.625,8.5625,1.5625,-0.18,0.87,9.86
1455209743319267034,302,0,/imu_data_acquisition2,16993.0,0.0147705078125,0.0687255859375,0.834289550781,0.546875,0.3125,9.9375,3.3125,-0.77,0.95,10.07
1455209743320339918,303,0,/imu_data_acquisition2,17002.0,0.0138549804688,0.0689697265625,0.834533691406,0.546447753906,-3.375,10.75,5.1875,-0.53,1.5,9.87
1455209743322159051,304,0,/imu_data_acquisition2,17015.0,0.0130004882812,0.0690307617188,0.834838867188,0.546020507812,-4.9375,9.0,5.4375,-0.77,1.42,10.18
1455209743323740959,305,0,/imu_data_acquisition2,17022.0,0.0125122070312,0.069091796875,0.8349609375,0.545776367188,-2.875,5.875,2.5625,-0.59,1.26,10.06
1455209743325496912,306,0,/imu_data_acquisition2,17032.0,0.011962890625,0.0691528320312,0.835144042969,0.545593261719,-2.875,5.875,2.5625,-0.86,1.58,10.05
1455209743327763080,307,0,/imu_data_acquisition2,17043.0,0.0115356445312,0.0692138671875,0.835205078125,0.545471191406,-2.1875,4.25,1.0625,-1.0,1.29,10.03
1455209743329752922,308,0,/imu_data_acquisition2,17053.0,0.0113525390625,0.0692138671875,0.835144042969,0.545532226562,-1.125,1.8125,-0.9375,-0.7,1.22,10.12
1455209743331310987,309,0,/imu_data_acquisition2,17063.0,0.0111694335938,0.0691528320312,0.835144042969,0.545593261719,-1.375,1.5,-0.875,-0.67,1.15,10.03
1455209743348908901,310,0,/imu_data_acquisition2,17074.0,0.0111083984375,0.0690307617188,0.835144042969,0.545593261719,-1.6875,0.4375,-0.4375,-0.36,1.15,9.86
1455209743349973917,311,0,/imu_data_acquisition2,17083.0,0.0108642578125,0.0689086914062,0.835144042969,0.545593261719,-2.5625,1.375,0.4375,-0.38,1.16,9.87
1455209743350795030,313,0,/imu_data_acquisition2,17113.0,0.0103759765625,0.068603515625,0.835327148438,0.54541015625,-4.4375,1.0625,2.6875,-0.67,1.01,10.29
1455209743360097885,314,0,/imu_data_acquisition2,17118.0,0.0101318359375,0.068359375,0.83544921875,0.545227050781,-4.4375,1.0625,2.6875,-0.67,1.01,10.29
1455209743364851951,315,0,/imu_data_acquisition2,17128.0,0.00982666015625,0.06787109375,0.835632324219,0.544982910156,-6.3125,0.5,3.375,-0.73,1.35,10.06
1455209743371776103,316,0,/imu_data_acquisition2,17135.0,0.009521484375,0.0673217773438,0.835876464844,0.544677734375,-7.6875,0.0,4.375,-0.79,1.09,9.86
1455209743381561040,317,0,/imu_data_acquisition2,17145.0,0.0091552734375,0.066650390625,0.836181640625,0.544311523438,-9.0625,-0.75,5.0625,-0.27,1.15,9.72
1455209743388736009,318,0,/imu_data_acquisition2,17153.0,0.00872802734375,0.0661010742188,0.836486816406,0.5439453125,-8.3125,1.25,5.5,-0.43,1.1,9.63
1455209743402836084,319,0,/imu_data_acquisition2,17164.0,0.00836181640625,0.0657348632812,0.836853027344,0.54345703125,-6.625,1.6875,6.5,-0.07,1.06,9.54
1455209743410397052,320,0,/imu_data_acquisition2,17173.0,0.00787353515625,0.0653686523438,0.837097167969,0.543029785156,-6.4375,2.6875,5.5625,-0.43,1.04,9.71
1455209743420316934,321,0,/imu_data_acquisition2,17184.0,0.00750732421875,0.0650634765625,0.83740234375,0.542602539062,-6.0,1.9375,5.8125,-0.5,0.91,10.04
1455209743431572914,322,0,/imu_data_acquisition2,17194.0,0.00750732421875,0.0650634765625,0.83740234375,0.542602539062,-5.125,1.9375,5.0,-0.41,1.18,10.02
1455209743440915107,323,0,/imu_data_acquisition2,17204.0,0.00714111328125,0.0642700195312,0.837768554688,0.542114257812,-2.4375,1.375,1.5625,0.33,0.62,9.55
1455209743450925111,324,0,/imu_data_acquisition2,17214.0,0.00732421875,0.0642700195312,0.837646484375,0.542297363281,1.3125,-1.6875,-2.5,0.13,1.16,9.74
1455209743463412046,325,0,/imu_data_acquisition2,17224.0,0.00732421875,0.0642700195312,0.837646484375,0.542297363281,6.875,-0.625,-7.0,-0.29,1.18,9.62
1455209743470740079,326,0,/imu_data_acquisition2,17234.0,0.00775146484375,0.0656127929688,0.836608886719,0.543823242188,9.8125,3.8125,-14.6875,0.13,1.21,8.92
1455209743481631994,327,0,/imu_data_acquisition2,17244.0,0.00775146484375,0.0656127929688,0.836608886719,0.543823242188,9.4375,12.0625,-22.0,-0.25,1.96,9.55
1455209743489397048,328,0,/imu_data_acquisition2,17253.0,0.0072021484375,0.06689453125,0.835510253906,0.545288085938,4.1875,21.1875,-26.4375,-0.01,0.9,9.44
1455209743500971078,329,0,/imu_data_acquisition2,17264.0,0.00341796875,0.0700073242188,0.832885742188,0.549011230469,4.1875,33.0,-30.8125,-0.34,1.01,9.34
1455209743512768983,330,0,/imu_data_acquisition2,17274.0,0.00341796875,0.0700073242188,0.832885742188,0.549011230469,0.5,40.625,-34.8125,-1.02,1.13,8.31
1455209743518899917,331,0,/imu_data_acquisition2,17283.0,0.0003662109375,0.0718994140625,0.831237792969,0.55126953125,-0.4375,45.6875,-37.0,0.08,2.4,9.01
1455209743533113956,332,0,/imu_data_acquisition2,17296.0,-0.00762939453125,0.0751953125,0.827880859375,0.555786132812,-17.125,50.5,-36.125,-1.83,0.71,9.98
1455209743543426990,333,0,/imu_data_acquisition2,17304.0,-6.103515625e-05,-6.103515625e-05,-6.103515625e-05,0.555786132812,-27.375,47.5625,-37.625,-0.22,2.12,9.95
1455209743550322055,334,0,/imu_data_acquisition2,17314.0,-0.0171508789062,0.0750732421875,0.824279785156,0.560913085938,-32.8125,40.625,-45.5625,-0.33,-0.13,8.58
1455209743568090915,335,0,/imu_data_acquisition2,17328.0,-0.0204467773438,0.0771484375,0.821044921875,0.565246582031,2.3125,42.4375,-65.625,-1.78,4.59,9.5
1455209743570014953,336,0,/imu_data_acquisition2,17333.0,-0.0204467773438,0.0771484375,0.821044921875,0.565246582031,2.3125,42.4375,-65.625,-0.23,0.74,10.17
1455209743580195903,337,0,/imu_data_acquisition2,17344.0,-0.0250854492188,0.0755615234375,0.817932128906,0.569763183594,-65.1875,14.625,-76.6875,-1.45,2.0,10.07
1455209743592545986,338,0,/imu_data_acquisition2,17356.0,-0.0296630859375,0.0715942382812,0.814636230469,0.574768066406,-82.375,-10.75,-83.75,-1.31,1.61,11.47
1455209743603199005,339,0,/imu_data_acquisition2,17366.0,-0.0360107421875,0.0567626953125,0.807312011719,0.586242675781,-93.125,-36.5625,-87.125,-0.77,1.18,11.04
1455209743611582040,340,0,/imu_data_acquisition2,17374.0,-0.0360107421875,0.0567626953125,0.807312011719,0.586242675781,-115.3125,-51.625,-76.875,-0.8,0.79,10.64
1455209743619857072,341,0,/imu_data_acquisition2,17383.0,-0.03857421875,0.046142578125,0.804138183594,0.591369628906,-115.3125,-51.625,-76.875,-0.8,0.79,10.64
1455209743633954048,342,0,/imu_data_acquisition2,17395.0,-0.043212890625,0.0347290039062,0.801879882812,0.594848632812,-161.0,7.875,-35.5625,5.13,1.39,10.73
1455209743643513917,343,0,/imu_data_acquisition2,17405.0,-0.0519409179688,0.0241088867188,0.800476074219,0.596618652344,-164.625,105.25,11.4375,8.02,0.83,10.27
1455209743656056880,344,0,/imu_data_acquisition2,17415.0,-0.091796875,0.0227661132812,0.801818847656,0.590026855469,-134.1875,263.25,50.8125,4.93,0.84,11.43
1455209743665401935,345,0,/imu_data_acquisition2,17427.0,-0.091796875,0.0227661132812,0.801818847656,0.590026855469,-118.75,399.8125,72.875,7.17,-0.33,14.72
1455209743673810005,346,0,/imu_data_acquisition2,17436.0,-0.166748046875,0.055908203125,0.800231933594,0.573303222656,-107.4375,551.0625,92.625,3.89,-0.7,14.82
1455209743694364070,348,0,/imu_data_acquisition2,17457.0,-0.26708984375,0.119567871094,0.790283203125,0.538330078125,-59.5625,752.1875,181.0,-6.48,-5.12,11.32
1455209743702362060,349,0,/imu_data_acquisition2,17466.0,-0.317138671875,0.15283203125,0.779663085938,0.517822265625,-57.5625,745.125,158.5,-7.16,0.37,16.44
1455209743714675903,350,0,/imu_data_acquisition2,17478.0,-0.317138671875,0.15283203125,0.779663085938,0.517822265625,-59.0,670.125,159.0,-5.36,0.3,18.74
1455209743724558115,351,0,/imu_data_acquisition2,17485.0,-0.361206054688,0.182250976562,0.768127441406,0.496276855469,-55.0,564.6875,169.3125,-9.08,0.52,19.67
1455209743754076004,353,0,/imu_data_acquisition2,17517.0,-0.430297851562,0.225402832031,0.759338378906,0.432922363281,-41.6875,23.9375,107.5625,1.8,-3.63,27.11
1455209743777808904,355,0,/imu_data_acquisition2,17529.0,-0.424194335938,0.228698730469,0.764282226562,0.428527832031,24.9375,-50.9375,97.375,5.17,-4.84,10.26
1455209743781009912,356,0,/imu_data_acquisition2,17534.0,-0.424194335938,0.228698730469,0.764282226562,0.428527832031,24.9375,-50.9375,97.375,4.45,-3.57,7.21
1455209743790380001,357,0,/imu_data_acquisition2,17552.0,-0.404724121094,0.240966796875,0.771728515625,0.42724609375,103.0,-74.5625,76.625,4.61,-2.64,5.6
1455209743810764074,358,0,/imu_data_acquisition2,17574.0,-0.394897460938,0.246887207031,0.774780273438,0.427551269531,71.5625,-89.1875,61.25,3.01,-3.98,11.95
1455209743824834108,359,0,/imu_data_acquisition2,17585.0,-0.374938964844,0.250732421875,0.782958984375,0.428405761719,44.1875,-115.25,48.875,2.94,-5.56,13.93
1455209743827050924,360,0,/imu_data_acquisition2,17589.0,-0.363342285156,0.248413085938,0.788024902344,0.430480957031,31.375,-147.625,30.625,2.94,-5.56,13.93
1455209743836704015,361,0,/imu_data_acquisition2,17596.0,-0.349487304688,0.244506835938,0.793029785156,0.434936523438,38.9375,-184.25,8.4375,1.76,-6.77,15.08
1455209743842453002,362,0,/imu_data_acquisition2,17605.0,-0.349487304688,0.244506835938,0.793029785156,0.434936523438,56.5,-222.125,-14.0625,1.19,-6.04,13.29
1455209743849987983,363,0,/imu_data_acquisition2,17613.0,-0.332763671875,0.239685058594,0.797790527344,0.442016601562,56.5,-222.125,-14.0625,1.01,-4.52,10.34
1455209743856157064,364,0,/imu_data_acquisition2,17620.0,-0.313842773438,0.23388671875,0.802062988281,0.451110839844,68.0625,-251.0625,-32.75,1.01,-4.52,10.34
1455209743867105007,365,0,/imu_data_acquisition2,17626.0,-0.294067382812,0.226867675781,0.805969238281,0.4609375,64.375,-267.3125,-43.3125,0.47,-1.42,7.02
1455209743875030040,366,0,/imu_data_acquisition2,17638.0,-0.294067382812,0.226867675781,0.805969238281,0.4609375,46.4375,-275.1875,-46.625,-0.01,-0.09,7.29
1455209743884257078,367,0,/imu_data_acquisition2,17645.0,-0.274353027344,0.218078613281,0.809875488281,0.470397949219,26.3125,-279.375,-45.375,-0.2,0.56,7.99
1455209743902954101,368,0,/imu_data_acquisition2,17663.0,-0.254943847656,0.207702636719,0.813842773438,0.479125976562,21.4375,-281.125,-38.4375,-0.76,1.85,10.19
1455209743904972076,369,0,/imu_data_acquisition2,17669.0,-0.215087890625,0.186828613281,0.821594238281,0.493835449219,29.5625,-281.3125,-24.4375,-1.57,3.39,12.12
1455209743917845010,370,0,/imu_data_acquisition2,17674.0,-0.215087890625,0.186828613281,0.821594238281,0.493835449219,29.5625,-281.3125,-24.4375,-2.64,4.31,13.09
1455209743933917999,371,0,/imu_data_acquisition2,17682.0,-0.193725585938,0.17724609375,0.825805664062,0.499084472656,35.5,-285.8125,-3.6875,-2.64,4.31,13.09
1455209743951889991,374,0,/imu_data_acquisition2,17715.0,-0.127990722656,0.143493652344,0.841247558594,0.505310058594,-14.8125,-285.125,40.625,-3.89,1.24,11.52
1455209743976948022,375,0,/imu_data_acquisition2,17737.0,-0.0696411132812,0.106262207031,0.853820800781,0.504821777344,-11.875,-265.1875,42.9375,-4.71,2.87,17.44
1455209743996459007,378,0,/imu_data_acquisition2,17760.0,-0.0308227539062,0.0829467773438,0.860900878906,0.501037597656,-7.5,-269.5625,58.125,-6.55,1.28,20.65
1455209744005112886,379,0,/imu_data_acquisition2,17766.0,-0.0308227539062,0.0829467773438,0.860900878906,0.501037597656,-9.25,-275.625,61.1875,-6.96,0.3,17.84
1455209744009787082,380,0,/imu_data_acquisition2,17774.0,-0.0107421875,0.07080078125,0.864013671875,0.498352050781,-9.25,-275.625,61.1875,-6.99,-0.32,15.43
1455209744022478103,381,0,/imu_data_acquisition2,17786.0,0.00860595703125,0.058349609375,0.866638183594,0.495422363281,-26.0625,-251.0625,54.375,-7.28,-1.17,14.17
1455209744038054943,382,0,/imu_data_acquisition2,17795.0,0.0261840820312,0.0458984375,0.86865234375,0.492614746094,-36.0,-231.6875,44.75,-7.37,-1.44,14.1
1455209744042334079,383,0,/imu_data_acquisition2,17806.0,-6.103515625e-05,-6.103515625e-05,-6.103515625e-05,0.488464355469,-45.1875,-215.8125,32.5,-8.03,-1.31,15.47
1455209744053442001,384,0,/imu_data_acquisition2,17815.0,0.055908203125,0.0211181640625,0.870544433594,0.488464355469,-45.1875,-215.8125,32.5,-8.54,-1.28,17.17
1455209744069475889,386,0,/imu_data_acquisition2,17833.0,0.0819702148438,-0.00506591796875,0.869201660156,0.487609863281,-63.3125,-210.3125,6.0625,-8.63,-1.52,15.87
1455209744082273960,387,0,/imu_data_acquisition2,17845.0,0.0940551757812,-0.0187377929688,0.867248535156,0.488525390625,-72.0,-205.0,-8.0625,-10.48,-0.23,12.72
1455209744091881990,388,0,/imu_data_acquisition2,17855.0,0.105041503906,-0.0326538085938,0.864440917969,0.490600585938,-82.375,-195.9375,-24.1875,-11.36,3.21,-0.01
1455209744100687026,389,0,/imu_data_acquisition2,17865.0,0.114624023438,-0.04736328125,0.860717773438,0.493713378906,-100.25,-187.0,-39.3125,-13.77,2.15,14.2
1455209744112812995,390,0,/imu_data_acquisition2,17875.0,0.122192382812,-0.0155029296875,-6.103515625e-05,0.497314453125,-115.9375,-168.9375,-43.75,-15.2,1.5,14.52
1455209744121856927,391,0,/imu_data_acquisition2,17884.0,0.129455566406,-0.0762939453125,0.852416992188,0.500793457031,-106.6875,-159.125,-45.375,-15.2,1.5,14.52
1455209744131836891,392,0,/imu_data_acquisition2,17896.0,0.137878417969,-0.0885009765625,0.84814453125,0.503845214844,-60.0,-159.375,-41.0625,-19.11,3.95,5.44
1455209744143405914,393,0,/imu_data_acquisition2,17905.0,0.147033691406,-0.09912109375,0.843994140625,0.506225585938,-60.0,-159.375,-41.0625,-20.67,4.41,-0.11
1455209744161832094,394,0,/imu_data_acquisition2,17916.0,0.155212402344,-0.108520507812,0.840454101562,0.507751464844,-51.6875,-142.5,-29.5,-22.22,4.24,-6.14
1455209744164279937,395,0,/imu_data_acquisition2,17927.0,0.160400390625,-0.116149902344,0.83837890625,0.507873535156,-47.4375,-101.25,-6.1875,-21.26,3.19,-6.12
1455209744169183969,396,0,/imu_data_acquisition2,17933.0,0.161254882812,-0.121765136719,0.838195800781,0.506591796875,-48.6875,-44.1875,21.0625,-21.26,3.19,-6.12
1455209744182729005,397,0,/imu_data_acquisition2,17945.0,0.157470703125,-0.125732421875,0.839721679688,0.504211425781,-55.4375,13.5,45.5625,-17.22,-0.59,1.11
1455209744192106008,398,0,/imu_data_acquisition2,17955.0,0.149780273438,-0.128234863281,0.842468261719,0.501342773438,-61.125,61.75,61.125,-11.52,-14.94,6.73
1455209744242955923,399,0,/imu_data_acquisition2,17966.0,0.140869140625,-0.128112792969,0.845520019531,0.498901367188,57.9375,106.4375,5.0,8.71,-14.74,12.65
1455209744262051105,400,0,/imu_data_acquisition2,17973.0,0.135620117188,-0.119567871094,0.847534179688,0.498962402344,57.9375,106.4375,5.0,8.71,-14.74,12.65
1455209744264230966,402,0,/imu_data_acquisition2,17999.0,0.127380371094,-0.0760498046875,0.848083496094,0.508666992188,77.5625,130.3125,-66.0625,6.18,3.63,-4.6
1455209744266236066,403,0,/imu_data_acquisition2,18005.0,0.127380371094,-0.0760498046875,0.848083496094,0.508666992188,77.5625,130.3125,-66.0625,6.18,3.63,-4.6
1455209744267060995,404,0,/imu_data_acquisition2,18018.0,0.114013671875,-0.0679321289062,0.846984863281,0.514770507812,-23.1875,213.6875,-37.5625,-1.47,18.21,14.02
1455209744267894029,405,0,/imu_data_acquisition2,18025.0,0.097900390625,-0.0599365234375,0.84716796875,0.518798828125,-23.1875,213.6875,-37.5625,-3.94,14.54,22.95
