%time,field.header.seq,field.header.stamp,field.header.frame_id,field.time_stamp,field.quat_x,field.quat_y,field.quat_z,field.quat_w,field.gyro_x,field.gyro_y,field.gyro_z,field.accel_x,field.accel_y,field.accel_z
1542387242255280971,67,0,/imu_data_acquisition2,48242.0,0.0200805664062,-0.0426635742188,0.72705078125,0.684997558594,-5.25,-4.0,-0.4375,1.13,-0.09,9.6
1542387242263525962,68,0,/imu_data_acquisition2,48250.0,0.02001953125,-0.043212890625,0.726989746094,0.684997558594,-5.25,-4.0,-0.4375,1.13,-0.09,9.6
1542387242288268089,70,0,/imu_data_acquisition2,48271.0,0.02001953125,-0.0441284179688,0.726806640625,0.685119628906,-1.875,-1.8125,-1.3125,1.22,-0.56,9.68
1542387242297537088,71,0,/imu_data_acquisition2,48284.0,0.0200805664062,-0.0444946289062,0.726745605469,0.685180664062,-0.25,-1.0625,-1.375,0.83,-0.69,9.99
1542387242309782028,72,0,/imu_data_acquisition2,48294.0,0.0201416015625,-0.0445556640625,0.726623535156,0.685241699219,0.9375,0.3125,-1.375,1.22,-0.56,9.84
1542387242329338073,74,0,/imu_data_acquisition2,48317.0,0.0203857421875,-0.0440673828125,0.726379394531,0.685546875,2.8125,2.0,-1.75,1.01,-0.41,9.89
1542387242336972951,75,0,/imu_data_acquisition2,48324.0,0.0203857421875,-0.0440673828125,0.726379394531,0.685546875,2.6875,3.125,-1.875,0.9,-0.01,-0.01
1542387242344372034,76,0,/imu_data_acquisition2,48332.0,0.0203247070312,-0.0437622070312,0.726318359375,0.685668945312,3.0,2.8125,-2.0,1.24,-0.4,9.69
1542387242359106063,77,0,/imu_data_acquisition2,48344.0,0.0203857421875,-0.0435180664062,0.726196289062,0.685791015625,3.375,3.1875,-2.375,1.1,-0.37,9.88
1542387242366240024,78,0,/imu_data_acquisition2,48354.0,0.0204467773438,-0.0431518554688,0.72607421875,0.685974121094,3.375,3.1875,-2.375,1.07,-0.5,10.0
1542387242372924089,79,0,/imu_data_acquisition2,48359.0,0.0204467773438,-0.0427856445312,0.725952148438,0.686096191406,3.6875,4.25,-2.5625,1.07,-0.5,10.0
1542387242387614965,80,0,/imu_data_acquisition2,48373.0,0.0203857421875,-0.042236328125,0.725830078125,0.686279296875,6.0625,5.5625,-2.8125,1.2,-0.55,9.6
1542387242396143913,81,0,/imu_data_acquisition2,48383.0,0.0204467773438,-0.0416870117188,0.725708007812,0.686462402344,8.0,5.0625,-3.0625,1.49,-0.46,9.82
1542387242403930902,82,0,/imu_data_acquisition2,48391.0,0.0206909179688,-0.0411987304688,0.725524902344,0.686645507812,9.0625,6.1875,-3.4375,1.05,-0.45,9.62
1542387242424983024,84,0,/imu_data_acquisition2,48411.0,0.0210571289062,-0.0396118164062,0.725219726562,0.687072753906,9.5,8.3125,-3.6875,0.9,-0.33,10.06
1542387242432847976,85,0,/imu_data_acquisition2,48420.0,0.0211181640625,-0.0385131835938,0.725036621094,0.687316894531,10.1875,9.0625,-3.9375,0.9,-0.33,10.06
1542387242463278055,88,0,/imu_data_acquisition2,48450.0,0.02099609375,-0.0348510742188,0.724548339844,0.68798828125,9.5,10.4375,-2.9375,1.14,0.0,10.13
1542387242476048946,89,0,/imu_data_acquisition2,48461.0,0.0208740234375,-0.03369140625,0.724426269531,0.688171386719,8.5,11.0625,-2.8125,1.31,0.16,9.78
1542387242483951091,90,0,/imu_data_acquisition2,48471.0,0.0205078125,-0.032470703125,0.724304199219,0.688354492188,7.4375,12.9375,-2.6875,-0.49,-0.25,9.9
1542387242494211912,91,0,/imu_data_acquisition2,48482.0,0.0198974609375,-0.0311889648438,0.724182128906,0.688598632812,6.1875,15.75,-3.0,2.16,0.19,8.99
1542387242505572080,92,0,/imu_data_acquisition2,48492.0,0.0189208984375,-0.0296020507812,0.724060058594,0.688842773438,5.1875,24.8125,-3.0625,1.83,-0.01,-0.01
1542387242512825965,93,0,/imu_data_acquisition2,48500.0,0.0177001953125,-0.02783203125,0.723937988281,0.689086914062,5.1875,24.8125,-3.0625,1.83,-0.91,9.8
1542387242522566080,94,0,/imu_data_acquisition2,48510.0,0.0162353515625,-0.0258178710938,0.723693847656,0.689392089844,5.375,29.375,-4.6875,1.29,0.15,8.91
1542387242535674095,95,0,/imu_data_acquisition2,48523.0,0.014404296875,-0.0234375,0.723388671875,0.689880371094,5.375,43.5625,-8.875,1.68,-0.97,9.1
1542387242545140027,96,0,/imu_data_acquisition2,48532.0,0.0120849609375,-0.0205688476562,0.722961425781,0.690490722656,5.375,43.5625,-8.875,2.41,0.35,8.35
1542387242554627895,97,0,/imu_data_acquisition2,48542.0,0.00927734375,-0.0169677734375,0.722290039062,0.691345214844,9.9375,66.4375,-12.4375,1.24,-2.09,9.21
1542387242563446998,98,0,/imu_data_acquisition2,48550.0,0.005859375,-0.012451171875,0.721618652344,0.692199707031,9.9375,66.4375,-12.4375,1.24,-2.09,9.21
1542387242572375059,99,0,/imu_data_acquisition2,48560.0,0.00140380859375,-0.00665283203125,0.720825195312,0.693054199219,13.0625,85.375,-13.5625,1.47,-1.71,10.34
1542387242584839105,100,0,/imu_data_acquisition2,48572.0,-0.00347900390625,0.000244140625,0.719604492188,0.6943359375,20.0625,112.1875,-15.3125,0.71,1.43,10.15
1542387242596168041,101,0,/imu_data_acquisition2,48582.0,-0.00909423828125,0.008056640625,0.718688964844,0.695251464844,20.0625,112.1875,-15.3125,1.11,0.1,9.47
1542387242605818986,102,0,/imu_data_acquisition2,48592.0,-0.015625,0.0171508789062,0.717712402344,0.695983886719,23.8125,130.0625,-13.8125,1.34,0.94,9.8
1542387242613663911,103,0,/imu_data_acquisition2,48601.0,-0.0230712890625,0.02685546875,0.716796875,0.696350097656,21.4375,143.5,-10.125,1.34,0.94,9.8
1542387242623073101,104,0,/imu_data_acquisition2,48610.0,-0.0315551757812,0.0375366210938,0.715698242188,0.696716308594,20.4375,160.3125,-12.0,1.48,-0.21,9.45
1542387242635915994,105,0,/imu_data_acquisition2,48623.0,-0.0419921875,0.048583984375,0.714599609375,0.696594238281,2.75,195.6875,-15.1875,0.73,1.67,9.51
1542387242644896984,106,0,/imu_data_acquisition2,48632.0,-6.103515625e-05,-6.103515625e-05,-6.103515625e-05,0.696655273438,2.75,195.6875,-15.1875,0.85,0.25,12.48
1542387242656420946,107,0,/imu_data_acquisition2,48643.0,-0.0665283203125,0.0712890625,0.710876464844,0.696533203125,-16.3125,204.25,-14.9375,0.85,0.24,11.87
1542387242663393020,108,0,/imu_data_acquisition2,48651.0,-0.079833984375,0.0822143554688,0.708801269531,0.695983886719,-16.3125,204.25,-14.9375,0.85,0.24,11.87
1542387242674146890,109,0,/imu_data_acquisition2,48660.0,-6.103515625e-05,-6.103515625e-05,-6.103515625e-05,0.695129394531,-13.25,229.9375,-15.4375,-0.59,1.91,10.7
1542387242685270071,110,0,/imu_data_acquisition2,48671.0,-0.111022949219,0.108581542969,0.703002929688,0.694030761719,-18.625,256.5,-21.125,0.01,-0.59,14.44
1542387242695772886,111,0,/imu_data_acquisition2,48683.0,-0.130310058594,0.124206542969,0.698486328125,0.692565917969,-24.4375,297.375,-29.25,-0.61,0.78,15.52
1542387242706141948,112,0,/imu_data_acquisition2,48693.0,-0.153991699219,0.14208984375,0.692260742188,0.690551757812,-40.25,355.0625,-42.1875,-1.86,1.79,13.98
1542387242711987018,113,0,/imu_data_acquisition2,48699.0,-0.181579589844,0.162292480469,0.684509277344,0.687133789062,-53.0,411.5,-44.5625,-1.86,1.79,13.98
1542387242724174022,114,0,/imu_data_acquisition2,48711.0,-0.211975097656,0.183837890625,0.675476074219,0.681945800781,-66.375,451.1875,-43.6875,-3.21,0.98,10.56
1542387242735758066,115,0,/imu_data_acquisition2,48722.0,-0.244201660156,0.205017089844,0.665100097656,0.675231933594,-85.0625,469.25,-47.0625,-3.55,-0.5,12.88
1542387242747704029,116,0,/imu_data_acquisition2,48732.0,-0.275939941406,0.225708007812,0.653137207031,0.668090820312,-83.0,468.125,-56.4375,1.87,-2.76,29.76
1542387242757385969,117,0,/imu_data_acquisition2,48744.0,-0.303833007812,0.245239257812,0.6396484375,0.662109375,-53.3125,430.1875,-71.3125,0.41,-3.58,39.86
1542387242764413118,118,0,/imu_data_acquisition2,48750.0,-0.328552246094,0.260925292969,0.625671386719,0.657653808594,-50.1875,373.6875,-91.25,0.41,-3.58,39.86
1542387242772041082,119,0,/imu_data_acquisition2,48759.0,-0.347045898438,0.269775390625,0.613525390625,0.656005859375,-46.75,258.125,-105.125,3.57,4.29,39.58
1542387242785402059,120,0,/imu_data_acquisition2,48772.0,-0.354064941406,0.272094726562,0.604125976562,0.660034179688,8.6875,94.5625,-115.0,5.4,8.0,33.44
1542387242797430992,121,0,/imu_data_acquisition2,48783.0,-0.354125976562,0.267272949219,0.599609375,0.666015625,4.5625,-37.25,-98.25,5.1,6.51,7.2
1542387242807651996,122,0,/imu_data_acquisition2,48792.0,-0.348571777344,0.255187988281,0.602600097656,0.671020507812,-30.5,-163.125,-45.375,4.66,5.79,3.53
1542387242814248085,123,0,/imu_data_acquisition2,48801.0,-0.342712402344,0.242736816406,0.606994628906,0.674682617188,-40.1875,-170.0625,-25.25,4.66,5.79,3.53
1542387242824351072,124,0,/imu_data_acquisition2,48810.0,-0.336791992188,0.230590820312,0.612121582031,0.677307128906,-12.25,-0.0625,-0.0625,3.4,4.28,4.33
1542387242833890914,125,0,/imu_data_acquisition2,48821.0,-0.330200195312,0.218933105469,0.617736816406,0.679321289062,-39.1875,-169.25,1.625,2.77,3.59,6.97
1542387242846035003,126,0,/imu_data_acquisition2,48833.0,-0.322021484375,0.207336425781,0.623779296875,0.681335449219,-26.6875,-182.0625,9.6875,0.93,1.87,16.79
1542387242858084917,127,0,/imu_data_acquisition2,48843.0,-0.311218261719,0.195068359375,0.630432128906,0.683837890625,-9.75,-210.125,15.0,0.56,1.76,-0.01
1542387242862349987,128,0,/imu_data_acquisition2,48850.0,-0.296813964844,0.181396484375,0.637878417969,0.687072753906,9.1875,-253.25,19.1875,0.56,1.76,17.74
1542387242874030113,129,0,/imu_data_acquisition2,48860.0,-0.278930664062,0.166015625,0.646118164062,0.690795898438,24.375,-297.5625,23.375,0.07,1.53,17.2
1542387242887502908,130,0,/imu_data_acquisition2,48871.0,-0.257995605469,0.149169921875,0.654724121094,0.694580078125,37.8125,-333.625,26.75,-0.48,0.88,15.43
1542387242898840904,131,0,/imu_data_acquisition2,48883.0,-0.234802246094,0.1318359375,0.663146972656,0.698364257812,53.375,-354.8125,27.8125,-2.55,-2.8,5.4
1542387242907135963,132,0,/imu_data_acquisition2,48894.0,-0.2099609375,0.115417480469,0.670593261719,0.702087402344,75.25,-357.5,25.4375,-2.6,-3.96,0.7
1542387242913826942,133,0,/imu_data_acquisition2,48900.0,-0.184692382812,0.1015625,0.676330566406,0.705749511719,101.25,-335.0,18.875,-2.6,-3.96,0.7
1542387242922257900,134,0,/imu_data_acquisition2,48909.0,-0.161010742188,0.09130859375,0.68017578125,0.709289550781,119.125,-15.9375,-0.0625,-2.73,-5.95,1.54
1542387242937043905,135,0,/imu_data_acquisition2,48923.0,-0.139892578125,0.0835571289062,0.68212890625,0.712829589844,119.4375,-243.1875,-3.5,-1.83,-6.13,11.53
1542387242948748111,136,0,/imu_data_acquisition2,48933.0,-0.121215820312,0.0758666992188,0.6826171875,0.716674804688,101.25,-220.125,-21.75,-1.83,-1.01,-0.01
1542387242955344915,137,0,/imu_data_acquisition2,48943.0,-0.103454589844,0.0671997070312,0.681518554688,0.721313476562,88.75,-219.625,-43.1875,-2.32,-7.41,21.4
1542387242964363098,138,0,/imu_data_acquisition2,48951.0,-0.0848388671875,0.0570678710938,0.678894042969,0.72705078125,85.9375,-238.25,-66.1875,-3.16,-6.94,22.15
1542387242973294019,139,0,/imu_data_acquisition2,48960.0,-0.0653076171875,0.0457153320312,0.674743652344,0.733764648438,86.5,-255.5,-87.9375,-4.09,-5.95,19.66
1542387242982939958,140,0,/imu_data_acquisition2,48970.0,-0.0460815429688,0.0341796875,0.669067382812,0.740966796875,83.3125,-253.0,-105.6875,-6.03,-4.37,13.8
1542387242998606920,141,0,/imu_data_acquisition2,48983.0,-0.0279541015625,0.0238037109375,0.662170410156,0.748413085938,83.625,-233.6875,-117.5625,-7.02,-0.73,15.12
1542387243006232976,142,0,/imu_data_acquisition2,48993.0,-0.0106201171875,0.0152587890625,0.654663085938,0.755676269531,91.75,-211.4375,-121.0625,-7.02,-0.73,15.12
1542387243012985944,143,0,/imu_data_acquisition2,49000.0,0.00677490234375,0.0081787109375,0.647521972656,0.761962890625,102.25,-198.75,-110.25,-7.78,2.79,18.86
1542387243023725986,144,0,/imu_data_acquisition2,49009.0,0.0245361328125,0.00091552734375,0.642150878906,0.766174316406,104.8125,-202.25,-78.5625,-9.0,10.04,21.14
1542387243038677930,145,0,/imu_data_acquisition2,49025.0,0.0420532226562,-0.00738525390625,0.6396484375,0.767456054688,93.3125,-211.5625,20.5625,-9.58,8.16,17.92
1542387243046458005,146,0,/imu_data_acquisition2,49034.0,0.0595092773438,-0.01611328125,0.640197753906,0.765747070312,113.6875,-210.125,60.8125,-10.77,2.27,19.54
1542387243055247068,147,0,/imu_data_acquisition2,49042.0,0.078125,-0.0238647460938,0.64306640625,0.761413574219,113.6875,-210.125,60.8125,-10.77,2.27,-0.01
1542387243062947988,148,0,/imu_data_acquisition2,49050.0,0.099365234375,-0.0302124023438,0.647705078125,0.754821777344,150.375,-216.125,91.6875,-11.34,-0.13,18.86
1542387243073496103,149,0,/imu_data_acquisition2,49060.0,0.122680664062,-0.0354614257812,0.653747558594,0.745910644531,180.8125,-221.6875,120.1875,-12.01,0.46,17.48
1542387243085397958,150,0,/imu_data_acquisition2,49072.0,0.14501953125,-0.0416259765625,0.661437988281,0.734619140625,169.0625,-221.375,155.0625,-13.82,2.84,11.9
1542387243096000909,151,0,/imu_data_acquisition2,49083.0,0.163330078125,-0.050537109375,0.671081542969,0.721374511719,117.0,-210.9375,193.8125,-14.99,0.29,9.03
1542387243106071949,152,0,/imu_data_acquisition2,49093.0,0.176818847656,-0.0617065429688,0.681945800781,0.70703125,60.6875,-189.8125,220.25,-15.98,-3.01,6.12
1542387243113034963,153,0,/imu_data_acquisition2,49099.0,0.185852050781,-0.073486328125,0.69287109375,0.692810058594,18.3125,-159.6875,224.375,-17.36,-5.74,4.1
1542387243123585939,154,0,/imu_data_acquisition2,49111.0,0.191345214844,-0.0843505859375,0.702697753906,0.680053710938,-7.1875,-123.0625,204.4375,-18.36,-12.58,-0.44
1542387243134779930,155,0,/imu_data_acquisition2,49122.0,0.194641113281,-0.0914306640625,0.710571289062,0.669921875,-1.75,-76.8125,160.5,-17.46,-16.31,-3.46
1542387243145643949,156,0,/imu_data_acquisition2,49131.0,0.196350097656,-0.09228515625,0.716186523438,0.663330078125,27.8125,-15.4375,100.3125,-16.53,-16.75,-4.93
1542387243157826900,157,0,/imu_data_acquisition2,49144.0,-6.103515625e-05,-6.103515625e-05,-6.103515625e-05,0.66015625,45.0,47.0,45.875,-9.65,-6.42,-11.56
1542387243166382074,158,0,/imu_data_acquisition2,49154.0,0.190185546875,-0.080078125,0.722473144531,0.659851074219,25.0625,111.5,10.875,5.6,-5.4,13.31
1542387243173398971,159,0,/imu_data_acquisition2,49159.0,0.17822265625,-0.07275390625,0.724304199219,0.662109375,-34.125,166.1875,-10.3125,5.6,-5.4,13.31
1542387243183877944,160,0,/imu_data_acquisition2,49171.0,0.166381835938,-0.0673828125,0.723937988281,0.666137695312,-55.5,145.75,-38.4375,4.06,-0.52,12.66
1542387243196870088,161,0,/imu_data_acquisition2,49184.0,0.153747558594,-0.0637817382812,0.721923828125,0.671691894531,-81.125,137.375,-60.5625,2.2,0.3,7.82
1542387243207418918,162,0,/imu_data_acquisition2,49194.0,0.13720703125,-0.0613403320312,0.719360351562,0.67822265625,-124.8125,161.375,-4.0625,2.2,0.3,7.82
1542387243213466882,163,0,/imu_data_acquisition2,49201.0,0.121032714844,-0.0579223632812,0.716735839844,0.684326171875,-112.25,165.125,-66.9375,-1.04,4.78,18.74
1542387243224455118,164,0,/imu_data_acquisition2,49211.0,0.10791015625,-0.0541381835938,0.714538574219,0.689086914062,-82.6875,141.9375,-54.6875,-1.08,9.03,12.83
1542387243234606981,165,0,/imu_data_acquisition2,49220.0,0.0960693359375,-0.0509033203125,0.713684082031,0.692016601562,-73.4375,127.75,-27.8125,0.46,10.29,10.02
1542387243245501995,166,0,/imu_data_acquisition2,49233.0,0.084716796875,-0.0468139648438,0.714782714844,0.692626953125,-58.4375,130.9375,5.875,0.78,8.29,9.53
1542387243255563020,167,0,/imu_data_acquisition2,49240.0,0.07373046875,-0.0418701171875,0.717163085938,0.691711425781,-45.875,135.375,28.625,0.64,-5.82,13.74
1542387243262197017,168,0,/imu_data_acquisition2,49249.0,0.0633544921875,-0.0372924804688,0.719116210938,0.690979003906,-45.0625,126.9375,22.75,0.11,-0.93,-0.01
1542387243273593902,169,0,/imu_data_acquisition2,49260.0,0.05517578125,-0.0328979492188,0.719665527344,0.691345214844,-28.875,106.125,1.5625,-1.01,-8.96,18.58
1542387243283804893,170,0,/imu_data_acquisition2,49270.0,0.0497436523438,-0.0287475585938,0.719604492188,0.692016601562,-9.4375,80.625,-6.1875,-0.33,3.28,14.67
1542387243293376922,171,0,/imu_data_acquisition2,49281.0,0.0453491210938,-0.025390625,0.720031738281,0.692016601562,-7.3125,65.0,2.875,0.07,4.66,14.15
1542387243305059909,172,0,/imu_data_acquisition2,49292.0,-6.103515625e-05,-6.103515625e-05,-6.103515625e-05,0.69140625,-21.6875,51.3125,13.1875,-0.76,-0.87,17.3
1542387243315397977,173,0,/imu_data_acquisition2,49300.0,0.0377197265625,-0.0228881835938,0.721740722656,0.690734863281,-18.625,34.875,12.4375,1.09,-1.85,12.16
1542387243322302103,174,0,/imu_data_acquisition2,49309.0,0.0350341796875,-0.0220947265625,0.722412109375,0.690185546875,-14.375,29.25,10.75,0.85,-0.42,11.52
1542387243333497047,175,0,/imu_data_acquisition2,49320.0,0.0328369140625,-0.0213623046875,0.72314453125,0.689575195312,-11.0625,25.0,11.6875,0.69,-0.06,11.86
1542387243345500946,176,0,/imu_data_acquisition2,49331.0,0.0311279296875,-0.0209350585938,0.723876953125,0.688903808594,-10.5625,18.125,12.0625,-0.03,-1.13,13.16
1542387243352421998,177,0,/imu_data_acquisition2,49339.0,0.0302124023438,-0.0208740234375,0.724426269531,0.688354492188,-6.0625,8.3125,8.9375,1.5,-0.02,9.82
1542387243364483118,178,0,/imu_data_acquisition2,49350.0,0.0294799804688,-0.0208129882812,0.724853515625,0.687927246094,-5.375,7.3125,7.4375,1.33,0.71,9.83
1542387243374530076,179,0,/imu_data_acquisition2,49360.0,0.0285034179688,-0.0208740234375,0.725280761719,0.6875,-7.9375,7.6875,7.25,1.18,0.26,10.43
1542387243382338047,180,0,/imu_data_acquisition2,49370.0,0.0277099609375,-0.0210571289062,0.725646972656,0.687194824219,-8.375,5.1875,6.1875,1.38,0.06,10.43
1542387243395653009,181,0,/imu_data_acquisition2,49382.0,0.0270385742188,-0.0214233398438,0.725952148438,0.686889648438,-7.875,3.0,5.3125,1.31,-0.62,9.87
1542387243403804063,182,0,/imu_data_acquisition2,49389.0,0.0264892578125,-0.0216674804688,0.726196289062,0.686645507812,-6.3125,2.375,3.8125,1.05,-0.09,9.91
1542387243413079023,183,0,/imu_data_acquisition2,49400.0,0.0260620117188,-0.02197265625,0.726379394531,0.686462402344,-6.25,1.625,3.5625,1.44,-0.13,10.6
1542387243423966884,184,0,/imu_data_acquisition2,49411.0,0.0256958007812,-0.0223388671875,0.726501464844,0.686279296875,-5.8125,-0.4375,2.5625,1.41,0.04,9.76
1542387243433408021,185,0,/imu_data_acquisition2,49420.0,0.0253295898438,-0.0227661132812,0.726623535156,0.686157226562,-6.625,-0.1875,2.1875,1.37,-0.19,10.27
1542387243444591045,186,0,/imu_data_acquisition2,49432.0,0.0249633789062,-0.0231323242188,0.726745605469,0.686096191406,-5.8125,-0.3125,1.8125,1.12,-0.49,10.1
1542387243454332113,187,0,/imu_data_acquisition2,49440.0,0.0250244140625,-0.0243530273438,0.726806640625,0.685974121094,-5.0625,-1.5,1.5,1.49,-0.5,10.5
1542387243463593959,188,0,/imu_data_acquisition2,49451.0,0.025146484375,-0.0252075195312,0.726806640625,0.685913085938,-2.8125,-2.125,0.625,1.11,-0.2,10.11
1542387243473754882,189,0,/imu_data_acquisition2,49461.0,0.025390625,-0.02587890625,0.726806640625,0.685913085938,-1.125,-3.0,-0.0625,1.07,-0.31,10.49
1542387243484117984,190,0,/imu_data_acquisition2,49469.0,0.025634765625,-0.026123046875,0.726745605469,0.685913085938,-0.5,-4.1875,-0.875,1.31,0.47,9.72
1542387243495634078,191,0,/imu_data_acquisition2,49482.0,0.0256958007812,-0.0264282226562,0.726684570312,0.685974121094,-2.4375,-3.0,-0.6875,1.27,-0.05,10.05
1542387243504937887,192,0,/imu_data_acquisition2,49491.0,0.0255737304688,-0.02685546875,0.726623535156,0.68603515625,-3.9375,-2.5,-0.625,1.42,-0.16,10.06
1542387243512911081,193,0,/imu_data_acquisition2,49499.0,0.025390625,-0.0272827148438,0.726623535156,0.68603515625,-5.5,-0.0625,-0.0625,1.5,-0.09,9.98
1542387243524193048,194,0,/imu_data_acquisition2,49510.0,0.0249633789062,-0.0277099609375,0.726623535156,0.685974121094,-7.0,-0.5625,0.625,1.24,-0.12,9.67
1542387243533752918,195,0,/imu_data_acquisition2,49520.0,0.0244750976562,-0.0281372070312,0.726684570312,0.685974121094,-7.8125,1.1875,1.0625,0.93,-0.12,10.14
1542387243542278051,196,0,/imu_data_acquisition2,49529.0,0.0240478515625,-0.0284423828125,0.726745605469,0.685913085938,-6.0,0.875,1.125,1.22,-0.59,9.74
1542387243553442955,197,0,/imu_data_acquisition2,49540.0,0.0237426757812,-0.0286254882812,0.726806640625,0.685852050781,-3.8125,0.8125,0.75,1.02,-0.34,10.11
1542387243564529895,198,0,/imu_data_acquisition2,49550.0,0.0236206054688,-0.02880859375,0.726806640625,0.685791015625,-2.75,0.0,0.6875,1.1,-0.34,9.97
1542387243572102069,199,0,/imu_data_acquisition2,49559.0,-6.103515625e-05,-6.103515625e-05,-6.103515625e-05,0.685791015625,-2.3125,-0.0625,0.625,0.83,-0.38,9.76
1542387243583651065,200,0,/imu_data_acquisition2,49571.0,0.0235595703125,-0.029541015625,0.726806640625,0.685791015625,-2.0,-0.8125,0.5625,1.37,-0.31,9.53
1542387243594364881,201,0,/imu_data_acquisition2,49581.0,0.0234985351562,-0.0297241210938,0.726806640625,0.685791015625,-1.9375,-1.1875,0.375,1.07,-0.22,9.56
1542387243601669073,202,0,/imu_data_acquisition2,49589.0,0.0233764648438,-0.0299682617188,0.726806640625,0.685791015625,-3.0,-0.75,0.375,1.06,0.03,9.7
1542387243613464117,203,0,/imu_data_acquisition2,49600.0,0.0232543945312,-0.0302734375,0.726806640625,0.685791015625,-3.75,-1.375,0.5,1.05,-0.16,9.72
1542387243623915910,204,0,/imu_data_acquisition2,49610.0,0.0230102539062,-0.0149536132812,-6.103515625e-05,0.685791015625,-4.6875,-0.9375,0.4375,0.94,-0.31,10.1
1542387243632028102,205,0,/imu_data_acquisition2,49620.0,0.02294921875,-0.0311889648438,0.726745605469,0.685791015625,-4.75,-1.625,0.4375,1.27,-0.32,9.77
1542387243643976926,206,0,/imu_data_acquisition2,49631.0,0.0228881835938,-0.03173828125,0.726745605469,0.685791015625,-5.0625,-1.6875,0.4375,1.09,-0.06,9.66
1542387243653145074,207,0,/imu_data_acquisition2,49640.0,0.0227661132812,-0.0323486328125,0.726745605469,0.685791015625,-5.5625,-0.0625,-0.0625,1.2,-0.34,9.97
1542387243663073062,208,0,/imu_data_acquisition2,49650.0,0.0225830078125,-0.032958984375,0.726684570312,0.685791015625,-5.125,-0.375,0.4375,1.1,-0.43,9.83
1542387243676517963,209,0,/imu_data_acquisition2,49663.0,0.0223999023438,-0.033447265625,0.726684570312,0.685791015625,-3.875,0.1875,0.25,1.1,-0.46,10.15
1542387243685184955,210,0,/imu_data_acquisition2,49670.0,0.0222778320312,-0.0335693359375,0.726684570312,0.685791015625,-2.25,0.25,-0.3125,1.34,-0.53,9.77
1542387243693015098,211,0,/imu_data_acquisition2,49679.0,0.022216796875,-0.0335693359375,0.726623535156,0.685852050781,-0.125,0.8125,-0.75,1.12,-0.45,9.74
1542387243706312894,212,0,/imu_data_acquisition2,49693.0,0.022216796875,-0.0333251953125,0.7265625,0.685913085938,1.6875,1.8125,-1.25,0.84,-0.67,10.01
1542387243716593027,213,0,/imu_data_acquisition2,49700.0,0.0222778320312,-0.033447265625,0.726501464844,0.68603515625,3.5,1.0625,-1.6875,1.06,-0.57,9.9
1542387243724472045,214,0,/imu_data_acquisition2,49710.0,0.0224609375,-0.0333862304688,0.726379394531,0.686096191406,4.875,1.25,-1.75,1.08,-0.45,10.3
1542387243735189914,215,0,/imu_data_acquisition2,49721.0,0.0228881835938,-0.0333251953125,0.726257324219,0.686218261719,6.25,0.3125,-2.25,1.12,-0.39,9.62
1542387243746843099,216,0,/imu_data_acquisition2,49730.0,0.0233154296875,-0.0330810546875,0.726135253906,0.686340332031,7.4375,1.0625,-2.4375,1.16,-0.25,9.42
1542387243754427909,217,0,/imu_data_acquisition2,49740.0,0.0238037109375,-0.0327758789062,0.726013183594,0.6865234375,8.6875,2.375,-3.0625,1.21,-0.38,9.97
1542387243764331102,218,0,/imu_data_acquisition2,49750.0,0.0241088867188,-0.031982421875,0.725830078125,0.686706542969,8.9375,3.1875,-3.1875,1.05,-0.43,9.77
1542387243775121927,219,0,/imu_data_acquisition2,49760.0,0.0244140625,-0.0311889648438,0.725708007812,0.686889648438,9.1875,4.0,-3.3125,0.85,-0.38,10.09
1542387243781914949,220,0,/imu_data_acquisition2,49769.0,0.0247192382812,-0.0303344726562,0.725524902344,0.687072753906,9.5,4.4375,-3.1875,1.24,-0.26,10.04
1542387243794862985,221,0,/imu_data_acquisition2,49780.0,0.0249633789062,-0.0294799804688,0.725341796875,0.687255859375,9.9375,4.75,-3.3125,1.02,-0.07,9.79
1542387243802747964,222,0,/imu_data_acquisition2,49790.0,0.0252075195312,-0.0285034179688,0.725219726562,0.6875,9.875,5.5625,-3.375,1.07,-0.08,9.71
1542387243811925888,223,0,/imu_data_acquisition2,49799.0,0.0254516601562,-0.0277709960938,0.725036621094,0.687683105469,8.8125,7.0625,-3.25,1.26,-0.13,9.94
1542387243823385000,224,0,/imu_data_acquisition2,49810.0,0.025390625,-0.0267333984375,0.724914550781,0.687866210938,8.25,8.75,-3.0625,1.15,0.05,-0.01
1542387243832730054,225,0,/imu_data_acquisition2,49820.0,0.0252075195312,-0.0256958007812,0.724792480469,0.688049316406,7.375,10.5,-2.9375,1.18,0.11,9.97
1542387243842469930,226,0,/imu_data_acquisition2,49830.0,0.0248413085938,-0.0245361328125,0.724670410156,0.688232421875,6.375,12.5,-2.9375,1.08,-0.23,10.18
1542387243855242013,227,0,/imu_data_acquisition2,49842.0,0.0242919921875,-0.0233764648438,0.724487304688,0.688415527344,5.3125,14.1875,-0.0625,0.79,0.83,8.44
1542387243863951921,228,0,/imu_data_acquisition2,49851.0,0.0233764648438,-0.02197265625,0.724426269531,0.688598632812,5.3125,19.1875,-2.1875,0.88,0.7,9.97
1542387243873384952,229,0,/imu_data_acquisition2,49861.0,0.0223388671875,-0.0204467773438,0.724365234375,0.688781738281,4.0,21.5,-2.5,1.79,0.43,9.98
1542387243883486986,230,0,/imu_data_acquisition2,49870.0,0.0210571289062,-0.0187377929688,0.72412109375,0.689086914062,4.125,24.9375,-4.375,1.18,0.26,10.33
1542387243893399000,231,0,/imu_data_acquisition2,49880.0,0.0194091796875,-0.0167236328125,0.723876953125,0.689453125,4.0,30.375,-5.6875,1.93,-0.3,8.71
1542387243906919002,232,0,/imu_data_acquisition2,49894.0,0.017333984375,-0.01416015625,-6.103515625e-05,0.690002441406,4.5625,39.0625,-7.6875,1.29,-0.6,9.71
1542387243912432909,233,0,/imu_data_acquisition2,49899.0,0.014892578125,-0.0110473632812,0.722961425781,0.690673828125,6.4375,46.3125,-10.1875,2.85,-1.59,7.91
1542387243924293994,234,0,/imu_data_acquisition2,49910.0,0.0117797851562,-0.00689697265625,0.722106933594,0.691650390625,9.5625,60.0,-15.125,2.09,0.0,8.29
1542387243934329986,235,0,/imu_data_acquisition2,49921.0,0.00787353515625,-0.00177001953125,0.721435546875,0.692443847656,12.125,75.375,-12.4375,1.47,-1.52,9.32
1542387243941638946,236,0,/imu_data_acquisition2,49929.0,0.0035400390625,0.00433349609375,0.720703125,0.693237304688,16.125,87.4375,-13.1875,2.09,-1.26,9.45
1542387243953547954,237,0,/imu_data_acquisition2,49940.0,-0.00128173828125,0.0115966796875,0.719543457031,0.6943359375,22.1875,100.5625,-19.75,1.77,-0.01,-0.01
1542387243964638948,238,0,/imu_data_acquisition2,49950.0,-0.0069580078125,0.0198974609375,0.718627929688,0.695068359375,24.1875,116.0,-14.3125,1.26,-1.54,9.48
1542387243972140073,239,0,/imu_data_acquisition2,49959.0,-0.0133056640625,0.0293579101562,0.717529296875,0.69580078125,29.0625,131.875,-15.8125,1.99,1.83,9.0
1542387243984064102,240,0,/imu_data_acquisition2,49970.0,-0.0208740234375,0.0396728515625,0.716430664062,0.696166992188,25.1875,149.625,-13.1875,1.16,-0.92,-0.01
1542387243994234085,241,0,/imu_data_acquisition2,49980.0,-0.0293579101562,0.0504150390625,0.714965820312,0.696716308594,21.9375,160.3125,-18.0,0.92,3.04,9.43
1542387244001902103,242,0,/imu_data_acquisition2,49989.0,-0.0393676757812,0.0612182617188,0.713439941406,0.696899414062,10.0,174.4375,-16.5,1.23,0.7,9.65
1542387244014153957,243,0,/imu_data_acquisition2,50000.0,-0.0040283203125,-6.103515625e-05,-6.103515625e-05,0.697082519531,2.5625,191.8125,-20.25,0.0,1.4,10.16
1542387244024611949,244,0,/imu_data_acquisition2,50010.0,-0.0633544921875,0.0836791992188,0.709167480469,0.697204589844,-7.6875,197.75,-24.1875,-0.04,0.97,10.74
1542387244032891035,245,0,/imu_data_acquisition2,50020.0,-0.0762329101562,0.0944213867188,0.706726074219,0.697021484375,-13.125,198.875,-23.375,0.52,1.14,11.16
1542387244043822050,246,0,/imu_data_acquisition2,50031.0,-0.09033203125,0.10693359375,0.7041015625,0.696166992188,-9.5625,224.4375,-18.875,-0.54,0.9,10.12
1542387244052424907,247,0,/imu_data_acquisition2,50040.0,-0.106323242188,0.120300292969,0.700988769531,0.69482421875,-18.1875,248.625,-20.6875,-0.81,-1.05,13.93
1542387244063585996,248,0,/imu_data_acquisition2,50051.0,-0.124145507812,0.135681152344,0.696655273438,0.693420410156,-14.625,281.6875,-30.0,-1.53,0.42,13.12
1542387244074414014,249,0,/imu_data_acquisition2,50061.0,-0.145263671875,0.153137207031,0.69091796875,0.69140625,-22.875,329.75,-38.6875,-0.87,-0.01,14.73
1542387244083626985,250,0,/imu_data_acquisition2,50070.0,-0.169860839844,0.172546386719,0.683654785156,0.6884765625,-34.4375,378.0625,-46.6875,-2.1,1.16,13.55
1542387244093205928,251,0,/imu_data_acquisition2,50080.0,-0.196838378906,0.193786621094,0.674865722656,0.684265136719,-38.75,417.5,-50.0625,-2.59,2.16,11.26
1542387244104588985,252,0,/imu_data_acquisition2,50090.0,-0.225891113281,0.21484375,0.664855957031,0.678771972656,-56.625,438.9375,-54.4375,-3.16,0.27,11.07
1542387244113790035,253,0,/imu_data_acquisition2,50101.0,-0.255310058594,0.235534667969,0.653503417969,0.672485351562,-61.5625,445.125,-61.5,-4.81,-0.64,11.61
1542387244123302936,254,0,/imu_data_acquisition2,50110.0,-0.282287597656,0.255310058594,0.640747070312,0.666809082031,-43.8125,420.5,-73.0625,-4.8,-0.75,10.32
1542387244133845090,255,0,/imu_data_acquisition2,50120.0,-0.305969238281,0.271850585938,0.62744140625,0.662414550781,-35.1875,368.1875,-88.25,1.54,1.33,17.83
1542387244143762111,256,0,/imu_data_acquisition2,50130.0,-0.325927734375,0.28076171875,0.616821289062,0.6591796875,-68.3125,267.5625,-90.9375,3.14,2.52,39.79
1542387244153533935,257,0,/imu_data_acquisition2,50140.0,-0.335754394531,0.282104492188,0.609497070312,0.660461425781,-37.4375,105.4375,-94.3125,6.27,6.21,32.58
1542387244164541006,258,0,/imu_data_acquisition2,50150.0,-0.339233398438,0.276550292969,0.6064453125,0.663818359375,-43.6875,-17.125,-81.5625,5.71,6.04,23.9
1542387244174041032,259,0,/imu_data_acquisition2,50160.0,-0.339172363281,0.266052246094,0.607116699219,0.667541503906,-62.3125,-97.1875,-63.3125,5.47,3.9,8.9
1542387244184592962,260,0,/imu_data_acquisition2,50170.0,-0.337097167969,0.253601074219,0.609619140625,0.671142578125,-66.75,-135.125,-49.375,5.12,3.26,5.32
1542387244192297935,261,0,/imu_data_acquisition2,50180.0,-0.334045410156,0.240905761719,0.612854003906,0.674377441406,-15.9375,-0.0625,-0.0625,4.57,2.95,4.01
1542387244203144073,262,0,/imu_data_acquisition2,50190.0,-0.330139160156,0.228759765625,0.616271972656,0.677429199219,-54.1875,-147.125,-31.75,3.45,3.22,-0.01
1542387244215472936,263,0,/imu_data_acquisition2,50201.0,-0.325317382812,0.217224121094,0.619812011719,0.680297851562,-44.125,-149.5625,-24.125,2.71,3.3,10.65
1542387244222006082,264,0,/imu_data_acquisition2,50210.0,-0.318908691406,0.20556640625,0.6240234375,0.68310546875,-34.1875,-163.875,-15.0625,2.3,3.26,13.97
1542387244234496116,265,0,/imu_data_acquisition2,50221.0,-0.310119628906,0.192993164062,0.629272460938,0.685974121094,-23.625,-194.1875,-5.25,1.61,2.99,17.29
1542387244244004964,266,0,/imu_data_acquisition2,50231.0,-0.297973632812,0.178527832031,0.635925292969,0.689147949219,-12.1875,-239.375,4.8125,0.43,2.4,17.85
1542387244252521038,267,0,/imu_data_acquisition2,50240.0,-0.297973632812,0.178527832031,-6.103515625e-05,0.689147949219,0.25,-289.0625,14.9375,-0.01,1.65,15.03
1542387244265042066,268,0,/imu_data_acquisition2,50251.0,-0.26318359375,0.144165039062,0.652587890625,0.69580078125,13.4375,-326.25,23.125,-0.76,0.29,12.06
1542387244274085044,269,0,/imu_data_acquisition2,50260.0,-0.24169921875,0.126220703125,0.6611328125,0.698974609375,33.375,-345.9375,26.3125,-1.98,-2.56,5.69
1542387244282229900,270,0,/imu_data_acquisition2,50270.0,-0.24169921875,0.126220703125,0.6611328125,0.698974609375,61.8125,-344.5625,23.875,-2.34,-3.46,3.23
1542387244294850111,271,0,/imu_data_acquisition2,50281.0,-0.194458007812,0.095947265625,0.674499511719,0.705688476562,91.5,-324.9375,17.5,-2.65,-3.82,2.02
1542387244303863048,272,0,/imu_data_acquisition2,50290.0,-0.194458007812,0.095947265625,0.674499511719,0.705688476562,110.4375,-290.5,10.1875,-3.0,-4.7,6.76
1542387244313196897,273,0,/imu_data_acquisition2,50300.0,-0.149658203125,0.0762939453125,0.681457519531,0.712280273438,113.8125,-255.0,0.6875,-2.79,-4.65,10.58
1542387244324970006,274,0,/imu_data_acquisition2,50310.0,-0.149658203125,0.0762939453125,0.681457519531,0.712280273438,105.0,-236.0,-12.0625,-2.22,-0.01,-0.01
1542387244335371971,275,0,/imu_data_acquisition2,50320.0,-0.129821777344,0.0679931640625,0.682922363281,0.715637207031,87.3125,-226.5625,-24.875,-2.24,-4.39,14.69
1542387244343760013,276,0,/imu_data_acquisition2,50331.0,-0.111572265625,0.0590209960938,0.683227539062,0.719177246094,73.125,-221.8125,-38.4375,-4.46,-5.29,20.62
1542387244355473995,277,0,/imu_data_acquisition2,50341.0,-0.0945434570312,0.0493774414062,0.682495117188,0.723083496094,67.0,-228.25,-56.125,-6.17,-5.45,21.57
1542387244364366054,278,0,/imu_data_acquisition2,50351.0,-0.0774536132812,0.0388793945312,0.680480957031,0.727661132812,69.3125,-241.8125,-76.0625,-6.44,-4.93,16.87
1542387244373692035,279,0,/imu_data_acquisition2,50361.0,-0.0595703125,0.0274658203125,0.676940917969,0.733093261719,76.5,-239.1875,-92.5,-7.04,-0.97,11.63
1542387244382601976,280,0,/imu_data_acquisition2,50370.0,-0.0413208007812,0.0166015625,0.672058105469,0.739135742188,82.1875,-215.75,-99.875,-7.44,2.73,12.56
1542387244394278049,281,0,/imu_data_acquisition2,50381.0,-0.0241088867188,0.0074462890625,0.666320800781,0.745239257812,73.25,-190.9375,-92.375,-7.8,5.13,13.18
1542387244404839038,282,0,/imu_data_acquisition2,50391.0,-0.0087890625,-0.00067138671875,0.660766601562,0.750549316406,52.375,-172.1875,-69.5,-1.03,-0.01,-0.01
1542387244412899017,283,0,/imu_data_acquisition2,50400.0,0.004150390625,-0.0086669921875,0.656372070312,0.75439453125,42.9375,-159.125,-42.125,-10.23,2.04,24.71
1542387244422512054,284,0,/imu_data_acquisition2,50410.0,0.0157470703125,-0.0164184570312,0.653625488281,0.756469726562,42.9375,-159.125,-42.125,-10.37,1.21,23.15
1542387244435301065,285,0,/imu_data_acquisition2,50421.0,0.029052734375,-0.0241088867188,0.652099609375,0.757202148438,92.75,-198.125,-0.5,-10.33,0.84,18.2
1542387244443156003,286,0,/imu_data_acquisition2,50430.0,0.0458984375,-0.0316772460938,0.651733398438,0.756408691406,119.4375,-206.5,21.25,-10.82,-0.91,14.62
1542387244454111099,287,0,/imu_data_acquisition2,50441.0,0.0648193359375,-6.103515625e-05,-6.103515625e-05,0.754089355469,132.625,-203.5,45.5,-11.72,-0.74,14.63
1542387244465087890,288,0,/imu_data_acquisition2,50451.0,0.0842895507812,-0.0442504882812,0.654541015625,0.75,128.0,-200.3125,72.125,-12.48,-0.26,13.94
1542387244472264051,289,0,/imu_data_acquisition2,50459.0,0.103210449219,-0.0503540039062,0.658020019531,0.744201660156,128.0,-200.3125,72.125,-12.48,-0.26,13.94
1542387244484363079,290,0,/imu_data_acquisition2,50470.0,0.120361328125,-0.0576171875,0.662963867188,0.736694335938,107.125,-196.1875,100.8125,-14.35,-2.26,3.87
1542387244496260881,291,0,/imu_data_acquisition2,50481.0,0.134216308594,-0.0662231445312,0.669250488281,0.727844238281,30.25,-150.3125,141.875,-15.51,-4.76,2.54
1542387244503312110,292,0,/imu_data_acquisition2,50491.0,0.143737792969,-0.0753173828125,0.676330566406,0.718505859375,5.125,-112.75,136.8125,-17.2,-8.25,-7.17
1542387244514262914,293,0,/imu_data_acquisition2,50501.0,-6.103515625e-05,-6.103515625e-05,-6.103515625e-05,0.709838867188,-3.6875,-57.0625,113.25,-18.92,-8.4,-7.21
1542387244524405956,294,0,/imu_data_acquisition2,50510.0,0.15185546875,-0.088623046875,0.689208984375,0.702880859375,-3.6875,-57.0625,113.25,-19.82,-7.72,-7.59
1542387244532869100,295,0,/imu_data_acquisition2,50520.0,0.149597167969,-0.08935546875,0.694274902344,0.6982421875,-25.375,94.0,62.0625,-9.16,-5.49,0.63
1542387244544517040,296,0,/imu_data_acquisition2,50531.0,0.142150878906,-0.0860595703125,0.698913574219,0.695617675781,-61.5,150.1875,57.125,7.31,-8.48,29.36
1542387244555301904,297,0,/imu_data_acquisition2,50541.0,0.129211425781,-0.08154296875,0.703552246094,0.694030761719,-74.875,144.125,42.5625,6.33,-3.48,22.22
1542387244563855886,298,0,/imu_data_acquisition2,50551.0,0.115966796875,-0.0780029296875,0.70703125,0.693237304688,-51.125,109.5625,18.4375,1.87,-1.68,1.72
1542387244574100017,299,0,/imu_data_acquisition2,50561.0,0.106323242188,-0.0748291015625,0.708801269531,0.693298339844,-51.125,109.5625,18.4375,2.18,-2.62,14.8
1542387244584717035,300,0,/imu_data_acquisition2,50571.0,0.0939331054688,-0.0722045898438,0.709777832031,0.694396972656,-80.0,126.9375,6.0,0.55,-1.62,14.66
1542387244593835115,301,0,/imu_data_acquisition2,50581.0,0.0802001953125,-0.0689086914062,0.710571289062,0.695678710938,-54.5,137.1875,5.9375,-0.27,-0.3,12.27
1542387244605242967,302,0,/imu_data_acquisition2,50591.0,0.0687255859375,-0.0641479492188,0.711486816406,0.696411132812,-36.75,127.9375,11.0,-0.03,-2.65,13.71
1542387244614631891,303,0,/imu_data_acquisition2,50601.0,0.0587768554688,-0.0588989257812,0.712585449219,0.696594238281,-30.875,118.625,11.4375,-0.35,-3.73,14.46
1542387244624275922,304,0,/imu_data_acquisition2,50611.0,0.0497436523438,-0.0538330078125,0.713684082031,0.696655273438,-19.8125,107.875,10.0625,-0.43,-4.13,16.24
1542387244632834911,305,0,/imu_data_acquisition2,50619.0,0.0420532226562,-0.0487060546875,0.714599609375,0.696594238281,-19.8125,107.875,10.0625,-0.43,-4.13,16.24
1542387244644599914,306,0,/imu_data_acquisition2,50631.0,0.0359497070312,-0.0438842773438,0.715209960938,0.696594238281,-5.0,75.5,4.5625,-1.41,1.41,19.39
1542387244654925107,307,0,/imu_data_acquisition2,50641.0,0.0310668945312,-0.0397338867188,0.715698242188,0.696594238281,-14.6875,60.25,9.9375,-0.9,-0.1,15.22
1542387244665837049,308,0,/imu_data_acquisition2,50651.0,-6.103515625e-05,-6.103515625e-05,-6.103515625e-05,0.696228027344,-14.6875,60.25,9.9375,1.08,-3.31,11.4
1542387244673177957,309,0,/imu_data_acquisition2,50660.0,0.0237426757812,-0.0358276367188,0.717224121094,0.695495605469,-11.125,34.0,13.5625,1.08,-3.31,11.4
1542387244684226989,310,0,/imu_data_acquisition2,50670.0,0.0216674804688,-0.03466796875,0.718017578125,0.69482421875,-7.125,26.9375,12.625,0.22,-0.11,13.29
1542387244694951057,311,0,/imu_data_acquisition2,50681.0,0.0200805664062,-0.0337524414062,0.718627929688,0.694274902344,-4.9375,12.125,9.125,1.06,-0.46,10.83
1542387244705801963,312,0,/imu_data_acquisition2,50691.0,0.01904296875,-6.103515625e-05,-6.103515625e-05,0.693786621094,-6.3125,9.0625,7.5625,0.81,0.12,9.74
1542387244715253114,313,0,/imu_data_acquisition2,50702.0,0.0181274414062,-0.033203125,0.719604492188,0.693359375,-6.5,6.3125,5.625,1.15,0.07,10.68
1542387244722645998,314,0,/imu_data_acquisition2,50710.0,0.017333984375,-0.0332641601562,0.719909667969,0.693054199219,-6.5,6.3125,5.625,1.15,0.07,10.68
1542387244734441041,315,0,/imu_data_acquisition2,50721.0,0.0166015625,-0.0335083007812,0.720153808594,0.692749023438,-7.5625,4.125,4.6875,1.14,-0.85,10.04
1542387244746103048,316,0,/imu_data_acquisition2,50732.0,0.0159301757812,-0.0338134765625,0.720397949219,0.692565917969,-7.9375,2.25,3.1875,1.43,-1.03,10.01
1542387244755090951,317,0,/imu_data_acquisition2,50741.0,0.0153198242188,-0.0341186523438,0.720520019531,0.6923828125,-6.3125,0.4375,2.25,1.23,-0.49,10.0
1542387244766302108,318,0,/imu_data_acquisition2,50752.0,0.0149536132812,-0.0345458984375,0.720642089844,0.692260742188,-4.875,0.0625,1.625,1.07,-0.84,10.17
1542387244773729085,319,0,/imu_data_acquisition2,50761.0,0.0146484375,-0.0348510742188,0.720764160156,0.692199707031,-4.875,0.0625,1.625,1.07,-0.84,10.17
1542387244786791086,320,0,/imu_data_acquisition2,50772.0,0.0144653320312,-0.0350952148438,0.720764160156,0.692138671875,-2.5,-1.375,1.0,1.35,-0.56,10.35
1542387244795111894,321,0,/imu_data_acquisition2,50782.0,0.014404296875,-0.0353393554688,0.720825195312,0.692077636719,-1.375,-1.5625,1.0,1.27,-0.01,-0.01
1542387244804598093,322,0,/imu_data_acquisition2,50792.0,0.0146484375,-0.00482177734375,-6.103515625e-05,0.691955566406,-0.6875,-1.125,0.875,1.09,-0.65,10.64
1542387244814917087,323,0,/imu_data_acquisition2,50802.0,0.0147705078125,-6.103515625e-05,-6.103515625e-05,0.69189453125,-0.6875,-1.125,0.875,0.7,-0.33,10.72
1542387244824769973,324,0,/imu_data_acquisition2,50811.0,0.014892578125,-0.03662109375,0.720947265625,0.69189453125,1.3125,-0.9375,0.3125,0.7,-0.33,10.72
1542387244833255052,325,0,/imu_data_acquisition2,50821.0,0.0151977539062,-0.0364990234375,0.720947265625,0.69189453125,3.0,-1.6875,-0.5,1.32,-0.49,10.18
1542387244846280097,326,0,/imu_data_acquisition2,50832.0,0.0155639648438,-6.103515625e-05,-6.103515625e-05,0.691955566406,1.75,-2.6875,-1.0,1.18,-0.38,9.51
1542387244857259988,327,0,/imu_data_acquisition2,50842.0,0.0158081054688,-0.0365600585938,0.720825195312,0.692016601562,1.75,-2.6875,-1.0,1.05,-0.36,10.05
1542387244865169048,328,0,/imu_data_acquisition2,50852.0,0.0161743164062,-0.03662109375,0.720703125,0.692077636719,1.5,-2.75,-1.375,1.21,-0.54,9.99
1542387244874788999,329,0,/imu_data_acquisition2,50860.0,0.0164184570312,-0.0366821289062,0.720642089844,0.692138671875,1.5,-2.75,-1.375,1.21,-0.54,9.99
1542387244884852886,330,0,/imu_data_acquisition2,50871.0,0.0166015625,-0.0367431640625,0.720581054688,0.692199707031,1.0625,-2.25,-1.1875,1.04,-0.42,9.96
1542387244896260976,331,0,/imu_data_acquisition2,50882.0,0.0167846679688,-0.0367431640625,0.720520019531,0.692260742188,1.125,-1.5625,-1.125,1.01,-0.61,9.9
1542387244904896974,332,0,/imu_data_acquisition2,50892.0,0.0169677734375,-0.0367431640625,0.720458984375,0.692321777344,1.875,-0.1875,-0.625,1.23,-0.34,9.79
1542387244915227890,333,0,/imu_data_acquisition2,50902.0,0.0172119140625,-0.0369262695312,0.720458984375,0.692321777344,1.875,-0.1875,-0.625,1.17,-0.33,9.7
1542387244924124956,334,0,/imu_data_acquisition2,50909.0,0.0174560546875,-0.037109375,0.720397949219,0.692321777344,1.4375,0.5,-0.375,1.17,-0.33,9.7
1542387244933547019,335,0,/imu_data_acquisition2,50921.0,0.0175170898438,-0.037109375,0.720397949219,0.692321777344,1.375,1.25,-0.4375,0.92,-0.4,10.18
1542387244943830013,336,0,/imu_data_acquisition2,50931.0,0.017578125,-0.037109375,0.720397949219,0.6923828125,1.0,1.125,-0.875,0.96,-0.34,9.88
1542387244956444025,337,0,/imu_data_acquisition2,50943.0,0.0176391601562,-0.0371704101562,0.720275878906,0.692443847656,1.5625,0.6875,-1.5,1.17,-0.33,9.84
1542387244964539051,338,0,/imu_data_acquisition2,50952.0,0.017822265625,-0.0371704101562,0.72021484375,0.692504882812,1.5625,0.6875,-1.5,1.15,-0.47,9.82
1542387244976097106,339,0,/imu_data_acquisition2,50960.0,0.0180053710938,-0.0372314453125,0.720092773438,0.692626953125,1.8125,0.8125,-2.0625,1.15,-0.47,9.82
1542387244986293077,340,0,/imu_data_acquisition2,50969.0,0.0181274414062,-0.0372314453125,0.719909667969,0.692810058594,2.3125,1.1875,-2.6875,1.03,-0.49,10.15
1542387244993731021,341,0,/imu_data_acquisition2,50981.0,0.0182495117188,-0.0371704101562,0.719787597656,0.692993164062,2.75,1.5,-2.9375,1.04,-0.45,9.96
1542387245005892992,342,0,/imu_data_acquisition2,50993.0,0.0183715820312,-0.0369873046875,0.719604492188,0.693176269531,3.0625,2.0625,-3.1875,1.25,-0.33,9.88
1542387245015857934,343,0,/imu_data_acquisition2,51002.0,0.0184936523438,-6.103515625e-05,-6.103515625e-05,0.693359375,3.3125,3.0625,-3.25,0.92,-0.36,10.06
1542387245023623943,344,0,/imu_data_acquisition2,51011.0,0.0184936523438,-0.0364990234375,0.71923828125,0.693542480469,3.0,4.5625,-3.125,0.92,-0.01,-0.01
1542387245034871101,345,0,/imu_data_acquisition2,51021.0,0.0183715820312,-0.0361328125,0.719055175781,0.693786621094,2.4375,5.5625,-3.25,0.98,-0.33,9.82
1542387245041692018,346,0,/imu_data_acquisition2,51029.0,0.0182495117188,-0.0357666015625,0.718872070312,0.693969726562,2.6875,5.6875,-3.25,1.1,-0.29,9.69
1542387245054632902,347,0,/imu_data_acquisition2,51042.0,0.0181274414062,-0.0353393554688,0.718688964844,0.694213867188,3.0,7.0625,-3.4375,0.92,-0.48,9.69
1542387245066307067,348,0,/imu_data_acquisition2,51052.0,0.0178833007812,-0.034912109375,0.718505859375,0.694396972656,3.375,7.625,-3.4375,0.97,-0.59,9.78
1542387245072659015,349,0,/imu_data_acquisition2,51060.0,0.0176391601562,-0.034423828125,0.718322753906,0.694641113281,3.8125,8.3125,-3.25,0.97,-0.59,9.78
1542387245085568904,350,0,/imu_data_acquisition2,51073.0,0.0174560546875,-0.0338745117188,0.718383789062,0.694580078125,5.5625,9.1875,-0.0625,1.29,-0.46,9.63
1542387245096522092,351,0,/imu_data_acquisition2,51082.0,0.017333984375,-0.0333862304688,0.718200683594,0.69482421875,5.5625,9.1875,-3.25,0.89,-0.45,9.76
1542387245108015060,352,0,/imu_data_acquisition2,51092.0,0.0171508789062,-0.03271484375,0.718017578125,0.695007324219,6.1875,10.1875,-0.0625,0.89,-0.45,9.76
1542387245118618011,353,0,/imu_data_acquisition2,51106.0,0.016845703125,-0.0317993164062,0.717834472656,0.695251464844,7.4375,13.5625,-3.75,0.73,-0.43,10.18
1542387245126806020,354,0,/imu_data_acquisition2,51112.0,0.0164794921875,-0.0307006835938,0.717651367188,0.695495605469,7.4375,13.5625,-3.75,0.73,-0.43,10.18
1542387245133977890,355,0,/imu_data_acquisition2,51122.0,0.01611328125,-0.0294189453125,0.717712402344,0.695495605469,7.9375,14.125,-3.875,0.81,-0.46,9.93
1542387245145811080,356,0,/imu_data_acquisition2,51133.0,0.0157470703125,-0.028076171875,0.717529296875,0.69580078125,8.5,13.6875,-3.875,0.82,-0.53,9.97
1542387245157072067,357,0,/imu_data_acquisition2,51143.0,-6.103515625e-05,-6.103515625e-05,-6.103515625e-05,0.696044921875,8.875,13.625,-3.8125,0.66,-0.42,9.84
1542387245165215015,358,0,/imu_data_acquisition2,51153.0,0.01513671875,-0.0255126953125,0.717163085938,0.6962890625,9.5,14.125,-3.6875,1.02,-0.1,9.72
1542387245175352096,359,0,/imu_data_acquisition2,51160.0,0.0149536132812,-0.0242919921875,0.716979980469,0.696472167969,10.0625,14.5,-3.6875,1.02,-0.1,9.72
1542387245181823015,360,0,/imu_data_acquisition2,51169.0,0.0145874023438,-0.0227661132812,0.716857910156,0.696716308594,9.8125,17.125,-3.1875,0.76,-0.06,10.23
1542387245193845987,361,0,/imu_data_acquisition2,51181.0,0.0140991210938,-0.00555419921875,-6.103515625e-05,0.696899414062,9.8125,17.125,-3.1875,0.77,0.08,10.1
1542387245206502914,362,0,/imu_data_acquisition2,51193.0,0.0135498046875,-0.00396728515625,-6.103515625e-05,0.697143554688,9.1875,17.8125,-2.9375,0.92,-0.07,9.79
1542387245225615024,363,0,/imu_data_acquisition2,51212.0,0.0128784179688,-0.0178833007812,0.716430664062,0.697326660156,7.0625,24.3125,-3.625,1.19,-0.09,9.8
1542387245230484008,364,0,/imu_data_acquisition2,51217.0,0.0103759765625,-0.0137939453125,0.716064453125,0.697814941406,7.25,30.8125,-4.0,0.0,-0.17,9.63
1542387245248580932,366,0,/imu_data_acquisition2,51234.0,0.00848388671875,-0.010986328125,0.715881347656,0.698120117188,9.1875,47.3125,-5.125,2.47,-0.08,9.68
1542387245255579948,367,0,/imu_data_acquisition2,51243.0,0.00616455078125,-0.00762939453125,0.715576171875,0.698486328125,9.1875,47.3125,-5.125,0.63,0.08,10.08
1542387245265820026,368,0,/imu_data_acquisition2,51253.0,0.003662109375,-0.00384521484375,0.71533203125,0.698791503906,10.9375,52.9375,-5.0625,0.63,0.08,10.08
1542387245273314952,369,0,/imu_data_acquisition2,51261.0,0.0006103515625,0.000732421875,0.714965820312,0.699157714844,14.0,63.5625,-5.5625,1.15,-1.31,9.09
1542387245283077955,370,0,/imu_data_acquisition2,51271.0,-0.0028076171875,0.00634765625,0.714416503906,0.699645996094,18.9375,75.8125,-9.125,1.63,-0.78,9.48
1542387245294675111,371,0,/imu_data_acquisition2,51281.0,-0.007080078125,0.0128784179688,0.7138671875,0.700073242188,20.125,89.875,-8.25,2.46,-0.07,8.18
1542387245307593107,372,0,/imu_data_acquisition2,51293.0,-0.011962890625,0.0205078125,0.713195800781,0.700561523438,23.9375,104.75,-9.5625,1.36,-0.01,-0.01
1542387245315501928,373,0,/imu_data_acquisition2,51303.0,-0.0177001953125,0.0288696289062,0.712524414062,0.700805664062,23.375,117.375,-7.9375,0.76,-0.2,9.79
1542387245323785066,374,0,/imu_data_acquisition2,51310.0,-0.0243530273438,0.0380249023438,0.711975097656,0.700744628906,21.875,131.9375,-4.125,0.76,-0.2,9.79
1542387245332803964,375,0,/imu_data_acquisition2,51321.0,-0.0318603515625,0.0479736328125,0.711364746094,0.700439453125,21.9375,146.6875,-3.3125,1.52,1.29,-0.01
1542387245344100952,376,0,/imu_data_acquisition2,51331.0,-0.0405883789062,0.0588989257812,0.710632324219,0.699890136719,19.875,164.0,-2.3125,1.44,1.26,8.86
1542387245357131004,377,0,/imu_data_acquisition2,51342.0,-0.05029296875,0.0703735351562,0.709716796875,0.699157714844,16.5,178.375,-3.0,1.07,-0.21,9.62
1542387245365478038,378,0,/imu_data_acquisition2,51353.0,-0.0609741210938,0.0816650390625,0.70849609375,0.698364257812,7.0625,184.25,-5.1875,-0.25,1.68,10.46
1542387245374861001,379,0,/imu_data_acquisition2,51360.0,-0.0723876953125,0.0924072265625,0.707336425781,0.697082519531,-4.25,186.75,-2.1875,1.9,0.61,11.64
1542387245381989955,380,0,/imu_data_acquisition2,51369.0,-0.0848999023438,0.105102539062,0.705627441406,0.695617675781,3.6875,212.5625,-4.375,1.78,1.0,12.73
1542387245393913984,381,0,/imu_data_acquisition2,51381.0,-0.0997314453125,0.118591308594,0.703125,0.693969726562,-8.25,239.625,-12.25,-0.82,2.43,10.43
1542387245405819892,382,0,/imu_data_acquisition2,51393.0,-0.117431640625,0.133972167969,0.69921875,0.692321777344,-13.8125,280.9375,-24.4375,0.1,1.17,12.86
1542387245415693044,383,0,/imu_data_acquisition2,51402.0,-0.139831542969,0.151733398438,0.693420410156,0.690368652344,-30.125,342.0625,-42.3125,0.05,0.57,12.65
1542387245423789978,384,0,/imu_data_acquisition2,51411.0,-0.166259765625,0.172424316406,-6.103515625e-05,0.687316894531,-37.25,404.75,-51.0625,-0.15,0.14,15.42
1542387245433945894,385,0,/imu_data_acquisition2,51420.0,-0.195922851562,0.195434570312,0.676330566406,0.6826171875,-44.3125,456.25,-53.5625,-2.35,2.62,11.15
1542387245448617935,386,0,/imu_data_acquisition2,51433.0,-0.228454589844,0.218200683594,0.665710449219,0.676025390625,-71.875,485.0,-55.3125,-3.05,2.03,10.64
1542387245457190990,387,0,/imu_data_acquisition2,51445.0,-0.261840820312,0.240051269531,0.65380859375,0.668090820312,-78.0625,470.75,-67.375,-3.96,0.28,10.3
1542387245468043088,388,0,/imu_data_acquisition2,51454.0,-0.293395996094,0.260620117188,0.640686035156,0.659973144531,-78.0625,470.75,-67.375,-3.96,0.28,10.3
1542387245474092960,389,0,/imu_data_acquisition2,51459.0,-0.321838378906,0.277893066406,0.627014160156,0.652709960938,-74.4375,420.9375,-79.1875,0.88,0.81,19.2
1542387245485342025,390,0,/imu_data_acquisition2,51470.0,-0.346984863281,0.288024902344,0.615844726562,0.646057128906,-107.8125,329.5625,-80.9375,-0.9,-4.49,39.86
1542387245498019933,391,0,/imu_data_acquisition2,51482.0,-0.3603515625,0.290771484375,0.60791015625,0.64501953125,-59.5,154.6875,-87.625,1.93,2.18,39.86
1542387245514094114,392,0,/imu_data_acquisition2,51493.0,-0.364685058594,0.286743164062,0.60498046875,0.647155761719,-42.4375,5.875,-69.6875,5.86,8.47,30.25
1542387245525520086,393,0,/imu_data_acquisition2,51507.0,-0.362976074219,0.277587890625,0.607116699219,0.650085449219,-43.875,-162.125,-8.5,5.62,6.79,12.33
1542387245529635906,394,0,/imu_data_acquisition2,51511.0,-0.357238769531,0.266174316406,0.612548828125,0.652893066406,-43.875,-162.125,-8.5,5.62,6.79,12.33
1542387245538752079,395,0,/imu_data_acquisition2,51524.0,-0.348999023438,0.254577636719,-6.103515625e-05,0.655212402344,-32.6875,-186.75,15.4375,3.83,4.93,6.49
1542387245544548988,396,0,/imu_data_acquisition2,51531.0,-0.3388671875,0.243591308594,0.627746582031,0.657104492188,-18.4375,-198.8125,34.0625,2.85,4.33,7.54
1542387245565633058,397,0,/imu_data_acquisition2,51547.0,-0.326782226562,0.232788085938,0.636535644531,0.65869140625,-5.1875,-213.3125,47.625,1.56,1.95,12.79
1542387245567630052,398,0,/imu_data_acquisition2,51553.0,-0.312255859375,0.221557617188,0.645812988281,0.660583496094,10.1875,-238.75,55.125,1.56,1.95,12.79
1542387245575726032,399,0,/imu_data_acquisition2,51562.0,-0.294189453125,0.209106445312,0.655517578125,0.663330078125,31.125,-277.8125,55.5,0.5,-1.07,15.64
1542387245583621025,400,0,/imu_data_acquisition2,51570.0,-0.272521972656,0.195373535156,0.664916992188,0.667419433594,53.9375,-319.25,48.375,0.0,-2.2,13.87
1542387245593499898,401,0,/imu_data_acquisition2,51580.0,-0.248107910156,0.180358886719,0.673461914062,0.672607421875,72.125,-350.1875,34.625,-0.6,-3.31,10.8
1542387245607785940,402,0,/imu_data_acquisition2,51593.0,-0.222351074219,0.164978027344,-6.103515625e-05,0.678771972656,86.125,-360.9375,14.0,-1.36,-5.69,4.14
1542387245619837045,403,0,/imu_data_acquisition2,51603.0,-0.196594238281,0.150268554688,0.684326171875,0.685913085938,99.5,-351.1875,-12.0625,-1.91,-6.22,2.63
1542387245627043008,404,0,/imu_data_acquisition2,51614.0,-0.171630859375,0.136901855469,0.685913085938,0.693786621094,109.625,-328.4375,-37.9375,-2.57,-5.62,2.02
1542387245635122060,405,0,/imu_data_acquisition2,51622.0,-0.148620605469,0.124755859375,0.685424804688,0.701782226562,108.0625,-298.8125,-56.4375,-3.51,-2.24,5.3
1542387245648205995,406,0,/imu_data_acquisition2,51635.0,-0.128051757812,0.113159179688,0.684020996094,0.709167480469,91.0,-271.625,-61.625,-3.75,0.73,13.17
1542387245655029058,407,0,/imu_data_acquisition2,51642.0,-0.109069824219,0.100952148438,0.682739257812,0.715393066406,71.9375,-6.5625,-0.0625,-3.75,0.73,13.17
1542387245663523912,408,0,/imu_data_acquisition2,51649.0,-0.0902709960938,0.0881958007812,0.682006835938,0.720397949219,63.75,-265.0,-40.875,-3.15,0.5,12.91
1542387245673670053,409,0,/imu_data_acquisition2,51661.0,-0.0716552734375,0.07568359375,0.681457519531,0.724365234375,62.4375,-261.0,-30.3125,-3.28,0.5,13.42
1542387245684103012,410,0,/imu_data_acquisition2,51670.0,-0.0535278320312,0.0635986328125,0.680847167969,0.727722167969,61.375,-252.3125,-26.5,-3.46,-0.27,14.97
1542387245691986083,411,0,/imu_data_acquisition2,51679.0,-0.00421142578125,-6.103515625e-05,-6.103515625e-05,0.730895996094,68.75,-243.1875,-30.3125,-4.54,-1.79,18.14
1542387245708615064,412,0,/imu_data_acquisition2,51695.0,-0.0156860351562,0.0422973632812,0.677307128906,0.734313964844,92.125,-248.125,-38.5625,-7.67,3.04,19.9
1542387245715478897,413,0,/imu_data_acquisition2,51703.0,0.00579833984375,0.0322265625,0.674560546875,0.737487792969,108.0,-260.75,-40.3125,-7.67,3.04,19.9
1542387245722285985,414,0,/imu_data_acquisition2,51709.0,0.0272216796875,0.0218505859375,0.672241210938,0.739501953125,105.0,-263.375,-27.3125,-8.11,5.28,14.7
1542387245733726024,415,0,/imu_data_acquisition2,51720.0,0.0466918945312,0.0120849609375,0.671203613281,0.739685058594,93.0625,-240.6875,-2.375,-9.43,6.93,14.42
1542387245744761943,416,0,/imu_data_acquisition2,51730.0,0.0639038085938,0.00274658203125,-6.103515625e-05,0.737976074219,76.875,-217.6875,25.9375,-10.1,6.98,16.98
1542387245752026081,417,0,/imu_data_acquisition2,51739.0,0.07958984375,-0.007080078125,0.673889160156,0.734497070312,61.625,-209.25,54.25,-10.06,6.08,16.89
1542387245764766931,418,0,/imu_data_acquisition2,51752.0,0.0941772460938,-0.0172729492188,0.677368164062,0.729370117188,50.6875,-202.0625,79.375,-10.13,3.09,14.24
1542387245773433923,419,0,/imu_data_acquisition2,51760.0,0.107482910156,-0.0274658203125,0.681884765625,0.723022460938,41.125,-190.9375,98.625,-10.29,0.79,12.88
1542387245782808065,420,0,/imu_data_acquisition2,51770.0,0.119445800781,-0.037109375,0.68701171875,0.715759277344,35.3125,-175.25,110.625,-10.39,-1.2,12.14
1542387245793565034,421,0,/imu_data_acquisition2,51780.0,0.129943847656,-0.0460815429688,0.6923828125,0.708251953125,28.9375,-157.125,114.6875,-10.01,-1.67,12.43
1542387245806869983,422,0,/imu_data_acquisition2,51791.0,0.139343261719,-0.0549926757812,0.697570800781,0.70068359375,20.75,-147.75,113.625,-12.91,-4.43,20.7
1542387245814037084,423,0,/imu_data_acquisition2,51801.0,0.149963378906,-0.0645141601562,0.701965332031,0.693237304688,23.875,-164.3125,107.0625,-12.86,-5.06,18.27
1542387245824148893,424,0,/imu_data_acquisition2,51810.0,0.161987304688,-0.0742797851562,0.705322265625,0.686096191406,33.25,-179.375,94.875,-12.32,-5.52,12.45
1542387245833049058,425,0,/imu_data_acquisition2,51820.0,0.173889160156,-0.082763671875,0.707641601562,0.679809570312,39.6875,-169.6875,77.75,-12.52,-6.1,3.45
1542387245843178987,426,0,/imu_data_acquisition2,51829.0,0.183959960938,-0.0892333984375,0.709106445312,0.6748046875,38.8125,-138.0625,57.0625,-12.93,-5.73,0.56
1542387245856028079,427,0,/imu_data_acquisition2,51842.0,0.19091796875,-0.0933227539062,0.7099609375,0.67138671875,29.4375,-93.0625,36.8125,-13.64,-5.51,0.0
1542387245866739988,428,0,/imu_data_acquisition2,51853.0,0.194702148438,-0.095458984375,0.71044921875,0.669494628906,16.75,-49.5625,20.1875,-14.08,-5.18,3.14
1542387245873189926,429,0,/imu_data_acquisition2,51861.0,0.195861816406,-0.0961303710938,0.710632324219,0.668884277344,5.25,-15.1875,-0.0625,-13.47,-4.07,0.67
1542387245885278940,430,0,/imu_data_acquisition2,51872.0,0.191955566406,-0.0944213867188,0.71142578125,0.669372558594,-17.1875,48.625,2.1875,-2.5,-0.01,-0.01
1542387245893433094,431,0,/imu_data_acquisition2,51881.0,0.178833007812,-0.091796875,0.713073730469,0.671630859375,-84.6875,137.625,2.75,-10.89,-4.9,-5.37
1542387245903194904,432,0,/imu_data_acquisition2,51890.0,0.16455078125,-0.0894165039062,0.713806152344,0.674865722656,-99.625,144.0,-10.9375,8.79,0.01,24.74
1542387245913522005,433,0,/imu_data_acquisition2,51899.0,0.154113769531,-0.0858154296875,0.713562011719,0.678039550781,-59.5625,120.3125,-24.875,2.64,1.41,2.68
1542387245924261093,434,0,/imu_data_acquisition2,51911.0,0.141845703125,-0.0810546875,0.713500976562,0.681335449219,-63.6875,145.125,-24.5625,2.36,3.21,1.27
1542387245933881998,435,0,/imu_data_acquisition2,51921.0,0.128479003906,-0.0750122070312,0.714294433594,0.683837890625,-60.625,164.9375,-12.0,0.26,1.37,-0.01
1542387245942554950,436,0,/imu_data_acquisition2,51929.0,0.117553710938,-0.0686645507812,0.715454101562,0.685302734375,-36.375,147.25,-2.5,0.22,1.66,10.88
1542387245956671953,437,0,/imu_data_acquisition2,51943.0,0.106689453125,-0.0634155273438,0.716796875,0.686157226562,-43.375,136.75,5.0,1.48,-1.07,11.01
1542387245963757991,438,0,/imu_data_acquisition2,51951.0,0.0965576171875,-0.05810546875,0.71826171875,0.686584472656,-36.5625,131.4375,9.3125,0.1,-3.62,11.52
1542387245974420070,439,0,/imu_data_acquisition2,51961.0,0.0869750976562,-0.052978515625,0.719482421875,0.68701171875,-34.125,125.125,7.0,0.96,-4.38,13.97
1542387245985169887,440,0,/imu_data_acquisition2,51971.0,0.0784301757812,-0.0480346679688,0.720153808594,0.687683105469,-27.375,114.25,0.4375,1.05,-2.66,14.71
1542387245994088888,441,0,/imu_data_acquisition2,51980.0,0.071044921875,-0.0431518554688,0.720581054688,0.688354492188,-18.9375,102.875,-2.8125,-0.27,1.83,15.07
1542387246002525091,442,0,/imu_data_acquisition2,51990.0,0.064697265625,-0.0387573242188,0.72119140625,0.688659667969,-14.25,90.8125,1.875,-0.53,2.39,14.48
1542387246016014099,443,0,/imu_data_acquisition2,52002.0,0.0592651367188,-0.0352783203125,0.722045898438,0.688415527344,-13.75,75.6875,8.875,0.03,0.54,13.63
1542387246023560047,444,0,/imu_data_acquisition2,52010.0,0.05419921875,-0.0327758789062,0.723022460938,0.687927246094,-19.375,64.0625,12.3125,0.39,0.73,14.48
1542387246033030033,445,0,/imu_data_acquisition2,52020.0,0.0498657226562,-0.0318603515625,0.723876953125,0.687377929688,-26.625,44.3125,12.5625,0.45,0.92,12.2
1542387246045466899,446,0,/imu_data_acquisition2,52031.0,0.0464477539062,-0.03173828125,0.724670410156,0.686767578125,-25.6875,31.0,13.375,1.15,-0.82,12.98
1542387246055450916,447,0,/imu_data_acquisition2,52040.0,0.0435180664062,-0.03173828125,0.725463867188,0.686157226562,-23.25,25.125,12.1875,0.78,-1.27,11.85
1542387246061876058,448,0,/imu_data_acquisition2,52049.0,0.0413208007812,-0.0317993164062,0.726013183594,0.685668945312,-17.6875,18.5,9.6875,0.79,-0.62,11.07
1542387246073950052,449,0,/imu_data_acquisition2,52060.0,0.039794921875,-0.0318603515625,0.726501464844,0.685241699219,-12.75,12.4375,8.3125,1.16,-0.27,10.39
1542387246085849046,450,0,/imu_data_acquisition2,52071.0,0.03857421875,-0.0318603515625,0.726928710938,0.684875488281,-10.0625,10.75,7.625,1.12,-0.48,10.74
1542387246092233896,451,0,/imu_data_acquisition2,52079.0,0.0375366210938,-0.0318603515625,0.727355957031,0.684509277344,-7.8125,8.5625,6.75,1.47,-0.6,10.97
1542387246103600025,452,0,/imu_data_acquisition2,52090.0,0.0369262695312,-0.0319213867188,0.727661132812,0.684143066406,-5.125,5.4375,6.0,1.45,-0.26,9.3
