%time,field.header.seq,field.header.stamp,field.header.frame_id,field.time_stamp,field.quat_x,field.quat_y,field.quat_z,field.quat_w,field.gyro_x,field.gyro_y,field.gyro_z,field.accel_x,field.accel_y,field.accel_z
1542387643001029014,532,0,/imu_data_acquisition2,40631.0,0.0430297851562,-0.0452270507812,0.699401855469,0.712036132812,-7.5,5.1875,6.625,1.09,-0.11,10.81
1542387643013437032,533,0,/imu_data_acquisition2,40644.0,0.0426025390625,-0.0454711914062,0.699645996094,0.711791992188,-5.5,1.875,4.375,1.11,0.73,10.1
1542387643027697086,534,0,/imu_data_acquisition2,40656.0,0.0421142578125,-0.0458374023438,0.699829101562,0.711547851562,-6.5,1.5625,3.5625,1.22,0.2,10.58
1542387643031102895,535,0,/imu_data_acquisition2,40661.0,0.0416259765625,-0.046142578125,0.700073242188,0.711364746094,-6.5,1.5625,3.5625,1.22,0.2,10.58
1542387643041511058,536,0,/imu_data_acquisition2,40671.0,0.041259765625,-0.0464477539062,0.700256347656,0.711181640625,-5.5,0.5,3.4375,1.5,-0.35,10.09
1542387643050044059,537,0,/imu_data_acquisition2,40681.0,0.0409545898438,-0.0467529296875,0.700378417969,0.711059570312,-4.4375,-0.0625,-0.0625,1.55,-0.07,10.16
1542387643063937902,538,0,/imu_data_acquisition2,40694.0,0.040771484375,-6.103515625e-05,-6.103515625e-05,0.710876464844,-3.375,0.4375,2.5,1.46,-0.64,11.06
1542387643073029041,539,0,/imu_data_acquisition2,40703.0,0.0409545898438,-0.0469360351562,0.700561523438,0.710876464844,1.375,-1.5,0.75,1.24,-0.31,10.36
1542387643082988023,540,0,/imu_data_acquisition2,40713.0,0.0413208007812,-0.0469360351562,0.700561523438,0.710815429688,3.1875,-3.1875,-0.1875,1.6,0.01,10.21
1542387643090311050,541,0,/imu_data_acquisition2,40720.0,0.0416259765625,-0.0469360351562,0.700561523438,0.710815429688,2.9375,-0.0625,-0.0625,1.15,-0.1,10.11
1542387643102205038,542,0,/imu_data_acquisition2,40733.0,0.0419311523438,-0.0470581054688,0.700561523438,0.710754394531,2.6875,-2.375,0.25,1.78,-0.45,10.98
1542387643114667892,543,0,/imu_data_acquisition2,40744.0,0.04248046875,-0.0469970703125,0.700561523438,0.710815429688,5.25,-3.8125,-0.9375,1.28,0.46,8.85
1542387643123126029,544,0,/imu_data_acquisition2,40752.0,0.0428466796875,-0.046875,0.700561523438,0.710754394531,3.6875,-1.875,-0.3125,1.42,0.47,10.49
1542387643133960008,545,0,/imu_data_acquisition2,40763.0,0.0433349609375,-0.0467529296875,0.700500488281,0.710815429688,4.9375,-3.3125,-1.3125,1.35,0.69,9.54
1542387643142715930,546,0,/imu_data_acquisition2,40771.0,0.0436401367188,-0.0154418945312,-6.103515625e-05,0.710876464844,3.3125,-1.875,-0.75,1.32,0.3,10.36
1542387643150604009,547,0,/imu_data_acquisition2,40781.0,-6.103515625e-05,-6.103515625e-05,-6.103515625e-05,0.710876464844,2.375,-1.75,-1.0625,1.39,0.23,9.92
1542387643164699077,548,0,/imu_data_acquisition2,40794.0,0.044189453125,-0.046630859375,0.700317382812,0.7109375,2.4375,-2.125,-1.25,1.27,0.16,9.82
1542387643173456907,549,0,/imu_data_acquisition2,40803.0,0.0444946289062,-0.0465087890625,0.700256347656,0.710998535156,3.4375,-2.0,-1.25,1.36,-0.05,10.02
1542387643179940938,550,0,/imu_data_acquisition2,40811.0,0.0448608398438,-0.0464477539062,0.700134277344,0.711059570312,3.5,-1.9375,-1.3125,1.51,0.07,9.51
1542387643191477060,551,0,/imu_data_acquisition2,40822.0,0.045166015625,-0.0462646484375,0.701049804688,0.710205078125,3.25,-1.3125,-1.125,1.11,-0.22,9.74
1542387643200387954,552,0,/imu_data_acquisition2,40831.0,0.0454711914062,-0.046142578125,0.700988769531,0.710266113281,3.3125,-1.25,-0.875,1.4,0.23,9.96
1542387643213135004,553,0,/imu_data_acquisition2,40844.0,0.045654296875,-0.0460815429688,0.700988769531,0.710205078125,2.0,-1.6875,-0.1875,1.37,0.34,9.11
1542387643224163055,554,0,/imu_data_acquisition2,40854.0,0.045654296875,-0.046142578125,0.700988769531,0.710205078125,-0.625,0.125,0.5,1.31,0.49,9.8
1542387643232983112,555,0,/imu_data_acquisition2,40863.0,0.045654296875,-0.0462646484375,0.700988769531,0.710205078125,-1.0625,-0.9375,0.5625,1.42,0.37,-0.01
1542387643240231990,556,0,/imu_data_acquisition2,40871.0,-6.103515625e-05,-6.103515625e-05,-6.103515625e-05,0.709411621094,-3.8125,0.0625,0.9375,1.24,0.83,9.27
1542387643251694917,557,0,/imu_data_acquisition2,40882.0,0.0449829101562,-0.046875,0.701904296875,0.709350585938,-7.4375,0.625,2.1875,1.29,0.44,9.77
1542387643264256954,558,0,/imu_data_acquisition2,40893.0,0.0443725585938,-0.0474853515625,0.702026367188,0.709228515625,-10.0,0.4375,2.5625,1.38,0.44,-0.01
1542387643270973920,559,0,/imu_data_acquisition2,40902.0,0.04345703125,-0.0482177734375,0.7021484375,0.709045410156,-13.25,1.0625,3.4375,1.24,0.43,9.34
1542387643281270980,560,0,/imu_data_acquisition2,40912.0,0.0425415039062,-0.0488891601562,0.702331542969,0.708862304688,-16.4375,1.8125,4.4375,1.13,0.25,9.72
1542387643293463945,561,0,/imu_data_acquisition2,40923.0,0.0415649414062,-0.0497436523438,0.703247070312,0.7080078125,-16.3125,1.0,4.625,1.37,-0.41,10.47
1542387643300173044,562,0,/imu_data_acquisition2,40931.0,0.0407104492188,-0.0505981445312,0.703430175781,0.707824707031,-13.75,-0.1875,3.75,1.2,-0.34,10.07
1542387643313318014,563,0,/imu_data_acquisition2,40944.0,0.0399780273438,-0.0513916015625,0.703552246094,0.707641601562,-12.1875,-0.75,3.1875,1.52,-0.01,10.03
1542387643328840970,564,0,/imu_data_acquisition2,40956.0,0.0393676757812,-0.0521240234375,0.703674316406,0.70751953125,-11.6875,-1.0,2.9375,1.36,-0.56,9.98
1542387643332801103,565,0,/imu_data_acquisition2,40964.0,0.0387573242188,-0.0529174804688,0.703796386719,0.707397460938,-11.5,-1.5,3.0,1.36,-0.56,9.98
1542387643342703104,566,0,/imu_data_acquisition2,40973.0,0.0382080078125,-0.0537109375,0.703918457031,0.707214355469,-10.6875,-1.875,2.25,1.13,-0.01,9.88
1542387643350637912,567,0,/imu_data_acquisition2,40981.0,0.0376586914062,-0.054443359375,0.703979492188,0.707153320312,-10.75,-2.1875,2.0625,1.16,-0.02,9.94
1542387643363367080,568,0,/imu_data_acquisition2,40994.0,0.0371704101562,-0.0552368164062,0.704040527344,0.70703125,-10.6875,-2.0625,1.875,1.13,0.1,9.35
1542387643372961044,569,0,/imu_data_acquisition2,41003.0,0.0364990234375,-0.0559692382812,0.7041015625,0.706970214844,-11.625,-0.875,1.875,1.37,-0.11,9.95
1542387643380707979,570,0,/imu_data_acquisition2,41011.0,0.035888671875,-0.0567626953125,0.704162597656,0.706909179688,-11.5,-1.0625,1.6875,1.2,-0.22,9.32
1542387643391345977,571,0,/imu_data_acquisition2,41022.0,0.03515625,-0.0573120117188,0.704162597656,0.706848144531,-10.6875,0.8125,1.75,1.23,-0.91,10.15
1542387643401266098,572,0,/imu_data_acquisition2,41031.0,0.03466796875,-0.0576782226562,0.704223632812,0.706787109375,-7.0,1.3125,1.25,1.18,-0.87,10.18
1542387643413269042,573,0,/imu_data_acquisition2,41044.0,0.0343627929688,-0.0578002929688,0.704223632812,0.706787109375,-3.125,1.5625,0.25,1.47,-0.32,9.51
1542387643425208091,574,0,/imu_data_acquisition2,41056.0,0.0341796875,-0.0575561523438,0.704223632812,0.706787109375,0.125,3.5625,-0.5625,1.24,-0.45,9.62
1542387643433689117,575,0,/imu_data_acquisition2,41063.0,0.0340576171875,-0.0570068359375,0.704162597656,0.706909179688,3.25,5.625,-1.4375,1.24,-0.45,9.62
1542387643440869092,576,0,/imu_data_acquisition2,41072.0,0.033935546875,-0.0562744140625,0.7041015625,0.70703125,5.375,6.875,-2.1875,1.48,-0.07,9.85
1542387643453226089,577,0,/imu_data_acquisition2,41084.0,0.0337524414062,-0.0553588867188,0.703979492188,0.707275390625,5.5625,9.1875,-0.0625,1.44,0.16,9.38
1542387643463219881,578,0,/imu_data_acquisition2,41093.0,0.033447265625,-0.054443359375,0.703857421875,0.707458496094,4.875,10.75,-2.8125,1.32,0.14,9.65
1542387643471687078,579,0,/imu_data_acquisition2,41102.0,0.032958984375,-0.053466796875,0.703735351562,0.707702636719,3.6875,12.0,-3.0625,1.32,0.34,-0.01
1542387643481231927,580,0,/imu_data_acquisition2,41112.0,0.0322265625,-0.0525512695312,0.70361328125,0.707885742188,1.75,13.875,-2.75,1.25,-0.06,10.06
1542387643491250038,581,0,/imu_data_acquisition2,41121.0,0.0314331054688,-0.0515747070312,0.703491210938,0.708129882812,1.0625,14.6875,-2.75,0.14,0.59,10.19
1542387643500809907,582,0,/imu_data_acquisition2,41131.0,0.0304565429688,-0.05029296875,0.703430175781,0.708312988281,2.25,19.125,-2.0,0.99,0.92,9.32
1542387643512449979,583,0,/imu_data_acquisition2,41143.0,0.029296875,-0.0490112304688,0.703369140625,0.70849609375,1.375,20.1875,-1.4375,2.01,-2.24,10.27
1542387643521096944,584,0,/imu_data_acquisition2,41151.0,0.0281982421875,-0.0474853515625,0.703308105469,0.708740234375,3.1875,22.125,-2.875,1.2,0.41,10.26
1542387643532094001,585,0,/imu_data_acquisition2,41163.0,0.0270385742188,-0.0458984375,0.703186035156,0.709045410156,3.375,23.0,-3.0625,1.84,-0.44,9.47
1542387643542085886,586,0,/imu_data_acquisition2,41173.0,0.0255126953125,-0.0438842773438,0.703002929688,0.709350585938,3.625,30.125,-4.1875,1.28,-0.61,9.79
1542387643550481081,587,0,/imu_data_acquisition2,41180.0,0.0238037109375,-0.0414428710938,0.702697753906,0.709838867188,5.25,34.8125,-6.125,1.71,-0.53,9.77
1542387643563007116,588,0,/imu_data_acquisition2,41193.0,0.0216674804688,-0.0384521484375,0.702331542969,0.71044921875,7.0,42.875,-8.0,1.86,-0.64,8.93
1542387643572310924,589,0,/imu_data_acquisition2,41203.0,0.0189819335938,-0.0346069335938,0.701782226562,0.711303710938,8.625,55.0625,-11.5625,1.68,-1.51,9.6
1542387643580741882,590,0,/imu_data_acquisition2,41210.0,0.0159301757812,-0.0299072265625,0.701049804688,0.712280273438,12.9375,65.375,-14.0,2.31,0.81,9.17
1542387643590964078,591,0,/imu_data_acquisition2,41222.0,0.0123901367188,-0.0240478515625,0.700561523438,0.713073730469,18.3125,78.25,-10.5,1.66,-0.71,9.27
1542387643601774930,592,0,/imu_data_acquisition2,41232.0,0.008544921875,-0.0169677734375,0.699768066406,0.714111328125,25.875,92.0,-14.875,2.65,0.0,8.88
1542387643610183000,593,0,/imu_data_acquisition2,41240.0,0.00390625,-0.0086669921875,0.698913574219,0.715148925781,28.9375,108.8125,-16.4375,2.65,0.1,7.84
1542387643621176958,594,0,/imu_data_acquisition2,41252.0,-0.0018310546875,0.00091552734375,0.697814941406,0.71630859375,31.0,129.0,-18.375,2.25,1.48,8.95
1542387643633295059,595,0,/imu_data_acquisition2,41264.0,-0.00885009765625,0.0113525390625,0.696594238281,0.717346191406,26.25,146.1875,-18.6875,-0.09,-1.0,11.08
1542387643639698028,596,0,/imu_data_acquisition2,41270.0,-0.0164794921875,0.0222778320312,0.695251464844,0.71826171875,25.6875,155.9375,-18.5625,0.87,1.94,9.9
1542387643651005983,597,0,/imu_data_acquisition2,41281.0,-0.0254516601562,0.033447265625,0.694152832031,0.718566894531,16.0625,169.0625,-12.125,1.65,0.88,9.45
1542387643662786006,598,0,/imu_data_acquisition2,41292.0,-0.0357055664062,0.0453491210938,0.692993164062,0.718627929688,10.9375,185.375,-11.25,1.07,1.8,9.04
1542387643669712066,599,0,/imu_data_acquisition2,41300.0,-0.0473022460938,0.0576782226562,0.691589355469,0.718444824219,3.625,200.8125,-11.25,0.41,1.22,9.47
1542387643681294918,600,0,/imu_data_acquisition2,41311.0,-0.059814453125,0.0697631835938,0.689697265625,0.718200683594,-6.6875,206.8125,-15.5,-0.08,1.58,10.72
1542387643691625118,601,0,/imu_data_acquisition2,41321.0,-0.0734252929688,0.0822143554688,0.687377929688,0.717895507812,-12.5625,218.6875,-19.5,1.13,0.65,11.78
1542387643699548959,602,0,/imu_data_acquisition2,41330.0,-0.088623046875,0.096435546875,0.684265136719,0.717346191406,-10.4375,247.6875,-24.5,-1.07,1.72,11.04
1542387643711627960,603,0,/imu_data_acquisition2,41342.0,-0.106262207031,0.111694335938,0.679931640625,0.716857910156,-22.0,277.9375,-37.25,-0.79,-0.08,14.25
1542387643720613002,604,0,/imu_data_acquisition2,41351.0,-0.127685546875,0.129272460938,0.673583984375,0.716430664062,-32.375,329.9375,-56.5625,0.56,0.87,13.4
1542387643730902910,605,0,/imu_data_acquisition2,41362.0,-0.152587890625,0.149963378906,0.66552734375,0.715026855469,-35.625,388.9375,-63.6875,-0.56,0.96,15.28
1542387643742142915,606,0,/imu_data_acquisition2,41372.0,-0.1806640625,0.173583984375,0.656005859375,0.711975097656,-40.4375,443.9375,-64.3125,-2.28,1.51,13.2
1542387643750143051,607,0,/imu_data_acquisition2,41380.0,-0.00750732421875,-6.103515625e-05,-6.103515625e-05,0.707336425781,-52.125,470.3125,-65.3125,-3.43,1.56,10.35
1542387643760369062,608,0,/imu_data_acquisition2,41391.0,-0.242004394531,0.221435546875,0.632934570312,0.701232910156,-68.5,482.5,-69.875,-3.26,0.5,11.87
1542387643771403074,609,0,/imu_data_acquisition2,41402.0,-0.272155761719,0.244323730469,0.619201660156,0.694885253906,-60.875,472.3125,-80.125,-3.5,-0.82,11.16
1542387643780200004,610,0,/imu_data_acquisition2,41410.0,-0.298828125,0.266357421875,0.603210449219,0.689819335938,-12.75,-0.0625,-0.0625,-4.26,-2.69,9.83
1542387643790324926,611,0,/imu_data_acquisition2,41421.0,-0.321350097656,0.284729003906,0.586791992188,0.686584472656,-12.0625,379.0,-117.0625,-0.96,-2.44,-0.01
1542387643802103042,612,0,/imu_data_acquisition2,41432.0,-0.33349609375,0.295288085938,0.572692871094,0.688232421875,28.5625,219.0,-127.0,0.38,7.69,39.81
1542387643810213088,613,0,/imu_data_acquisition2,41440.0,-0.335083007812,0.296875,0.563842773438,0.694030761719,51.6875,37.5,-111.0,4.77,12.19,36.86
1542387643820331096,614,0,/imu_data_acquisition2,41451.0,-0.33154296875,0.290466308594,0.561706542969,0.700134277344,18.0625,-88.875,-70.6875,5.08,9.35,14.75
1542387643833858966,615,0,/imu_data_acquisition2,41464.0,-0.325622558594,0.27978515625,0.564514160156,0.705017089844,-12.8125,-155.6875,-31.375,5.31,7.88,5.9
1542387643840071916,616,0,/imu_data_acquisition2,41470.0,-0.319641113281,0.267639160156,0.570068359375,0.707946777344,-38.125,-172.5,-0.5625,4.98,6.49,1.32
1542387643850615024,617,0,/imu_data_acquisition2,41481.0,-0.314758300781,0.255432128906,-6.103515625e-05,0.708984375,-59.375,-164.8125,20.8125,3.77,3.16,1.53
1542387643862361907,618,0,/imu_data_acquisition2,41492.0,-0.310424804688,0.243835449219,0.584594726562,0.708801269531,-66.6875,-154.875,34.125,3.37,1.71,4.15
1542387643869714975,619,0,/imu_data_acquisition2,41500.0,-0.305236816406,0.232971191406,0.592041015625,0.708557128906,-53.9375,-153.0,39.3125,2.89,0.85,7.71
1542387643880871057,620,0,/imu_data_acquisition2,41511.0,-0.297973632812,0.222534179688,0.599182128906,0.709045410156,-30.3125,-166.0625,38.875,2.32,0.51,11.32
1542387643892004013,621,0,/imu_data_acquisition2,41522.0,-0.287658691406,0.211547851562,0.606262207031,0.710571289062,-4.625,-194.3125,36.8125,1.63,0.86,16.28
1542387643900324106,622,0,/imu_data_acquisition2,41531.0,-0.274230957031,0.19921875,0.61376953125,0.713012695312,14.5625,-232.125,37.3125,0.93,1.28,18.16
1542387643911189079,623,0,/imu_data_acquisition2,41542.0,-0.257690429688,0.1845703125,0.6220703125,0.715942382812,22.5625,-277.5,40.375,0.16,1.45,19.15
1542387643921333074,624,0,/imu_data_acquisition2,41551.0,-0.238525390625,0.166931152344,0.631225585938,0.718872070312,21.5,-325.5,44.25,-1.9,-0.54,18.6
1542387643931682109,625,0,/imu_data_acquisition2,41562.0,-0.0134887695312,-6.103515625e-05,-6.103515625e-05,0.721740722656,21.9375,-371.3125,45.5625,-2.75,-2.23,16.01
1542387643942214012,626,0,/imu_data_acquisition2,41572.0,-0.192260742188,0.124145507812,0.649963378906,0.724670410156,31.3125,-403.0,40.9375,-3.53,-3.66,12.88
1542387643950233936,627,0,/imu_data_acquisition2,41580.0,-0.166076660156,0.101745605469,0.657531738281,0.727783203125,48.25,-416.0625,28.625,-4.25,-7.49,2.13
1542387643966428041,628,0,/imu_data_acquisition2,41597.0,-0.139099121094,0.081298828125,0.66259765625,0.7314453125,74.125,-401.0,7.3125,-3.62,-9.37,-4.26
1542387643974410057,629,0,/imu_data_acquisition2,41605.0,-0.11328125,0.0654296875,0.664306640625,0.735961914062,104.8125,-347.0625,-21.9375,-3.0,-9.76,-5.0
1542387643979383945,630,0,/imu_data_acquisition2,41610.0,-0.0911865234375,0.0543823242188,0.662658691406,0.741333007812,114.375,-15.9375,-0.0625,-3.07,-9.17,1.25
1542387643991144895,631,0,/imu_data_acquisition2,41621.0,-0.0731201171875,0.0454711914062,0.658142089844,0.747924804688,98.8125,-219.8125,-89.0625,-2.38,-6.8,17.59
1542387644001981973,632,0,/imu_data_acquisition2,41631.0,-0.05712890625,0.0364990234375,0.651428222656,0.755676269531,81.9375,-202.25,-119.0625,-3.78,-5.75,26.72
1542387644009705066,633,0,/imu_data_acquisition2,41640.0,-0.0396118164062,0.0255737304688,0.643188476562,0.764221191406,81.5625,-231.1875,-139.5625,-4.93,-2.48,28.27
1542387644021155118,634,0,/imu_data_acquisition2,41652.0,-0.0205078125,0.0120849609375,0.634521484375,0.772521972656,76.625,-265.6875,-142.5,-6.64,4.78,18.15
1542387644033560991,635,0,/imu_data_acquisition2,41663.0,-0.00225830078125,-0.00238037109375,0.626708984375,0.779235839844,61.4375,-268.6875,-122.75,-7.87,7.16,17.69
1542387644039462089,636,0,/imu_data_acquisition2,41670.0,-0.00225830078125,-0.00238037109375,0.626708984375,0.779235839844,45.4375,-254.5625,-87.1875,-9.19,7.55,20.44
1542387644050942897,637,0,/imu_data_acquisition2,41681.0,0.0303344726562,-0.0310668945312,0.617431640625,0.785400390625,43.25,-251.5625,-45.5,-10.43,4.67,20.68
1542387644061904907,638,0,/imu_data_acquisition2,41691.0,0.0478515625,-0.04443359375,0.616577148438,0.784606933594,64.6875,-252.75,-3.75,-11.44,4.12,19.25
1542387644069783926,639,0,/imu_data_acquisition2,41700.0,0.0668334960938,-0.0563354492188,0.618286132812,0.781066894531,92.625,-250.125,38.125,-12.83,3.17,17.82
1542387644081043958,640,0,/imu_data_acquisition2,41712.0,0.08642578125,-0.06689453125,0.622314453125,0.775085449219,111.375,-241.6875,76.75,-14.73,1.34,14.89
1542387644093802928,641,0,/imu_data_acquisition2,41723.0,0.105163574219,-0.0765991210938,0.628051757812,0.767211914062,112.875,-227.5,105.375,-16.23,0.6,14.33
1542387644099798917,642,0,/imu_data_acquisition2,41731.0,0.122009277344,-0.0858154296875,0.634826660156,0.758117675781,102.1875,-209.0625,125.125,-17.84,-0.57,12.43
1542387644111515998,643,0,/imu_data_acquisition2,41742.0,0.13671875,-0.0944213867188,0.642333984375,0.748229980469,89.125,-187.0,139.75,-19.36,-1.83,12.35
1542387644120536088,644,0,/imu_data_acquisition2,41751.0,0.149597167969,-0.102600097656,0.650146484375,0.737854003906,77.3125,-169.1875,146.4375,-21.14,-4.6,8.28
1542387644131681919,645,0,/imu_data_acquisition2,41762.0,0.160949707031,-0.110168457031,0.65771484375,0.727600097656,68.3125,-152.8125,144.9375,-21.23,-6.6,3.27
1542387644142102003,646,0,/imu_data_acquisition2,41772.0,0.170349121094,-0.115783691406,0.664916992188,0.717956542969,64.9375,-120.6875,135.5,-21.45,-8.55,-1.44
1542387644150043964,647,0,/imu_data_acquisition2,41780.0,0.170349121094,-0.115783691406,0.664916992188,0.717956542969,62.125,-66.75,116.0,-20.45,-11.24,-10.95
1542387644160270929,648,0,/imu_data_acquisition2,41791.0,0.178344726562,-0.115356445312,0.677490234375,0.704223632812,54.5,14.125,86.6875,-22.55,-7.19,-17.01
1542387644171864986,649,0,/imu_data_acquisition2,41802.0,0.170166015625,-0.108581542969,0.683349609375,0.701599121094,-0.5,131.25,66.75,-11.13,-7.12,-9.29
1542387644180516004,650,0,/imu_data_acquisition2,41811.0,0.155517578125,-0.103149414062,0.68798828125,0.701293945312,-71.5625,172.6875,48.8125,8.74,-4.7,30.66
1542387644190315961,651,0,/imu_data_acquisition2,41821.0,0.155517578125,-0.103149414062,0.68798828125,0.701293945312,-67.4375,142.25,16.9375,1.51,-4.24,7.5
1542387644201447963,652,0,/imu_data_acquisition2,41832.0,0.14306640625,-0.098876953125,0.690185546875,0.702392578125,-68.8125,121.9375,-12.25,2.67,-1.77,-3.57
1542387644210053920,653,0,/imu_data_acquisition2,41840.0,0.116821289062,-0.0918579101562,0.690063476562,0.708374023438,-102.4375,156.875,-19.0,3.55,-1.52,8.08
1542387644220577955,654,0,/imu_data_acquisition2,41851.0,0.1015625,-0.086669921875,0.689819335938,0.711547851562,-90.4375,171.875,-18.75,-0.94,0.76,15.39
1542387644233407020,655,0,/imu_data_acquisition2,41864.0,0.089111328125,-0.0802612304688,0.689758300781,0.714050292969,-7.375,-0.0625,-0.0625,-0.75,2.58,14.47
1542387644240338087,656,0,/imu_data_acquisition2,41871.0,0.089111328125,-0.0802612304688,0.689758300781,0.714050292969,-35.25,140.9375,-3.75,-0.21,1.64,13.53
1542387644250849962,657,0,/imu_data_acquisition2,41881.0,0.0787963867188,-0.0737915039062,0.690307617188,0.715393066406,-29.8125,129.5,6.0,-0.06,-4.26,15.41
1542387644262271881,658,0,/imu_data_acquisition2,41892.0,0.0604248046875,-0.062255859375,0.692199707031,0.716491699219,-30.4375,121.0,6.5625,-0.88,-5.08,20.16
1542387644270565032,659,0,/imu_data_acquisition2,41901.0,0.0537719726562,-0.05712890625,0.692565917969,0.717041015625,-14.875,98.6875,-0.625,-1.66,-2.05,18.97
1542387644281164884,660,0,/imu_data_acquisition2,41912.0,0.0489501953125,-0.0537719726562,0.692687988281,0.717529296875,-13.4375,68.4375,-1.625,-0.96,1.65,18.45
1542387644291846036,661,0,/imu_data_acquisition2,41922.0,0.0489501953125,-0.0537719726562,0.692687988281,0.717529296875,-24.6875,42.375,7.25,0.72,-0.68,11.45
1542387644300412893,662,0,/imu_data_acquisition2,41931.0,0.044921875,-0.0526733398438,0.693176269531,0.717407226562,-23.75,27.6875,12.0625,1.58,-2.86,11.57
1542387644311659097,663,0,/imu_data_acquisition2,41942.0,0.0389404296875,-0.0521850585938,0.694580078125,0.716430664062,-21.5,25.6875,11.0,1.01,-1.62,11.54
1542387644321804046,664,0,/imu_data_acquisition2,41952.0,0.0389404296875,-0.0521850585938,0.694580078125,0.716430664062,-17.75,21.625,10.75,0.56,-0.53,12.34
1542387644332217931,665,0,/imu_data_acquisition2,41963.0,0.0349731445312,-0.0520629882812,0.69580078125,0.715454101562,-14.1875,11.75,10.0625,1.35,-0.99,10.82
1542387644342206001,666,0,/imu_data_acquisition2,41972.0,0.0349731445312,-0.0520629882812,0.69580078125,0.715454101562,-10.4375,7.75,7.625,1.19,-0.5,10.31
1542387644349895000,667,0,/imu_data_acquisition2,41981.0,0.0338745117188,-0.00537109375,-6.103515625e-05,0.715087890625,-7.8125,6.75,6.125,1.12,-0.18,10.92
1542387644362284898,668,0,/imu_data_acquisition2,41992.0,0.032958984375,-0.0523071289062,0.696594238281,0.714782714844,-5.875,2.5625,5.625,1.27,0.06,9.46
1542387644372472047,669,0,/imu_data_acquisition2,42002.0,0.0319213867188,-0.052734375,0.697265625,0.714172363281,-5.875,2.0625,5.3125,1.29,-0.02,10.4
1542387644381006956,670,0,/imu_data_acquisition2,42011.0,0.0319213867188,-0.005859375,-6.103515625e-05,0.714172363281,-5.5,1.3125,5.1875,1.43,-0.36,10.13
1542387644391957044,671,0,/imu_data_acquisition2,42022.0,0.031494140625,-0.0530395507812,0.697509765625,0.7138671875,-3.4375,0.0,4.0,1.2,-0.29,10.07
1542387644401813983,672,0,/imu_data_acquisition2,42032.0,0.03125,-0.00634765625,-6.103515625e-05,0.713684082031,-1.5625,0.25,3.375,1.1,-0.67,10.32
1542387644410566091,673,0,/imu_data_acquisition2,42041.0,0.0311279296875,-0.0533447265625,0.697937011719,0.713439941406,0.0625,-1.0625,2.875,1.42,-0.03,9.97
1542387644422010898,674,0,/imu_data_acquisition2,42052.0,0.0311889648438,-0.0534057617188,0.698120117188,0.713317871094,-0.125,-1.5625,2.625,1.44,-0.41,10.69
1542387644433593988,675,0,/imu_data_acquisition2,42064.0,0.0314331054688,-0.0535888671875,0.698425292969,0.713012695312,0.125,-1.375,2.3125,1.31,0.19,-0.01
1542387644439625978,676,0,/imu_data_acquisition2,42070.0,0.0314331054688,-0.0535888671875,0.698425292969,0.713012695312,0.125,-1.375,2.3125,1.51,0.07,10.21
1542387644451997995,677,0,/imu_data_acquisition2,42081.0,0.031494140625,-0.0537719726562,0.698547363281,0.712890625,-0.875,-1.625,2.0,1.18,0.0,10.21
1542387644463217973,678,0,/imu_data_acquisition2,42092.0,0.031494140625,-0.0540161132812,0.698608398438,0.712768554688,-2.8125,-1.9375,1.625,1.18,-0.38,9.92
1542387644470534086,679,0,/imu_data_acquisition2,42101.0,0.0314331054688,-0.0542602539062,0.69873046875,0.712646484375,-4.5625,-2.0,1.625,1.62,0.33,-0.01
1542387644482352972,680,0,/imu_data_acquisition2,42112.0,0.03125,-0.0546875,0.698791503906,0.712524414062,-4.8125,-2.1875,1.3125,1.34,-0.45,10.67
1542387644490900993,681,0,/imu_data_acquisition2,42121.0,0.0311279296875,-0.0551147460938,0.698852539062,0.712463378906,-4.8125,-2.1875,1.3125,1.39,0.22,9.53
1542387644502228975,682,0,/imu_data_acquisition2,42133.0,0.03076171875,-0.0559692382812,0.698913574219,0.712341308594,-6.5625,-1.625,1.25,1.28,-0.28,10.43
1542387644511861085,683,0,/imu_data_acquisition2,42142.0,0.03076171875,-0.0559692382812,0.698913574219,0.712341308594,-6.6875,-1.8125,1.3125,1.42,-0.37,10.28
1542387644521892070,684,0,/imu_data_acquisition2,42152.0,0.0304565429688,-0.0564575195312,0.698974609375,0.712280273438,-6.1875,-1.5,1.0,1.23,-0.2,9.66
1542387644531169891,685,0,/imu_data_acquisition2,42162.0,0.0298461914062,-0.057373046875,0.699035644531,0.712158203125,-6.0,-0.0625,-0.0625,0.94,-0.58,10.52
1542387644541476011,686,0,/imu_data_acquisition2,42172.0,0.0298461914062,-0.057373046875,0.699035644531,0.712158203125,-5.0625,-1.3125,0.875,1.48,-0.61,9.89
1542387644550359010,687,0,/imu_data_acquisition2,42181.0,0.0296020507812,-0.0577392578125,0.699035644531,0.712158203125,-5.0625,-1.3125,0.875,1.13,-0.45,9.98
1542387644560883045,688,0,/imu_data_acquisition2,42192.0,0.0294799804688,-0.0580444335938,0.699035644531,0.712158203125,-2.5,-0.875,0.4375,1.23,-0.53,10.25
1542387644571886062,689,0,/imu_data_acquisition2,42202.0,0.0293579101562,-0.0582275390625,0.699035644531,0.712158203125,-1.375,-1.4375,0.25,1.29,-0.27,9.63
1542387644581413030,690,0,/imu_data_acquisition2,42212.0,-6.103515625e-05,-6.103515625e-05,-6.103515625e-05,0.712158203125,-0.9375,-1.5,-0.0625,1.01,-0.27,10.02
1542387644590331077,691,0,/imu_data_acquisition2,42221.0,0.0294189453125,-0.0585327148438,0.698974609375,0.712097167969,-0.9375,-1.5,-0.0625,1.24,-0.14,9.84
1542387644601175069,692,0,/imu_data_acquisition2,42232.0,0.0294799804688,-0.0586547851562,0.698974609375,0.712097167969,-0.5625,-1.75,-0.125,1.14,-0.41,10.0
1542387644610637903,693,0,/imu_data_acquisition2,42241.0,0.029541015625,-0.0587768554688,0.698974609375,0.712097167969,-0.5625,-1.75,-0.125,1.23,-0.39,10.04
1542387644621047019,694,0,/imu_data_acquisition2,42252.0,0.0297241210938,-0.0588989257812,0.698974609375,0.712097167969,-0.625,-2.5625,-0.3125,1.06,-0.42,10.1
1542387644633562088,695,0,/imu_data_acquisition2,42264.0,0.0299682617188,-0.0592041015625,0.698974609375,0.712097167969,-0.3125,-2.625,-0.25,1.45,-0.53,9.98
1542387644640010118,696,0,/imu_data_acquisition2,42270.0,0.0299682617188,-0.0592041015625,0.698974609375,0.712097167969,-0.3125,-2.625,-0.25,1.45,-0.53,9.98
1542387644650769948,697,0,/imu_data_acquisition2,42281.0,0.0302124023438,-0.0593872070312,0.698974609375,0.712036132812,0.75,-3.5,-0.5625,1.11,-0.28,9.6
1542387644661035060,698,0,/imu_data_acquisition2,42291.0,0.0303344726562,-0.0595092773438,0.698974609375,0.712036132812,0.4375,-2.5625,-0.3125,1.04,-0.53,10.12
1542387644672214031,699,0,/imu_data_acquisition2,42303.0,0.0304565429688,-0.0596313476562,0.698913574219,0.712036132812,0.5625,-3.125,-0.4375,1.38,-0.33,9.69
1542387644683718919,700,0,/imu_data_acquisition2,42314.0,0.03076171875,-0.0599365234375,0.698913574219,0.712036132812,0.375,-2.8125,-0.375,0.94,-0.31,10.05
1542387644689302921,701,0,/imu_data_acquisition2,42320.0,0.03076171875,-0.0599365234375,0.698913574219,0.712036132812,0.375,-2.8125,-0.375,0.94,-0.31,10.05
1542387644701389074,702,0,/imu_data_acquisition2,42331.0,0.0309448242188,-0.06005859375,0.698913574219,0.712036132812,0.75,-2.5625,-0.6875,1.39,0.03,9.57
1542387644711525917,703,0,/imu_data_acquisition2,42342.0,0.0313720703125,-0.0601806640625,0.698791503906,0.712097167969,1.875,-3.6875,-1.125,1.27,-0.12,9.59
1542387644722467899,704,0,/imu_data_acquisition2,42352.0,0.0315551757812,-0.0601806640625,0.69873046875,0.712097167969,0.5,-1.4375,-1.0625,1.05,-0.08,9.61
1542387644733370065,705,0,/imu_data_acquisition2,42363.0,0.0316772460938,-0.0602416992188,0.698669433594,0.712158203125,0.3125,-1.0,-1.0625,1.22,-0.48,9.93
1542387644743293046,706,0,/imu_data_acquisition2,42373.0,0.03173828125,-0.060302734375,0.698608398438,0.712219238281,1.0,-0.9375,-1.0625,1.39,-0.45,9.77
1542387644750948905,707,0,/imu_data_acquisition2,42382.0,0.0318603515625,-0.060302734375,0.698547363281,0.712280273438,2.0,-0.6875,-1.25,1.24,-0.56,9.8
1542387644763607025,708,0,/imu_data_acquisition2,42393.0,0.0320434570312,-0.0602416992188,0.698486328125,0.712341308594,3.3125,-0.25,-1.4375,1.36,-0.56,9.41
1542387644773597955,709,0,/imu_data_acquisition2,42403.0,0.0322265625,-0.06005859375,0.698425292969,0.712463378906,5.0625,0.875,-1.75,1.25,-0.52,9.81
1542387644781563043,710,0,/imu_data_acquisition2,42412.0,0.0325317382812,-0.0596923828125,0.698364257812,0.712524414062,6.6875,1.4375,-2.4375,1.16,-0.33,9.67
1542387644792401075,711,0,/imu_data_acquisition2,42422.0,0.0328369140625,-0.0592041015625,0.6982421875,0.712646484375,6.6875,1.4375,-2.4375,1.17,-0.34,9.85
1542387644802617073,712,0,/imu_data_acquisition2,42432.0,0.033203125,-0.0585327148438,0.698120117188,0.712829589844,8.25,2.4375,-2.6875,1.28,-0.15,9.77
1542387644810621976,713,0,/imu_data_acquisition2,42441.0,0.0335693359375,-0.0578002929688,0.697998046875,0.712951660156,9.125,3.1875,-2.75,1.31,0.05,9.67
1542387644823164939,714,0,/imu_data_acquisition2,42453.0,0.0338745117188,-0.0570068359375,0.697875976562,0.713134765625,8.25,5.6875,-2.3125,1.79,0.09,9.65
1542387644834250926,715,0,/imu_data_acquisition2,42463.0,0.0340576171875,-0.05615234375,0.697814941406,0.713256835938,7.5625,8.25,-2.0,1.13,-0.05,10.15
1542387644840214967,716,0,/imu_data_acquisition2,42471.0,0.0340576171875,-0.0552368164062,0.69775390625,0.71337890625,7.5625,8.25,-2.0,1.13,-0.05,10.15
1542387644852365016,717,0,/imu_data_acquisition2,42483.0,0.0338134765625,-0.05419921875,0.697692871094,0.713562011719,4.75,12.5,-1.625,0.65,2.06,8.22
1542387644862405061,718,0,/imu_data_acquisition2,42493.0,0.0333862304688,-0.0531616210938,0.697631835938,0.713684082031,5.3125,15.125,-1.3125,1.4,-1.53,10.75
1542387644871546983,719,0,/imu_data_acquisition2,42502.0,0.0328369140625,-0.0519409179688,0.697631835938,0.713806152344,3.0,19.0,-1.25,2.63,-0.44,9.16
1542387644886306047,720,0,/imu_data_acquisition2,42517.0,0.0318603515625,-0.0505981445312,0.697631835938,0.713928222656,3.9375,21.5625,-2.75,1.95,0.04,9.11
1542387644892525911,721,0,/imu_data_acquisition2,42522.0,0.0308837890625,-0.049072265625,0.697509765625,0.714172363281,3.9375,21.5625,-0.0625,1.8,-0.83,8.7
1542387644902825117,722,0,/imu_data_acquisition2,42533.0,0.027587890625,-0.0449829101562,0.697204589844,0.714965820312,2.8125,35.125,-5.4375,2.12,-1.07,9.98
1542387644913600921,723,0,/imu_data_acquisition2,42543.0,0.027587890625,-0.0449829101562,0.697204589844,0.714965820312,5.875,44.4375,-8.0625,2.5,-1.12,8.35
1542387644923307895,724,0,/imu_data_acquisition2,42553.0,0.025390625,-0.0419311523438,0.69677734375,0.715576171875,5.875,44.4375,-8.0625,3.31,-1.59,8.27
1542387644933233976,725,0,/imu_data_acquisition2,42563.0,0.0226440429688,-0.0380859375,0.6962890625,0.716369628906,11.25,71.0,-16.375,2.27,1.13,8.7
1542387644941323995,726,0,/imu_data_acquisition2,42572.0,0.0191650390625,-0.0331420898438,0.695434570312,0.717529296875,11.25,71.0,-16.375,2.97,-1.14,8.71
1542387644949996948,727,0,/imu_data_acquisition2,42581.0,0.0149536132812,-0.0266723632812,0.694763183594,0.718566894531,16.8125,89.75,-13.875,2.97,-1.14,8.71
1542387644963109016,728,0,/imu_data_acquisition2,42594.0,0.0104370117188,-0.018798828125,0.69384765625,0.719787597656,29.875,124.0625,-20.125,2.01,-1.68,8.52
1542387644975578069,729,0,/imu_data_acquisition2,42605.0,0.0050048828125,-0.00946044921875,0.692749023438,0.721069335938,32.1875,146.6875,-20.4375,2.28,2.94,8.63
1542387644983421087,730,0,/imu_data_acquisition2,42613.0,-0.0015869140625,0.00140380859375,0.691528320312,0.722351074219,24.9375,168.1875,-0.0625,1.0,3.02,9.7
1542387644992641925,731,0,/imu_data_acquisition2,42623.0,-0.0098876953125,0.0131225585938,0.690368652344,0.723266601562,22.6875,180.125,-20.375,1.62,0.7,9.62
1542387645001888036,732,0,/imu_data_acquisition2,42631.0,-0.01904296875,0.025390625,0.688842773438,0.724182128906,22.6875,180.125,-20.375,1.62,0.7,9.62
1542387645014167070,733,0,/imu_data_acquisition2,42643.0,-0.0299072265625,0.0382080078125,0.687438964844,0.724609375,3.625,215.5625,-21.8125,0.4,1.33,9.84
1542387645022629976,734,0,/imu_data_acquisition2,42653.0,-0.0422973632812,0.0515747070312,0.685424804688,0.72509765625,-11.4375,219.25,-28.375,0.67,1.33,12.11
1542387645032975912,735,0,/imu_data_acquisition2,42663.0,-0.0557861328125,0.064208984375,0.682861328125,0.7255859375,-11.4375,219.25,-28.375,0.95,-0.11,12.93
1542387645042968034,736,0,/imu_data_acquisition2,42672.0,-0.070068359375,0.0773315429688,0.6796875,0.72607421875,-14.1875,229.9375,-33.1875,-0.2,-1.18,15.6
1542387645051343917,737,0,/imu_data_acquisition2,42682.0,-0.0856323242188,0.0927124023438,0.675842285156,0.726196289062,-6.0625,260.75,-35.4375,-0.2,-1.18,15.6
1542387645063517093,738,0,/imu_data_acquisition2,42693.0,-0.103454589844,0.109191894531,0.671081542969,0.725952148438,-16.3125,288.6875,-42.125,-0.16,1.32,14.46
1542387645077253103,739,0,/imu_data_acquisition2,42706.0,-0.149780273438,0.149963378906,0.656616210938,0.723815917969,-35.0625,396.5,-63.625,-1.18,1.71,15.69
1542387645083003997,740,0,/imu_data_acquisition2,42714.0,-0.149780273438,0.149963378906,0.656616210938,0.723815917969,-44.9375,439.25,-60.8125,-2.95,3.09,9.09
1542387645093518018,741,0,/imu_data_acquisition2,42722.0,-0.177551269531,0.173400878906,0.6474609375,0.720520019531,-44.9375,439.25,-60.8125,-2.95,3.09,9.09
1542387645107407093,742,0,/imu_data_acquisition2,42736.0,-0.238891601562,0.219665527344,0.626098632812,0.709045410156,-82.625,470.8125,-64.5,-3.83,-0.21,12.01
1542387645112962007,743,0,/imu_data_acquisition2,42743.0,-0.238891601562,0.219665527344,0.626098632812,0.709045410156,-82.625,470.8125,-64.5,0.21,-0.27,13.93
1542387645123682975,744,0,/imu_data_acquisition2,42753.0,-0.267822265625,0.241271972656,0.613220214844,0.702819824219,-66.625,448.5625,-76.125,-0.4,0.0,39.36
1542387645137181043,745,0,/imu_data_acquisition2,42767.0,-0.292053222656,0.261108398438,0.598449707031,0.698852539062,-25.1875,310.3125,-104.625,1.1,6.75,39.64
1542387645143584966,746,0,/imu_data_acquisition2,42773.0,-0.311462402344,0.275451660156,0.5849609375,0.696411132812,-25.1875,310.3125,-104.625,1.1,6.75,39.64
1542387645151292085,747,0,/imu_data_acquisition2,42780.0,-0.321411132812,0.282897949219,0.574523925781,0.697570800781,7.5,164.8125,-0.0625,4.67,10.18,27.54
1542387645166403055,748,0,/imu_data_acquisition2,42796.0,-0.325561523438,0.283020019531,0.569396972656,0.699768066406,-31.6875,-52.0625,-37.4375,5.1,6.89,14.96
1542387645173484086,749,0,/imu_data_acquisition2,42803.0,-0.325866699219,0.277404785156,0.5693359375,0.701965332031,-31.6875,-52.0625,-37.4375,4.56,4.51,-0.01
1542387645184386968,750,0,/imu_data_acquisition2,42814.0,-0.323181152344,0.2685546875,0.572814941406,0.703796386719,-45.6875,-141.6875,11.875,4.18,3.44,4.73
1542387645191833972,751,0,/imu_data_acquisition2,42822.0,-0.318786621094,0.258178710938,0.578430175781,0.705078125,-45.6875,-141.6875,11.875,4.18,3.44,4.73
1542387645199634075,752,0,/imu_data_acquisition2,42830.0,-0.313354492188,0.247314453125,0.585021972656,0.705932617188,-46.4375,-155.75,25.0,3.87,2.12,4.5
1542387645209630966,753,0,/imu_data_acquisition2,42840.0,-0.307250976562,0.236328125,0.591979980469,0.706604003906,-42.875,-161.5,30.75,3.44,1.09,5.53
1542387645223459005,754,0,/imu_data_acquisition2,42853.0,-0.299926757812,0.225769042969,0.5986328125,0.707580566406,-28.0625,-166.875,30.4375,1.48,1.36,14.18
1542387645236000061,755,0,/imu_data_acquisition2,42865.0,-0.290710449219,0.215515136719,0.604797363281,0.709411621094,16.0,-201.25,26.3125,0.69,2.22,17.48
1542387645242676973,756,0,/imu_data_acquisition2,42873.0,-0.278930664062,0.204895019531,0.610961914062,0.711975097656,16.0,-201.25,26.3125,0.69,2.22,17.48
1542387645254676103,757,0,/imu_data_acquisition2,42884.0,-0.264343261719,0.192504882812,0.617797851562,0.715148925781,27.125,-239.8125,29.4375,-1.04,2.96,20.33
1542387645266709089,758,0,/imu_data_acquisition2,42897.0,-0.2470703125,0.17724609375,0.625854492188,0.718200683594,18.375,-339.4375,46.875,-2.61,0.86,15.69
1542387645273603916,759,0,/imu_data_acquisition2,42904.0,-0.227172851562,0.158508300781,0.63525390625,0.720886230469,18.375,-339.4375,46.875,-3.92,-3.55,8.97
1542387645286545991,760,0,/imu_data_acquisition2,42916.0,-0.205139160156,0.13720703125,0.645263671875,0.723022460938,25.3125,-398.875,52.5,-3.86,-5.12,3.33
1542387645294845104,761,0,/imu_data_acquisition2,42923.0,-0.181091308594,0.115051269531,0.654724121094,0.724792480469,25.3125,-398.875,52.5,-3.86,-5.12,3.33
1542387645301059961,762,0,/imu_data_acquisition2,42932.0,-0.155944824219,0.0970458984375,0.660400390625,0.728088378906,75.75,-367.0,18.8125,-3.45,-7.29,-1.56
1542387645315622091,763,0,/imu_data_acquisition2,42946.0,-0.00555419921875,-6.103515625e-05,-6.103515625e-05,0.730712890625,75.75,-367.0,18.8125,-2.06,-7.65,5.55
1542387645328114986,764,0,/imu_data_acquisition2,42956.0,-0.107116699219,0.0655517578125,0.667358398438,0.734069824219,100.8125,-306.4375,-8.4375,-1.43,-6.98,12.9
1542387645333630084,765,0,/imu_data_acquisition2,42964.0,-0.090087890625,0.0569458007812,-6.103515625e-05,0.73974609375,89.8125,-210.1875,-69.0625,-2.25,-7.71,21.92
1542387645344142913,766,0,/imu_data_acquisition2,42973.0,-0.0737915039062,0.0477294921875,0.659301757812,0.746704101562,81.0,-208.25,-97.8125,-2.25,-7.71,21.92
1542387645351314067,767,0,/imu_data_acquisition2,42981.0,-0.0554809570312,0.03662109375,0.652709960938,0.754699707031,86.25,-239.625,-119.625,-4.5,-3.37,25.26
1542387645363531112,768,0,/imu_data_acquisition2,42994.0,-0.0360717773438,0.0236206054688,0.645324707031,0.7626953125,81.5,-264.8125,-128.4375,-5.2,-2.27,21.02
1542387645375675916,769,0,/imu_data_acquisition2,43006.0,-0.0170288085938,0.010498046875,0.637817382812,0.769958496094,72.375,-247.625,-105.375,-7.65,4.99,18.53
1542387645386085987,770,0,/imu_data_acquisition2,43016.0,0.00091552734375,-0.0018310546875,0.631042480469,0.775756835938,72.375,-247.625,-105.375,-8.16,6.25,18.62
1542387645391149997,771,0,/imu_data_acquisition2,43022.0,0.01806640625,-0.0137939453125,0.626098632812,0.779418945312,68.625,-237.6875,-73.5625,-8.16,6.25,18.62
1542387645403892993,772,0,/imu_data_acquisition2,43033.0,0.0348510742188,-0.0249633789062,0.623596191406,0.780578613281,71.5625,-228.0,-32.0,-8.75,6.69,17.81
1542387645411545991,773,0,/imu_data_acquisition2,43042.0,0.0516967773438,-0.0347290039062,0.623779296875,0.779113769531,83.6875,-214.875,11.4375,-9.57,6.2,-0.01
1542387645423907041,774,0,/imu_data_acquisition2,43055.0,0.0685424804688,-0.0429077148438,0.626342773438,0.775329589844,98.5625,-199.6875,50.0625,-13.92,3.14,17.66
1542387645436249971,775,0,/imu_data_acquisition2,43066.0,0.0851440429688,-0.050048828125,0.630798339844,0.769653320312,106.5625,-188.1875,80.1875,-15.23,1.94,17.23
1542387645440777063,776,0,/imu_data_acquisition2,43071.0,0.1015625,-0.0567016601562,0.636535644531,0.762451171875,110.0625,-181.75,102.9375,-15.23,1.94,17.23
1542387645452022075,777,0,/imu_data_acquisition2,43082.0,0.117553710938,-0.06298828125,0.643188476562,0.753967285156,112.0,-175.0625,121.1875,-17.88,-0.71,14.24
1542387645466578006,778,0,/imu_data_acquisition2,43097.0,0.13330078125,-0.0687866210938,0.650634765625,0.744445800781,119.1875,-162.3125,141.5625,-21.49,-4.83,11.02
1542387645475718021,779,0,/imu_data_acquisition2,43106.0,0.148864746094,-0.073974609375,0.658264160156,0.734191894531,119.1875,-0.0625,-0.0625,-23.83,-7.76,4.44
1542387645484910964,780,0,/imu_data_acquisition2,43116.0,0.164123535156,-0.0782470703125,0.665710449219,0.723693847656,123.125,-127.125,133.0625,-23.18,-9.22,-1.47
1542387645493704080,781,0,/imu_data_acquisition2,43123.0,0.177917480469,-0.0809326171875,0.672790527344,0.713562011719,123.125,-127.125,133.0625,-23.18,-9.22,-1.47
1542387645501713991,782,0,/imu_data_acquisition2,43132.0,0.18701171875,-0.0806884765625,0.679443359375,0.704895019531,103.75,-65.0625,116.4375,-21.29,-9.71,-10.72
1542387645514012098,783,0,/imu_data_acquisition2,43145.0,0.187377929688,-0.0133666992188,-6.103515625e-05,0.699401855469,59.5,-0.0625,-0.0625,7.37,-2.44,3.95
1542387645524852991,784,0,/imu_data_acquisition2,43155.0,0.175476074219,-6.103515625e-05,-6.103515625e-05,0.698181152344,-15.125,-0.0625,-0.0625,14.53,0.16,28.29
1542387645535221099,785,0,/imu_data_acquisition2,43165.0,0.158508300781,-0.06103515625,0.694152832031,0.699462890625,-95.4375,191.75,18.0625,3.09,-4.17,23.82
1542387645543401956,786,0,/imu_data_acquisition2,43174.0,0.14208984375,-0.0579223632812,0.694580078125,0.702819824219,-116.1875,164.3125,-17.75,3.09,-4.17,23.82
1542387645551745891,787,0,/imu_data_acquisition2,43181.0,0.12451171875,-0.0571899414062,0.693115234375,0.707702636719,-149.625,151.625,-41.875,1.86,-0.96,7.06
1542387645564541101,788,0,/imu_data_acquisition2,43195.0,0.104797363281,-0.056884765625,0.69091796875,0.713073730469,-171.9375,164.8125,-49.375,-0.71,-0.01,-0.01
1542387645574646949,789,0,/imu_data_acquisition2,43206.0,0.0874633789062,-0.0557250976562,0.68896484375,0.717346191406,-119.1875,137.75,-15.75,0.11,7.67,10.32
1542387645584182024,790,0,/imu_data_acquisition2,43215.0,0.0723266601562,-0.05419921875,0.688415527344,0.719665527344,-119.1875,137.75,-15.75,0.11,7.67,10.32
1542387645591212987,791,0,/imu_data_acquisition2,43222.0,0.0586547851562,-0.0512084960938,0.689758300781,0.719787597656,-91.25,137.6875,16.9375,0.23,3.52,11.31
1542387645603293895,792,0,/imu_data_acquisition2,43233.0,0.0463256835938,-0.0467529296875,0.692199707031,0.718688964844,-66.125,140.0,34.0,0.26,-4.66,11.7
1542387645611874103,793,0,/imu_data_acquisition2,43241.0,0.0357666015625,-0.0422973632812,0.693664550781,0.718139648438,-52.5625,124.3125,20.5625,-1.81,-12.71,22.93
1542387645624973058,794,0,/imu_data_acquisition2,43255.0,0.0291748046875,-0.0392456054688,0.693725585938,0.718627929688,-31.0,81.0625,-1.75,-1.71,6.0,20.36
1542387645634933948,795,0,/imu_data_acquisition2,43266.0,0.023681640625,-0.038330078125,0.693969726562,0.718627929688,-39.375,52.6875,4.375,0.17,2.82,12.01
1542387645640396118,796,0,/imu_data_acquisition2,43271.0,0.01904296875,-0.0386962890625,0.695068359375,0.717651367188,-41.5,34.5625,19.0625,0.17,2.82,12.01
1542387645651726961,797,0,/imu_data_acquisition2,43283.0,0.0147094726562,-0.0391235351562,0.696105957031,0.716735839844,-39.4375,32.375,19.0,0.84,-4.61,13.57
1542387645666546106,798,0,/imu_data_acquisition2,43297.0,0.0116577148438,-0.0394287109375,0.696899414062,0.716003417969,-19.0,11.5625,13.25,0.68,-0.32,11.67
1542387645686249017,800,0,/imu_data_acquisition2,43316.0,0.0084228515625,-0.040283203125,0.698303222656,0.714599609375,-8.9375,2.6875,8.5,0.79,-0.31,10.48
1542387645695051908,801,0,/imu_data_acquisition2,43322.0,0.0076904296875,-0.0406494140625,0.698791503906,0.714111328125,-8.9375,2.6875,8.5,0.79,-0.31,10.48
1542387645699733018,802,0,/imu_data_acquisition2,43330.0,0.00732421875,-0.041015625,0.699157714844,0.713745117188,-5.9375,0.3125,6.375,1.06,-0.04,10.87
1542387645711792945,803,0,/imu_data_acquisition2,43342.0,0.007080078125,-0.0413818359375,0.699401855469,0.713439941406,-4.5,-1.0,4.6875,1.48,0.02,9.84
1542387645724385976,804,0,/imu_data_acquisition2,43354.0,0.0068359375,-0.0415649414062,0.699584960938,0.713317871094,-3.5625,-0.4375,2.9375,1.23,-0.1,9.93
1542387645738225936,805,0,/imu_data_acquisition2,43365.0,0.0067138671875,-0.0418090820312,0.69970703125,0.713195800781,-2.625,-1.125,1.875,1.47,-0.4,9.73
1542387645744100093,806,0,/imu_data_acquisition2,43373.0,0.0067138671875,-0.0420532226562,0.699768066406,0.713134765625,-2.0625,-1.9375,1.0625,1.47,-0.4,9.73
1542387645751235961,807,0,/imu_data_acquisition2,43381.0,0.00665283203125,-0.0423583984375,0.699768066406,0.713073730469,-3.125,-2.0,0.875,1.25,-0.35,9.82
1542387645760277986,808,0,/imu_data_acquisition2,43391.0,0.00653076171875,-0.042724609375,0.699829101562,0.713012695312,-3.9375,-1.9375,0.6875,1.28,-0.2,10.04
1542387645773215055,809,0,/imu_data_acquisition2,43403.0,0.00634765625,-0.0430908203125,0.699829101562,0.713012695312,-4.5625,-2.125,0.5625,1.43,0.03,9.84
1542387645783274888,810,0,/imu_data_acquisition2,43414.0,0.00616455078125,-0.04345703125,0.699768066406,0.713012695312,-4.8125,-1.4375,0.5,1.27,-0.47,10.12
1542387645791346073,811,0,/imu_data_acquisition2,43421.0,0.00604248046875,-0.0438232421875,0.699768066406,0.713012695312,-4.0,-1.4375,0.0625,1.46,-0.49,10.18
1542387645799295902,812,0,/imu_data_acquisition2,43430.0,0.00634765625,-0.0443725585938,0.69970703125,0.713012695312,-3.1875,-1.1875,-0.25,1.27,-0.46,10.04
1542387645811659097,813,0,/imu_data_acquisition2,43441.0,0.00628662109375,-0.0446166992188,0.69970703125,0.713012695312,-2.4375,-1.4375,-0.5,1.1,-0.37,10.1
1542387645823522090,814,0,/imu_data_acquisition2,43453.0,0.0062255859375,-0.0448608398438,0.69970703125,0.713012695312,-2.5,-1.5,-0.125,1.25,-0.99,10.41
1542387645835860967,815,0,/imu_data_acquisition2,43465.0,0.00628662109375,-0.0451049804688,0.69970703125,0.712951660156,-1.4375,-2.8125,-0.5,1.59,0.19,9.78
1542387645842808961,816,0,/imu_data_acquisition2,43473.0,0.00628662109375,-0.0453491210938,0.69970703125,0.712951660156,-1.875,-1.9375,-0.25,1.33,-0.37,10.19
1542387645851815938,817,0,/imu_data_acquisition2,43481.0,0.0068359375,-0.0457153320312,0.699645996094,0.712951660156,-1.5625,-2.625,-0.5625,1.02,-0.24,10.01
1542387645860415935,818,0,/imu_data_acquisition2,43491.0,0.0068359375,-0.0459594726562,0.699645996094,0.713012695312,-1.9375,-2.25,-0.625,1.3,-0.27,10.05
1542387645872576951,819,0,/imu_data_acquisition2,43502.0,0.0068359375,-0.0462036132812,0.699584960938,0.713012695312,-2.1875,-2.125,-0.3125,1.62,-0.36,10.06
1542387645882460117,820,0,/imu_data_acquisition2,43512.0,0.0068359375,-0.0152587890625,-6.103515625e-05,0.713012695312,-2.25,-2.25,-0.4375,1.04,-0.35,10.25
1542387645891817092,821,0,/imu_data_acquisition2,43522.0,0.00738525390625,-0.0470581054688,0.699584960938,0.712951660156,-2.125,-2.4375,-0.4375,1.5,-0.42,9.67
1542387645900192022,822,0,/imu_data_acquisition2,43530.0,0.0079345703125,-0.047607421875,0.699523925781,0.712951660156,-1.375,-1.625,-0.25,1.46,-0.41,9.82
1542387645911218881,823,0,/imu_data_acquisition2,43541.0,0.00830078125,-0.0479125976562,0.699523925781,0.712951660156,-0.75,-0.625,-0.4375,1.18,-0.5,9.83
1542387645922419071,824,0,/imu_data_acquisition2,43553.0,0.008544921875,-0.048095703125,0.699462890625,0.712951660156,-0.0625,0.0,-0.3125,1.19,-0.46,9.97
1542387645932380914,825,0,/imu_data_acquisition2,43562.0,0.0089111328125,-0.0482788085938,0.699462890625,0.712951660156,0.375,0.0625,-0.25,1.29,-0.35,9.78
1542387645941945075,826,0,/imu_data_acquisition2,43571.0,0.0091552734375,-0.04833984375,0.699462890625,0.712951660156,0.625,0.25,-0.0625,1.05,-0.47,9.94
1542387645950958013,827,0,/imu_data_acquisition2,43581.0,0.00958251953125,-0.0485229492188,0.699462890625,0.712951660156,0.8125,-0.1875,-0.4375,1.47,-0.26,9.8
1542387645959742069,828,0,/imu_data_acquisition2,43590.0,0.00994873046875,-0.048583984375,0.699401855469,0.712951660156,1.1875,-0.3125,-0.5625,1.13,-0.37,9.72
1542387645972382068,829,0,/imu_data_acquisition2,43602.0,0.01025390625,-0.048583984375,0.699401855469,0.713012695312,1.5625,-0.3125,-0.6875,1.1,-0.48,10.03
1542387645982364892,830,0,/imu_data_acquisition2,43611.0,0.010498046875,-0.0485229492188,0.699340820312,0.713073730469,1.8125,-0.375,-0.75,1.07,-0.42,10.03
1542387645990272045,831,0,/imu_data_acquisition2,43621.0,0.0108032226562,-6.103515625e-05,-6.103515625e-05,0.713134765625,1.9375,-0.5625,-0.6875,1.17,-0.34,9.87
1542387646001799106,832,0,/imu_data_acquisition2,43632.0,0.0112915039062,-0.048583984375,0.69921875,0.713134765625,2.125,-0.9375,-0.875,1.5,-0.39,9.86
1542387646011812925,833,0,/imu_data_acquisition2,43641.0,0.0118408203125,-0.0487670898438,0.699157714844,0.713195800781,1.875,-0.125,-1.125,1.52,-0.37,9.84
1542387646020467042,834,0,/imu_data_acquisition2,43651.0,0.0123291015625,-0.048828125,0.699035644531,0.713317871094,2.0,-0.3125,-1.375,1.23,-0.34,9.58
1542387646036741018,835,0,/imu_data_acquisition2,43666.0,0.0126342773438,-0.048828125,0.698974609375,0.71337890625,1.5,0.4375,-1.4375,1.08,-0.38,10.08
1542387646044338941,836,0,/imu_data_acquisition2,43673.0,0.012939453125,-0.0488891601562,0.698852539062,0.713500976562,1.4375,-0.125,-1.6875,1.26,-0.37,9.85
1542387646050499916,837,0,/imu_data_acquisition2,43680.0,0.0133056640625,-6.103515625e-05,-6.103515625e-05,0.713623046875,1.5625,0.6875,-2.0,1.41,-0.33,9.7
1542387646061609983,838,0,/imu_data_acquisition2,43691.0,0.013427734375,-0.0487670898438,0.698608398438,0.713745117188,1.6875,1.9375,-2.1875,1.1,-0.45,10.01
1542387646072841882,839,0,/imu_data_acquisition2,43702.0,0.0135498046875,-0.048583984375,0.698486328125,0.7138671875,1.875,2.125,-2.125,1.02,-0.46,9.93
1542387646084984064,840,0,/imu_data_acquisition2,43713.0,0.0136108398438,-6.103515625e-05,-6.103515625e-05,0.713989257812,2.5625,2.25,-2.0625,1.23,-0.53,10.0
1542387646092519044,841,0,/imu_data_acquisition2,43722.0,0.0137329101562,-0.0480346679688,0.6982421875,0.714111328125,3.5,2.5,-1.8125,0.96,-0.49,9.98
1542387646100881099,842,0,/imu_data_acquisition2,43731.0,0.013916015625,-0.0477294921875,0.698181152344,0.714233398438,4.4375,2.625,-1.6875,1.21,-0.51,10.0
1542387646114811897,843,0,/imu_data_acquisition2,43745.0,0.0140991210938,-0.0472412109375,0.698059082031,0.714294433594,5.5,3.1875,-1.6875,1.05,-0.57,10.0
1542387646122807979,844,0,/imu_data_acquisition2,43752.0,0.014404296875,-0.0467529296875,0.697998046875,0.714416503906,6.875,3.25,-2.0,1.19,-0.48,9.59
1542387646136171102,845,0,/imu_data_acquisition2,43767.0,0.0147094726562,-0.0462036132812,0.697875976562,0.714538574219,7.5625,3.9375,-1.9375,1.19,-0.47,9.92
1542387646141293048,846,0,/imu_data_acquisition2,43771.0,0.0150146484375,-0.0454711914062,0.697814941406,0.714721679688,8.25,4.75,-2.25,1.09,-0.26,10.0
1542387646151932001,847,0,/imu_data_acquisition2,43782.0,0.0155029296875,-0.0447998046875,0.697692871094,0.71484375,8.5625,5.1875,-2.3125,1.39,-0.15,9.63
1542387646162117958,848,0,/imu_data_acquisition2,43792.0,0.0158081054688,-0.0440063476562,0.697570800781,0.715026855469,8.5,6.5,-2.4375,1.08,-0.26,9.88
1542387646172508001,849,0,/imu_data_acquisition2,43800.0,0.015869140625,-0.0430908203125,0.697448730469,0.715148925781,8.3125,7.5,-2.4375,0.99,-0.11,9.81
1542387646181818962,850,0,/imu_data_acquisition2,43811.0,0.0159301757812,-0.0421142578125,0.697326660156,0.71533203125,8.1875,8.0,-2.4375,1.42,-0.01,9.57
1542387646191734075,851,0,/imu_data_acquisition2,43822.0,0.0158081054688,-0.041015625,0.697265625,0.715515136719,7.75,10.25,-2.3125,1.19,-0.09,10.02
1542387646202841997,852,0,/imu_data_acquisition2,43832.0,0.0155029296875,-0.0398559570312,0.697143554688,0.715637207031,7.5,12.1875,-2.125,1.73,0.41,9.26
1542387646212970972,853,0,/imu_data_acquisition2,43842.0,0.0150756835938,-0.0385131835938,0.697082519531,0.7158203125,7.0625,15.0625,-2.25,1.83,0.24,9.23
1542387646220443010,854,0,/imu_data_acquisition2,43851.0,0.014404296875,-0.0369873046875,0.696960449219,0.716003417969,6.8125,18.625,-2.6875,-0.18,0.57,8.65
1542387646232810974,855,0,/imu_data_acquisition2,43862.0,0.0133056640625,-0.0350341796875,0.696838378906,0.716247558594,6.5,25.625,-2.375,2.3,0.4,9.65
1542387646245210886,856,0,/imu_data_acquisition2,43872.0,0.0118408203125,-0.03271484375,0.696655273438,0.716552734375,6.125,31.5,-4.0,1.48,-0.34,11.59
1542387646249870061,857,0,/imu_data_acquisition2,43881.0,0.0101318359375,-0.0145874023438,-6.103515625e-05,0.716979980469,6.3125,35.6875,-6.0,2.22,-0.18,7.89
1542387646261848926,858,0,/imu_data_acquisition2,43891.0,0.00787353515625,-0.0271606445312,0.695861816406,0.717590332031,5.5,44.6875,-8.125,1.63,-1.01,9.7
1542387646273324012,859,0,/imu_data_acquisition2,43901.0,0.005126953125,-0.0233764648438,0.695190429688,0.718444824219,8.0625,54.5625,-12.1875,2.62,0.41,8.53
1542387646280314922,860,0,/imu_data_acquisition2,43911.0,0.00201416015625,-0.018798828125,0.694458007812,0.71923828125,10.5,64.75,-12.375,2.6,-1.42,8.46
1542387646292370080,861,0,/imu_data_acquisition2,43921.0,-0.0018310546875,-0.012939453125,0.693786621094,0.720092773438,15.5,81.6875,-12.0,1.15,-1.17,9.43
1542387646303036928,862,0,/imu_data_acquisition2,43931.0,-0.006103515625,-0.0057373046875,0.692687988281,0.72119140625,22.625,96.8125,-17.75,1.69,-0.4,10.22
1542387646310028076,863,0,/imu_data_acquisition2,43940.0,-0.0110473632812,0.00238037109375,0.691589355469,0.72216796875,24.125,110.125,-16.375,2.22,-1.38,8.94
1542387646322014093,864,0,/imu_data_acquisition2,43951.0,-0.0169067382812,0.0117797851562,0.690307617188,0.723205566406,27.0,128.5,-18.125,0.77,0.97,10.19
1542387646332732915,865,0,/imu_data_acquisition2,43961.0,-0.0237426757812,0.0217895507812,0.689147949219,0.723937988281,23.4375,141.3125,-14.8125,0.71,-0.06,9.27
1542387646340010881,866,0,/imu_data_acquisition2,43970.0,-0.03173828125,0.0325317382812,0.687866210938,0.724426269531,19.5,157.875,-14.125,2.04,1.41,8.83
1542387646351712942,867,0,/imu_data_acquisition2,43981.0,-0.04150390625,0.043701171875,0.686828613281,0.724304199219,7.75,-0.0625,-0.0625,0.84,-0.1,9.71
1542387646361310005,868,0,/imu_data_acquisition2,43991.0,-0.0524291992188,0.0554809570312,0.685424804688,0.72412109375,3.125,190.4375,-10.6875,-0.21,1.44,9.79
1542387646370028972,869,0,/imu_data_acquisition2,44000.0,-0.0643310546875,0.0669555664062,0.683654785156,0.723876953125,-8.5,196.3125,-13.1875,0.15,1.46,9.84
1542387646383666038,870,0,/imu_data_acquisition2,44014.0,-0.0770874023438,0.0781860351562,0.681518554688,0.723510742188,-16.3125,201.375,-17.375,0.41,0.81,11.88
1542387646390954971,871,0,/imu_data_acquisition2,44020.0,-0.0902099609375,0.0907592773438,0.679016113281,0.722900390625,-9.5,216.6875,-0.0625,0.88,0.13,11.86
1542387646400571107,872,0,/imu_data_acquisition2,44031.0,-0.104736328125,0.104675292969,0.675476074219,0.722351074219,-9.0625,240.125,-26.0625,-0.89,2.23,10.14
1542387646412398099,873,0,/imu_data_acquisition2,44041.0,-0.1220703125,0.119262695312,0.670837402344,0.7216796875,-26.875,270.0625,-37.5625,-0.64,-0.53,13.44
1542387646421716928,874,0,/imu_data_acquisition2,44051.0,-0.142578125,0.136108398438,0.664306640625,0.721008300781,-33.0625,316.875,-55.6875,-0.4,0.75,11.82
1542387646432133913,875,0,/imu_data_acquisition2,44062.0,-0.166442871094,0.156127929688,0.656066894531,0.719360351562,-35.625,375.5625,-61.8125,0.04,0.71,14.54
1542387646439796924,876,0,/imu_data_acquisition2,44070.0,-0.19384765625,0.17919921875,0.646240234375,0.716003417969,-43.3125,435.375,-14.75,-3.19,2.3,10.67
1542387646451833009,877,0,/imu_data_acquisition2,44081.0,-0.223937988281,0.202880859375,0.635314941406,0.710693359375,-63.0,467.5,-61.4375,-3.29,1.82,9.91
1542387646462693929,878,0,/imu_data_acquisition2,44091.0,-0.255737304688,0.225891113281,0.623352050781,0.703552246094,-84.25,482.0625,-62.0,-3.66,0.56,10.17
1542387646469923973,879,0,/imu_data_acquisition2,44100.0,-0.287292480469,0.247985839844,0.610046386719,0.695556640625,-88.1875,478.9375,-69.75,-4.37,-0.11,8.74
1542387646481925964,880,0,/imu_data_acquisition2,44112.0,-0.317321777344,0.269104003906,0.59521484375,0.687438964844,-79.375,465.375,-79.8125,-4.06,-1.72,6.71
1542387646492058992,881,0,/imu_data_acquisition2,44122.0,-0.345092773438,0.289123535156,0.578674316406,0.680053710938,-59.875,444.625,-95.8125,-2.37,-1.75,8.67
1542387646501863002,882,0,/imu_data_acquisition2,44130.0,-0.369934082031,0.306335449219,0.561828613281,0.673522949219,-51.0,400.375,-105.5,-2.43,2.17,39.86
1542387646514230966,883,0,/imu_data_acquisition2,44142.0,-0.384887695312,0.318115234375,0.546630859375,0.672180175781,8.5625,264.6875,-115.125,0.24,9.03,39.72
1542387646520874023,884,0,/imu_data_acquisition2,44151.0,-0.388793945312,0.321166992188,0.537475585938,0.675903320312,39.6875,77.25,-98.0625,2.62,12.25,39.76
1542387646542468070,886,0,/imu_data_acquisition2,44172.0,-0.374816894531,0.30419921875,0.5419921875,0.687927246094,11.0,-199.4375,-8.25,3.46,8.99,9.4
1542387646553925991,887,0,/imu_data_acquisition2,44184.0,-0.363647460938,0.290588378906,0.551574707031,0.692199707031,-11.625,-240.3125,30.5,3.28,6.64,4.74
1542387646566195964,888,0,/imu_data_acquisition2,44194.0,-0.352355957031,0.276672363281,0.562866210938,0.694580078125,-26.875,-245.125,56.1875,2.12,4.87,4.07
1542387646571569919,889,0,/imu_data_acquisition2,44201.0,-0.340637207031,0.262878417969,0.575012207031,0.695861816406,-30.375,-246.1875,72.125,0.81,2.0,5.24
1542387646585074901,890,0,/imu_data_acquisition2,44216.0,-0.328063964844,0.249145507812,0.58740234375,0.696655273438,-25.1875,-251.0,80.25,0.57,0.29,6.82
1542387646596688032,891,0,/imu_data_acquisition2,44226.0,-0.313903808594,0.235717773438,0.599243164062,0.697692871094,-7.125,-257.8125,79.875,0.03,-0.63,9.52
1542387646601006984,892,0,/imu_data_acquisition2,44232.0,-0.297424316406,0.222473144531,0.610290527344,0.69970703125,18.375,-273.5625,74.3125,-0.91,-0.61,14.45
1542387646612955093,893,0,/imu_data_acquisition2,44243.0,-0.278198242188,0.208251953125,0.621032714844,0.702575683594,38.5,-301.5625,68.5,-1.21,-0.01,-0.01
1542387646627665996,894,0,/imu_data_acquisition2,44258.0,-0.256530761719,0.1923828125,0.631652832031,0.705871582031,48.0625,-335.125,65.0625,-2.2,-1.33,17.47
1542387646632198095,895,0,/imu_data_acquisition2,44263.0,-0.232604980469,0.173828125,0.642272949219,0.709350585938,47.875,-374.25,60.9375,-2.89,-1.98,17.39
1542387646644917011,896,0,/imu_data_acquisition2,44275.0,-0.206848144531,0.152404785156,0.652526855469,0.712890625,41.6875,-411.375,53.6875,-4.39,-4.22,12.66
1542387646650568008,897,0,/imu_data_acquisition2,44281.0,-0.206848144531,0.152404785156,0.652526855469,0.712890625,37.4375,-435.25,41.4375,-4.7,-6.59,7.25
1542387646663198947,898,0,/imu_data_acquisition2,44293.0,-0.179931640625,0.12890625,0.661682128906,0.71630859375,49.0625,-433.9375,17.5,-2.14,-0.01,-0.01
1542387646679064989,899,0,/imu_data_acquisition2,44310.0,-0.125244140625,0.0861206054688,0.671081542969,0.7255859375,122.625,-310.8125,-64.0,-3.69,-11.14,0.1
1542387646682941913,900,0,/imu_data_acquisition2,44313.0,-0.100524902344,0.0733642578125,0.669311523438,0.732482910156,122.625,-6.8125,-0.0625,-3.69,-11.14,0.1
1542387646693716049,901,0,/imu_data_acquisition2,44322.0,-0.079833984375,0.0653076171875,0.663757324219,0.740844726562,130.6875,-234.4375,-105.6875,-3.41,-7.76,8.86
1542387646701380968,902,0,/imu_data_acquisition2,44331.0,-0.0618286132812,0.0582275390625,0.65576171875,0.750183105469,116.875,-203.3125,-136.125,-4.87,-0.95,26.62
1542387646711662054,903,0,/imu_data_acquisition2,44342.0,-0.0448608398438,0.0491943359375,0.647033691406,0.759521484375,93.75,-211.5625,-145.3125,-6.18,4.58,26.74
1542387646723268985,904,0,/imu_data_acquisition2,44353.0,-0.027099609375,0.0370483398438,0.639282226562,0.767578125,75.3125,-246.4375,-127.5625,-6.72,8.14,18.51
1542387646734813928,905,0,/imu_data_acquisition2,44362.0,-0.0109252929688,0.023193359375,0.634094238281,0.772827148438,46.125,-248.6875,-84.3125,-7.93,8.38,12.8
1542387646742810010,906,0,/imu_data_acquisition2,44373.0,0.00201416015625,0.0101928710938,0.631774902344,0.775085449219,21.6875,-217.0,-35.9375,-10.68,6.65,14.91
1542387646752197980,907,0,/imu_data_acquisition2,44382.0,0.00201416015625,0.0101928710938,0.631774902344,0.775085449219,12.8125,-185.8125,7.4375,-11.68,6.13,17.25
1542387646765984058,908,0,/imu_data_acquisition2,44394.0,0.0232543945312,-0.0111083984375,0.635009765625,0.772033691406,23.0625,-168.0,47.875,-12.82,5.21,18.96
1542387646772527933,909,0,/imu_data_acquisition2,44403.0,0.0350341796875,-0.019287109375,0.640319824219,0.76708984375,48.125,-162.0,86.0,-15.63,3.02,20.47
1542387646784734010,910,0,/imu_data_acquisition2,44413.0,0.0487060546875,-0.0261840820312,0.647399902344,0.760192871094,76.6875,-165.0,116.5625,-16.28,2.7,20.28
1542387646793864965,911,0,/imu_data_acquisition2,44422.0,0.0638427734375,-0.0327758789062,0.655456542969,0.751770019531,92.8125,-173.375,136.1875,-17.76,1.77,19.52
1542387646800870895,912,0,/imu_data_acquisition2,44432.0,0.07958984375,-0.0396728515625,0.6640625,0.742370605469,97.0625,-181.0625,148.625,-20.21,-2.05,19.88
1542387646814076900,913,0,/imu_data_acquisition2,44442.0,0.0963745117188,-0.046875,0.672607421875,0.732238769531,104.6875,-191.75,153.5625,-20.93,-3.03,17.7
1542387646822354078,914,0,/imu_data_acquisition2,44452.0,0.114318847656,-0.0546264648438,0.680725097656,0.721496582031,109.875,-206.5625,154.9375,-20.75,-3.73,12.54
