%time,field.header.seq,field.header.stamp,field.header.frame_id,field.time_stamp,field.quat_x,field.quat_y,field.quat_z,field.quat_w,field.gyro_x,field.gyro_y,field.gyro_z,field.accel_x,field.accel_y,field.accel_z
1541002847879483938,316,0,/imu_data_acquisition2,67362.0,0.00518798828125,0.153381347656,0.0332641601562,0.987609863281,9.1875,26.4375,-0.0625,-2.68,0.09,-0.01
1541002847884639978,317,0,/imu_data_acquisition2,67372.0,0.00592041015625,0.155578613281,0.0330810546875,0.987243652344,10.5625,28.6875,0.1875,-2.72,-0.03,9.4
1541002847896269083,318,0,/imu_data_acquisition2,67384.0,0.00677490234375,0.158142089844,0.0330200195312,0.98681640625,14.375,33.125,1.8125,-3.08,-0.03,9.39
1541002847906326055,319,0,/imu_data_acquisition2,67394.0,0.0078125,0.160827636719,0.032958984375,0.986389160156,17.5625,36.75,2.3125,-3.1,-0.05,9.51
1541002847914357900,320,0,/imu_data_acquisition2,67402.0,0.0091552734375,0.163940429688,0.032958984375,0.985900878906,17.5625,36.75,2.3125,-3.1,-0.05,9.51
1541002847924469947,321,0,/imu_data_acquisition2,67412.0,0.0109252929688,0.167358398438,0.0328979492188,0.985290527344,21.8125,40.0,2.5,-3.08,-0.27,9.59
1541002847936186075,322,0,/imu_data_acquisition2,67424.0,-6.103515625e-05,-6.103515625e-05,-6.103515625e-05,0.984619140625,25.8125,44.5625,2.0625,-3.51,0.01,-0.01
1541002847946454048,323,0,/imu_data_acquisition2,67434.0,-6.103515625e-05,-6.103515625e-05,-6.103515625e-05,0.983825683594,30.75,50.375,0.375,-0.83,-0.01,-0.01
1541002847956866025,324,0,/imu_data_acquisition2,67444.0,0.0181274414062,0.18017578125,0.03173828125,0.982971191406,37.3125,60.0,-5.3125,-3.42,0.11,9.42
1541002847964437961,325,0,/imu_data_acquisition2,67452.0,0.02099609375,0.185302734375,0.0308227539062,0.981994628906,37.3125,60.0,-5.3125,-3.42,0.11,9.42
1541002847974509000,326,0,/imu_data_acquisition2,67462.0,-6.103515625e-05,-6.103515625e-05,-6.103515625e-05,0.980895996094,40.0,63.75,-8.875,-3.31,0.6,9.22
1541002847986363887,327,0,/imu_data_acquisition2,67474.0,0.0270385742188,0.196411132812,0.0279541015625,0.979736328125,41.5,67.625,-12.5625,-3.57,0.4,9.16
1541002847996802091,328,0,/imu_data_acquisition2,67484.0,0.0300903320312,0.202392578125,0.026123046875,0.978515625,42.0,71.0,-15.875,-3.94,-0.09,9.86
1541002848011142015,329,0,/imu_data_acquisition2,67496.0,0.0330810546875,0.208557128906,0.0241088867188,0.977172851562,43.6875,70.0625,-19.75,-3.95,0.08,10.4
1541002848016324996,330,0,/imu_data_acquisition2,67503.0,0.0361938476562,0.214477539062,0.0218505859375,0.975830078125,43.6875,70.0625,-19.75,-3.95,0.08,10.4
1541002848026489019,331,0,/imu_data_acquisition2,67512.0,-6.103515625e-05,-6.103515625e-05,-6.103515625e-05,0.974548339844,45.25,62.8125,-20.0,-3.09,0.77,10.63
1541002848041357040,332,0,/imu_data_acquisition2,67527.0,-6.103515625e-05,-6.103515625e-05,-6.103515625e-05,0.973388671875,36.375,45.5625,-14.5,-1.05,-0.01,-0.01
1541002848048094987,333,0,/imu_data_acquisition2,67535.0,0.0452270507812,0.228332519531,0.0157470703125,0.972412109375,31.4375,32.9375,-8.75,-1.85,-0.78,9.47
1541002848059722900,334,0,/imu_data_acquisition2,67545.0,0.047607421875,0.231140136719,0.0145263671875,0.971618652344,31.4375,32.9375,-8.75,-3.0,-1.37,13.05
1541002848068527936,335,0,/imu_data_acquisition2,67554.0,0.050048828125,0.23388671875,0.0135498046875,0.970886230469,32.1875,33.0625,-5.8125,-0.5,-0.81,13.49
1541002848078557014,336,0,/imu_data_acquisition2,67564.0,0.0515747070312,0.235534667969,0.012451171875,0.970397949219,21.1875,19.3125,-9.3125,-0.79,1.09,11.97
1541002848087388038,337,0,/imu_data_acquisition2,67574.0,0.0531005859375,0.235778808594,0.01123046875,0.970275878906,20.375,2.0,-10.25,-0.01,0.75,11.98
1541002848098529100,338,0,/imu_data_acquisition2,67585.0,0.0538940429688,0.235473632812,0.0104370117188,0.970336914062,5.5,-14.0,0.8125,-0.64,2.51,11.65
1541002848109061002,339,0,/imu_data_acquisition2,67596.0,0.0543823242188,0.234313964844,-6.103515625e-05,0.970581054688,5.5,-14.0,0.8125,0.02,2.83,10.88
1541002848115159988,340,0,/imu_data_acquisition2,67602.0,0.054931640625,0.232360839844,0.0111083984375,0.971008300781,3.0625,-22.6875,11.5,0.02,2.83,10.88
1541002848128232002,341,0,/imu_data_acquisition2,67614.0,0.055419921875,0.229858398438,0.0130004882812,0.971557617188,0.3125,-29.0625,24.75,-1.67,4.44,10.74
1541002848141483068,342,0,/imu_data_acquisition2,67625.0,0.0560913085938,-6.103515625e-05,-6.103515625e-05,0.972106933594,-1.8125,-31.75,39.1875,-2.2,4.63,10.47
1541002848148286104,343,0,/imu_data_acquisition2,67635.0,0.0570068359375,0.224182128906,0.0204467773438,0.97265625,-0.625,-33.5,67.5625,-2.89,3.47,9.64
1541002848161601066,344,0,/imu_data_acquisition2,67646.0,0.0582885742188,0.221069335938,0.0258178710938,0.97314453125,-0.625,-33.5,67.5625,-3.54,2.59,9.98
1541002848168580055,345,0,/imu_data_acquisition2,67655.0,0.0601196289062,0.218078613281,0.0320434570312,0.973571777344,3.625,-32.0,78.0,-3.54,2.59,9.98
1541002848177819013,346,0,/imu_data_acquisition2,67665.0,-6.103515625e-05,-6.103515625e-05,-6.103515625e-05,0.973815917969,7.875,-30.125,83.625,-4.03,1.58,9.93
1541002848190345048,347,0,/imu_data_acquisition2,67674.0,0.0651245117188,0.21240234375,0.045166015625,0.973937988281,14.0,-28.5,84.5,-4.03,1.58,9.93
1541002848198745965,348,0,/imu_data_acquisition2,67685.0,0.0682373046875,0.209777832031,0.0513305664062,0.973999023438,22.8125,-26.625,73.3125,-4.1,0.0,-0.01
1541002848208741903,349,0,/imu_data_acquisition2,67696.0,0.071533203125,0.207275390625,0.0568237304688,0.973999023438,22.8125,-26.625,73.3125,-4.14,-0.32,10.05
1541002848215200901,350,0,/imu_data_acquisition2,67702.0,0.0750122070312,0.204711914062,-6.103515625e-05,0.973999023438,27.5625,-27.5,63.25,-4.14,-0.32,10.05
1541002848227564096,351,0,/imu_data_acquisition2,67714.0,0.0787353515625,0.2021484375,0.0648193359375,0.973999023438,32.25,-29.1875,51.5,-3.89,0.02,9.85
1541002848239439964,352,0,/imu_data_acquisition2,67726.0,0.0823974609375,0.199645996094,0.0673217773438,0.974060058594,34.625,-14.0,-0.0625,-3.55,0.44,9.51
1541002848248203039,353,0,/imu_data_acquisition2,67735.0,0.0858764648438,0.197082519531,0.06884765625,0.974182128906,31.0,-13.5625,-0.0625,-3.07,0.94,-0.01
1541002848259104967,354,0,/imu_data_acquisition2,67745.0,-6.103515625e-05,-6.103515625e-05,-6.103515625e-05,0.974365234375,31.0,-13.5625,-0.0625,-2.67,1.72,10.05
1541002848267545938,355,0,/imu_data_acquisition2,67753.0,0.0914916992188,0.1923828125,0.0696411132812,0.974548339844,27.625,-29.8125,8.875,-2.67,1.72,10.05
1541002848276058912,356,0,/imu_data_acquisition2,67763.0,0.0936889648438,0.189880371094,0.0692138671875,0.974853515625,24.125,-31.25,2.8125,-2.28,1.99,9.97
1541002848288927078,357,0,/imu_data_acquisition2,67775.0,0.0956420898438,0.187255859375,0.0686645507812,0.975219726562,21.0625,-33.5625,0.5,-1.52,3.14,9.39
1541002848301017999,358,0,/imu_data_acquisition2,67786.0,0.0973510742188,0.184387207031,0.0681762695312,0.975646972656,17.9375,-36.125,1.3125,-1.48,3.31,9.37
1541002848308792114,359,0,/imu_data_acquisition2,67796.0,0.098876953125,0.181274414062,0.0679931640625,0.97607421875,15.125,-5.9375,-0.0625,-1.46,3.48,9.12
1541002848317759037,360,0,/imu_data_acquisition2,67804.0,0.100280761719,0.177978515625,0.0682983398438,0.976501464844,12.375,-40.375,9.875,-1.46,3.48,9.12
1541002848327120065,361,0,/imu_data_acquisition2,67813.0,0.101501464844,0.174438476562,0.0691528320312,0.976989746094,9.1875,-41.4375,16.3125,-1.81,3.69,8.96
1541002848336872100,362,0,/imu_data_acquisition2,67824.0,-6.103515625e-05,-6.103515625e-05,-6.103515625e-05,0.977416992188,5.5625,-42.0625,22.625,-1.97,3.7,8.62
1541002848361368894,364,0,/imu_data_acquisition2,67847.0,0.10400390625,0.163330078125,0.074951171875,0.978210449219,-1.125,-41.5625,33.1875,-3.21,2.97,8.32
1541002848366326093,365,0,/imu_data_acquisition2,67853.0,0.1044921875,0.159606933594,-6.103515625e-05,0.978576660156,-3.0,-40.375,35.9375,-3.21,2.97,8.32
1541002848379060983,366,0,/imu_data_acquisition2,67865.0,0.104919433594,0.156066894531,0.080322265625,0.978881835938,-3.8125,-38.875,36.375,-3.5,2.92,8.46
1541002848388631105,367,0,/imu_data_acquisition2,67873.0,0.105224609375,0.152587890625,0.0829467773438,0.979187011719,-5.1875,-6.0,-0.0625,-4.11,2.28,8.21
1541002848398092031,368,0,/imu_data_acquisition2,67885.0,-6.103515625e-05,-6.103515625e-05,-6.103515625e-05,0.9794921875,-5.3125,-37.5625,31.5,-1.98,-0.01,-0.01
1541002848410026073,369,0,/imu_data_acquisition2,67896.0,0.105773925781,0.145751953125,0.087158203125,0.979797363281,-2.875,-37.875,26.0,-4.7,2.69,-0.01
1541002848416538953,370,0,/imu_data_acquisition2,67902.0,0.106506347656,0.142456054688,0.08837890625,0.980102539062,2.125,-38.3125,19.3125,-4.7,2.69,-0.01
1541002848425507068,371,0,/imu_data_acquisition2,67912.0,0.107543945312,0.139099121094,0.0889892578125,0.980407714844,7.125,-7.1875,-0.0625,-2.27,-0.01,-0.01
1541002848438894033,372,0,/imu_data_acquisition2,67925.0,0.108825683594,0.135986328125,0.089111328125,0.980651855469,10.75,-38.3125,7.4375,-5.0,3.29,7.45
1541002848452470064,373,0,/imu_data_acquisition2,67938.0,0.109924316406,0.132995605469,0.0888671875,0.98095703125,11.0625,-0.0625,-0.0625,-5.33,3.51,6.89
1541002848460258007,374,0,/imu_data_acquisition2,67947.0,0.111083984375,0.130310058594,-6.103515625e-05,0.981262207031,11.0625,-33.5625,-2.6875,-5.47,3.64,6.89
1541002848469046115,375,0,/imu_data_acquisition2,67954.0,0.112182617188,0.127990722656,0.087158203125,0.981567382812,11.9375,-29.6875,-7.5,-5.47,3.64,6.89
1541002848479057073,376,0,/imu_data_acquisition2,67964.0,0.113220214844,0.126037597656,0.0858154296875,0.981811523438,11.0625,-26.25,-11.75,-5.71,3.2,7.01
1541002848486200094,377,0,/imu_data_acquisition2,67973.0,0.113891601562,0.124328613281,0.0841064453125,0.982116699219,8.1875,-0.0625,-0.0625,-6.17,2.57,-0.01
1541002848501394987,378,0,/imu_data_acquisition2,67987.0,0.114135742188,0.122924804688,0.0819091796875,0.982421875,4.375,-0.0625,-0.0625,-9.4,2.9,6.69
1541002848512231111,379,0,/imu_data_acquisition2,67997.0,0.113647460938,0.122009277344,0.0791625976562,0.982849121094,-3.125,-14.1875,-32.1875,-11.87,-3.42,4.37
1541002848517139911,380,0,/imu_data_acquisition2,68004.0,0.108032226562,0.123046875,0.0753173828125,0.983642578125,-59.875,11.125,-54.4375,-11.87,-3.42,4.37
1541002848528915882,381,0,/imu_data_acquisition2,68015.0,0.100341796875,0.124206542969,0.0689697265625,0.984741210938,-80.3125,10.125,-88.0625,-12.95,1.22,3.94
1541002848539752006,382,0,/imu_data_acquisition2,68025.0,0.0924072265625,0.126342773438,0.0604858398438,0.98583984375,-79.8125,19.625,-113.8125,-12.95,7.57,6.27
1541002848549494981,383,0,/imu_data_acquisition2,68037.0,0.0834350585938,0.12890625,0.0512084960938,0.98681640625,-122.125,26.375,-111.6875,-3.98,4.68,9.99
1541002848561307907,384,0,/imu_data_acquisition2,68047.0,0.0719604492188,0.13134765625,0.0433959960938,0.98779296875,-122.125,26.375,-111.6875,-7.02,-5.17,15.2
1541002848567919015,385,0,/imu_data_acquisition2,68053.0,0.0574340820312,0.133483886719,0.0380859375,0.988647460938,-161.125,26.875,-6.625,-7.02,-5.17,15.2
1541002848577060937,386,0,/imu_data_acquisition2,68063.0,0.0433349609375,0.134521484375,0.0340576171875,0.989379882812,-14.8125,-0.0625,-0.0625,-9.08,-9.0,17.85
1541002848589972019,387,0,/imu_data_acquisition2,68076.0,0.0338134765625,0.132446289062,0.0291748046875,0.990173339844,-104.5625,-24.1875,-72.125,-0.65,5.53,7.7
1541002848601145029,388,0,/imu_data_acquisition2,68086.0,0.0264282226562,0.129211425781,0.0247802734375,0.990966796875,-81.5,-37.6875,-61.5625,1.8,-0.96,-0.01
1541002848609138965,389,0,/imu_data_acquisition2,68096.0,0.0201416015625,0.128112792969,0.0228881835938,0.991271972656,-70.6875,-12.3125,-31.875,-2.55,-2.82,9.91
1541002848618798971,390,0,/imu_data_acquisition2,68104.0,0.01708984375,0.128723144531,0.0216064453125,0.991271972656,-34.1875,7.6875,-0.0625,-2.55,-2.82,9.91
1541002848626586914,391,0,/imu_data_acquisition2,68113.0,0.0147094726562,0.129150390625,0.0208740234375,0.991271972656,-26.4375,5.5,-12.125,-2.8,-1.29,10.28
1541002848636949062,392,0,/imu_data_acquisition2,68124.0,0.0137329101562,0.129943847656,0.020751953125,0.9912109375,-11.0625,9.3125,-0.0625,-3.75,-0.92,10.6
1541002848650258064,393,0,/imu_data_acquisition2,68136.0,0.0137939453125,0.130493164062,0.0213012695312,0.991149902344,-0.375,6.8125,5.9375,-2.78,0.38,9.71
1541002848662739992,394,0,/imu_data_acquisition2,68146.0,0.0143432617188,0.130676269531,0.0220947265625,0.991088867188,5.5,1.8125,10.5625,-2.9,1.27,-0.01
1541002848666151046,395,0,/imu_data_acquisition2,68153.0,0.0150146484375,0.130676269531,0.02294921875,0.991027832031,6.4375,-0.3125,10.875,-2.79,1.33,10.01
1541002848678961038,396,0,/imu_data_acquisition2,68164.0,0.0154418945312,0.130493164062,0.0236206054688,0.991027832031,3.6875,-1.6875,8.5,-2.22,1.26,9.17
1541002848690180063,397,0,/imu_data_acquisition2,68175.0,0.0155029296875,0.13037109375,-6.103515625e-05,0.991027832031,-0.125,-1.3125,4.375,-2.56,1.14,9.5
1541002848699393987,398,0,/imu_data_acquisition2,68186.0,0.0150756835938,0.13037109375,0.0240478515625,0.991027832031,-4.6875,0.0,0.5,-2.82,0.86,9.46
1541002848710329055,399,0,/imu_data_acquisition2,68197.0,0.0144653320312,0.130432128906,0.02392578125,0.991088867188,-7.4375,-0.0625,-0.0625,-3.1,0.62,9.73
1541002848716536045,400,0,/imu_data_acquisition2,68203.0,0.013671875,0.130432128906,0.0237426757812,0.991088867188,-9.0,-0.1875,-3.5,-2.95,0.29,-0.01
1541002848725985050,401,0,/imu_data_acquisition2,68213.0,-6.103515625e-05,-6.103515625e-05,-6.103515625e-05,0.991088867188,-8.5,-0.9375,-3.6875,-3.09,0.39,9.66
1541002848738822937,402,0,/imu_data_acquisition2,68225.0,0.01220703125,0.130187988281,0.0233154296875,0.991149902344,-7.5625,-1.1875,-3.5,-3.05,0.32,9.81
1541002848748594999,403,0,/imu_data_acquisition2,68235.0,0.0116577148438,0.130004882812,0.0231323242188,0.991149902344,-6.125,-2.0625,-2.9375,-2.87,0.34,9.61
1541002848759601116,404,0,/imu_data_acquisition2,68247.0,0.01123046875,0.129821777344,0.0230102539062,0.9912109375,-5.0,-2.1875,-2.1875,-2.7,0.3,-0.01
1541002848772023916,405,0,/imu_data_acquisition2,68252.0,0.0108642578125,0.129638671875,0.0228881835938,0.9912109375,-4.5,-2.0,-2.0625,-2.78,0.41,9.7
1541002848776916980,406,0,/imu_data_acquisition2,68264.0,0.0104370117188,0.129577636719,0.0227661132812,0.991271972656,-4.875,-1.5,-2.3125,-2.72,0.4,9.76
1541002848788831949,407,0,/imu_data_acquisition2,68276.0,0.0100708007812,0.129516601562,0.0225830078125,0.991271972656,-4.875,-1.5,-2.3125,-2.69,0.29,-0.01
1541002848795125961,408,0,/imu_data_acquisition2,68282.0,0.00958251953125,0.129455566406,0.0224609375,0.991271972656,-5.0625,-1.3125,-2.5625,-2.71,0.23,9.71
1541002848808532953,409,0,/imu_data_acquisition2,68294.0,0.00921630859375,0.129272460938,0.0222778320312,0.991333007812,-4.625,-1.9375,-2.1875,-2.63,0.2,-0.01
1541002848817086935,410,0,/imu_data_acquisition2,68304.0,-6.103515625e-05,-6.103515625e-05,-6.103515625e-05,0.991333007812,-3.6875,-3.125,-1.375,-2.72,0.19,9.71
1541002848825176000,411,0,/imu_data_acquisition2,68312.0,0.0087890625,0.128784179688,0.0222778320312,0.991394042969,-1.125,-4.0625,0.75,-2.97,0.12,9.97
1541002848836302042,412,0,/imu_data_acquisition2,68323.0,-6.103515625e-05,-6.103515625e-05,-6.103515625e-05,0.991455078125,-1.125,-4.0625,0.75,-2.51,0.12,9.85
1541002848850092887,413,0,/imu_data_acquisition2,68337.0,0.0086669921875,0.127990722656,0.0225219726562,0.991455078125,0.4375,-5.5625,1.9375,-2.53,0.0,-0.01
1541002848863410949,414,0,/imu_data_acquisition2,68343.0,0.00897216796875,0.12744140625,0.0228271484375,0.991516113281,3.0,-7.5625,-0.0625,-2.53,0.0,9.75
1541002848868223905,415,0,/imu_data_acquisition2,68353.0,0.0093994140625,0.126708984375,0.0232543945312,0.991638183594,4.5625,-8.6875,5.5625,-2.65,0.12,9.76
1541002848876626968,416,0,/imu_data_acquisition2,68364.0,-6.103515625e-05,-6.103515625e-05,-6.103515625e-05,0.99169921875,5.4375,-9.75,6.4375,-2.22,0.38,-0.01
1541002848934336900,417,0,/imu_data_acquisition2,68374.0,0.010498046875,0.125122070312,0.0242309570312,0.991760253906,5.8125,-9.125,6.875,-2.35,0.37,9.79
1541002848977993965,418,0,/imu_data_acquisition2,68385.0,0.0110473632812,0.124389648438,0.0247192382812,0.991882324219,5.0625,-9.125,6.3125,-2.31,0.72,9.45
1541002848979677915,419,0,/imu_data_acquisition2,68394.0,0.0112915039062,0.123657226562,0.0250854492188,0.991943359375,2.25,-8.375,4.9375,-1.89,0.83,9.5
1541002848981899023,420,0,/imu_data_acquisition2,68404.0,0.0111694335938,0.123046875,0.0252685546875,0.992004394531,-1.8125,-7.3125,1.625,-2.38,0.74,-0.01
1541002848987381935,421,0,/imu_data_acquisition2,68412.0,0.0108642578125,0.122436523438,0.0252685546875,0.992065429688,-3.4375,-7.3125,-0.3125,-2.02,0.25,9.37
1541002848988531112,422,0,/imu_data_acquisition2,68422.0,-6.103515625e-05,-6.103515625e-05,-6.103515625e-05,0.992126464844,-2.8125,-4.3125,-0.25,-2.13,-0.01,-0.01
1541002848990832090,423,0,/imu_data_acquisition2,68434.0,0.010498046875,-6.103515625e-05,-6.103515625e-05,0.992126464844,-1.625,-1.1875,0.4375,-2.38,0.04,-0.01
1541002848994997978,424,0,/imu_data_acquisition2,68443.0,0.0105590820312,0.121948242188,0.0254516601562,0.992126464844,-0.125,0.25,1.375,-2.47,0.22,9.8
1541002848996674060,425,0,/imu_data_acquisition2,68452.0,0.0107421875,0.1220703125,0.0255737304688,0.992126464844,1.875,1.4375,2.1875,-3.03,0.22,9.9
1541002848998181104,426,0,/imu_data_acquisition2,68462.0,0.010986328125,0.122131347656,0.0258178710938,0.992126464844,3.125,0.8125,2.75,-2.49,0.51,9.63
1541002848999727964,427,0,/imu_data_acquisition2,68472.0,0.0113525390625,0.122192382812,0.0260009765625,0.992126464844,3.625,0.4375,2.75,-2.7,0.29,9.97
1541002849008306980,428,0,/imu_data_acquisition2,68482.0,0.0116577148438,0.122131347656,0.0261840820312,0.992126464844,3.25,-0.0625,-0.0625,-2.74,0.48,9.63
1541002849013400077,429,0,/imu_data_acquisition2,68492.0,0.0119018554688,0.122009277344,0.0263671875,0.992126464844,2.9375,-1.3125,2.3125,-2.59,0.59,9.77
1541002849017762899,430,0,/imu_data_acquisition2,68505.0,0.0120849609375,-6.103515625e-05,-6.103515625e-05,0.992126464844,2.0,-1.4375,1.6875,-2.53,0.59,9.63
1541002849029510021,431,0,/imu_data_acquisition2,68516.0,-6.103515625e-05,-6.103515625e-05,-6.103515625e-05,0.992126464844,1.125,-1.125,0.9375,-2.65,0.61,9.74
1541002849035924911,432,0,/imu_data_acquisition2,68522.0,0.0123291015625,0.121765136719,0.0265502929688,0.992126464844,0.3125,-1.3125,0.375,-2.48,0.49,9.71
1541002849048121929,433,0,/imu_data_acquisition2,68533.0,0.0123901367188,0.121765136719,0.0265502929688,0.992126464844,-0.3125,-0.8125,-0.0625,-2.43,0.5,9.54
1541002849055500030,434,0,/imu_data_acquisition2,68542.0,0.0123291015625,0.121765136719,0.0265502929688,0.992126464844,-1.25,0.0,-0.6875,-2.52,0.43,9.74
1541002849066250085,435,0,/imu_data_acquisition2,68553.0,0.0122680664062,0.121826171875,0.0264892578125,0.992126464844,-1.875,0.5625,-1.0625,-2.45,0.57,9.52
1541002849078938961,436,0,/imu_data_acquisition2,68563.0,0.0120849609375,0.121887207031,-6.103515625e-05,0.992126464844,-2.625,0.6875,-1.625,-2.5,0.47,-0.01
1541002849085587024,437,0,/imu_data_acquisition2,68573.0,0.011962890625,0.1220703125,0.0262451171875,0.992126464844,-3.0,0.8125,-0.0625,-2.71,0.48,9.44
1541002849096899986,438,0,/imu_data_acquisition2,68583.0,0.0116577148438,0.122253417969,0.026123046875,0.992065429688,-3.4375,1.375,-2.0625,-2.64,0.36,9.64
1541002849108947992,439,0,/imu_data_acquisition2,68593.0,0.0114135742188,0.122436523438,0.0260009765625,0.992065429688,-3.5,1.5,-0.0625,-2.44,0.28,9.61
1541002849114978075,440,0,/imu_data_acquisition2,68602.0,0.0111083984375,0.122680664062,0.02587890625,0.992065429688,-3.125,1.75,-1.6875,-2.87,0.38,9.8
1541002849127163887,441,0,/imu_data_acquisition2,68614.0,0.0109252929688,0.122863769531,0.0258178710938,0.992004394531,-2.75,1.375,-1.4375,-2.59,0.33,9.7
1541002849140165090,442,0,/imu_data_acquisition2,68624.0,-6.103515625e-05,-6.103515625e-05,-6.103515625e-05,0.992004394531,-2.625,1.25,-1.375,-2.58,0.39,9.8
1541002849145396947,443,0,/imu_data_acquisition2,68632.0,0.0104370117188,0.123168945312,0.025634765625,0.992004394531,-2.9375,1.5,-0.0625,-2.58,0.35,9.71
1541002849157196044,444,0,/imu_data_acquisition2,68643.0,0.0101928710938,0.123291015625,0.0255126953125,0.992004394531,-2.9375,1.25,-1.5625,-2.36,0.43,9.53
1541002849169939041,445,0,/imu_data_acquisition2,68654.0,0.00994873046875,0.123474121094,0.025390625,0.991943359375,-3.4375,1.8125,-0.0625,-2.57,0.38,9.72
1541002849175556898,446,0,/imu_data_acquisition2,68663.0,0.0096435546875,0.123657226562,-6.103515625e-05,0.991943359375,-3.375,1.75,-2.25,-2.46,-0.01,-0.01
1541002849188353061,447,0,/imu_data_acquisition2,68674.0,0.00933837890625,0.123840332031,0.0250854492188,0.991943359375,-3.6875,2.125,-2.5625,-2.5,0.34,9.65
1541002849196063041,448,0,/imu_data_acquisition2,68683.0,0.009033203125,-6.103515625e-05,-6.103515625e-05,0.991943359375,-3.6875,2.5625,-2.5625,-2.73,0.36,9.62
1541002849206146001,449,0,/imu_data_acquisition2,68692.0,0.0087890625,0.124450683594,-6.103515625e-05,0.991882324219,-3.3125,2.75,-2.5625,-2.87,0.38,9.59
1541002849214612007,450,0,/imu_data_acquisition2,68702.0,0.008544921875,0.124877929688,0.0245361328125,0.991821289062,-3.25,3.3125,-0.0625,-2.8,0.31,9.71
1541002849227322101,451,0,/imu_data_acquisition2,68713.0,0.00823974609375,0.125244140625,0.0242919921875,0.991821289062,-3.0625,3.375,-2.875,-2.55,0.25,9.7
1541002849237145900,452,0,/imu_data_acquisition2,68723.0,0.0079345703125,0.125549316406,0.0241088867188,0.991760253906,-3.125,3.75,-3.1875,-2.49,-0.01,-0.01
1541002849248859882,453,0,/imu_data_acquisition2,68733.0,0.0076904296875,0.125915527344,0.0238037109375,0.99169921875,-2.9375,4.0,-3.9375,-2.38,0.4,9.6
1541002849259268999,454,0,/imu_data_acquisition2,68743.0,0.00732421875,0.126159667969,0.0234985351562,0.99169921875,-3.375,3.375,-3.9375,-1.47,-0.11,8.96
1541002849269560098,455,0,/imu_data_acquisition2,68755.0,0.0069580078125,0.126708984375,0.0232543945312,0.991638183594,-3.9375,6.25,-3.625,-2.67,-0.86,10.31
1541002849275365114,456,0,/imu_data_acquisition2,68762.0,0.00653076171875,0.127319335938,0.0228271484375,0.991577148438,-3.75,7.1875,-0.0625,-2.27,-0.01,-0.01
1541002849289730072,457,0,/imu_data_acquisition2,68773.0,0.00616455078125,0.127685546875,0.0223999023438,0.991516113281,-3.5625,5.0625,-5.375,-1.44,0.24,9.05
1541002849298552036,458,0,/imu_data_acquisition2,68786.0,0.00592041015625,0.128356933594,0.0220336914062,0.991455078125,-2.1875,7.5625,-4.5625,-3.01,0.02,11.27
1541002849306380987,459,0,/imu_data_acquisition2,68792.0,0.005859375,0.128967285156,0.0216674804688,0.991394042969,-0.4375,7.4375,-4.375,-2.31,0.74,9.47
1541002849328011989,461,0,/imu_data_acquisition2,68814.0,0.005859375,0.130554199219,0.020751953125,0.9912109375,1.25,9.375,-5.75,-2.28,-0.01,-0.01
1541002849334820032,462,0,/imu_data_acquisition2,68822.0,0.00592041015625,0.131469726562,0.0202026367188,0.991088867188,2.375,10.625,-5.75,-1.98,0.33,9.56
1541002849350425004,463,0,/imu_data_acquisition2,68832.0,0.006103515625,0.132446289062,0.0196533203125,0.990966796875,2.9375,11.4375,-6.5,-2.04,0.43,9.64
1541002849358367919,464,0,/imu_data_acquisition2,68844.0,0.0062255859375,0.133483886719,0.0189819335938,0.990844726562,3.0,12.3125,-7.375,-2.68,0.31,9.57
1541002849364897966,465,0,/imu_data_acquisition2,68852.0,0.00634765625,0.134521484375,0.0182495117188,0.99072265625,2.75,12.375,-8.5625,-2.11,-0.01,-0.01
1541002849377767086,466,0,/imu_data_acquisition2,68863.0,0.00640869140625,0.1357421875,0.0173950195312,0.990539550781,2.4375,14.6875,-10.1875,-1.97,0.13,9.83
1541002849391546010,467,0,/imu_data_acquisition2,68877.0,0.00640869140625,0.136840820312,0.016357421875,0.990417480469,2.0,17.0,-12.0,-2.13,0.13,9.43
1541002849395951986,468,0,/imu_data_acquisition2,68883.0,0.00640869140625,-6.103515625e-05,-6.103515625e-05,0.990295410156,1.0,19.1875,-13.3125,-2.45,0.36,-0.01
1541002849407449007,469,0,/imu_data_acquisition2,68892.0,0.00628662109375,-6.103515625e-05,-6.103515625e-05,0.990112304688,1.5,20.375,-12.4375,-2.33,-0.01,-0.01
1541002849416661977,470,0,/imu_data_acquisition2,68903.0,0.00640869140625,0.141540527344,0.0132446289062,0.989807128906,3.875,22.8125,-11.0,-2.67,0.19,9.91
1541002849424571037,471,0,/imu_data_acquisition2,68912.0,0.00665283203125,0.143432617188,0.0123901367188,0.989562988281,4.1875,22.6875,-9.75,-2.58,0.02,9.81
1541002849438635110,472,0,/imu_data_acquisition2,68923.0,0.0069580078125,0.145446777344,0.0115966796875,0.9892578125,5.0,24.0,-8.5625,-2.91,0.3,-0.01
1541002849447845935,473,0,/imu_data_acquisition2,68934.0,0.00732421875,0.1474609375,-6.103515625e-05,0.988952636719,5.875,24.0,-0.0625,-3.06,0.29,9.44
1541002849455054044,474,0,/imu_data_acquisition2,68942.0,0.00775146484375,0.149536132812,0.0104370117188,0.988647460938,5.9375,24.5,-5.375,-3.01,0.19,9.49
1541002849466691970,475,0,/imu_data_acquisition2,68953.0,0.0081787109375,0.151611328125,0.0101318359375,0.988342285156,6.25,24.8125,-3.4375,-3.11,0.05,9.46
1541002849476696968,476,0,/imu_data_acquisition2,68963.0,0.00872802734375,0.153747558594,0.0098876953125,0.988037109375,7.25,-0.0625,-0.0625,-0.73,-0.01,-0.01
1541002849485302925,477,0,/imu_data_acquisition2,68972.0,0.0093994140625,-6.103515625e-05,-6.103515625e-05,0.987670898438,8.0,-0.0625,-0.0625,-0.78,-0.01,-0.01
1541002849496186971,478,0,/imu_data_acquisition2,68983.0,0.0101318359375,0.158264160156,0.00970458984375,0.9873046875,8.625,27.25,1.25,-3.41,0.32,9.35
1541002849508260011,479,0,/imu_data_acquisition2,68993.0,0.0108642578125,0.160583496094,0.00982666015625,0.986938476562,9.25,27.6875,2.5625,-2.93,0.21,9.42
1541002849515398025,480,0,/imu_data_acquisition2,69002.0,-6.103515625e-05,-6.103515625e-05,-6.103515625e-05,0.986450195312,12.25,32.75,1.625,-3.12,0.12,9.34
1541002849526118993,481,0,/imu_data_acquisition2,69013.0,0.0130615234375,0.166198730469,0.0098876953125,0.985961914062,13.75,34.875,2.1875,-3.16,0.19,9.59
1541002849538763046,482,0,/imu_data_acquisition2,69024.0,0.0143432617188,-6.103515625e-05,-6.103515625e-05,0.985412597656,16.0625,37.625,2.4375,-3.09,0.16,9.44
1541002849545299053,483,0,/imu_data_acquisition2,69032.0,0.0156860351562,0.172485351562,-6.103515625e-05,0.98486328125,19.375,41.1875,1.9375,-2.94,-0.19,9.34
1541002849557487010,484,0,/imu_data_acquisition2,69044.0,0.0177612304688,0.176330566406,0.00946044921875,0.984130859375,24.8125,46.125,0.5625,-3.13,-0.37,9.48
1541002849564743995,485,0,/imu_data_acquisition2,69052.0,0.0201416015625,-6.103515625e-05,-6.103515625e-05,0.983337402344,30.0625,50.875,-2.375,-3.23,0.25,9.31
1541002849576520919,486,0,/imu_data_acquisition2,69064.0,0.022705078125,0.185180664062,0.00799560546875,0.982421875,32.5625,54.375,-6.25,-3.19,0.13,9.41
1541002849586704015,487,0,/imu_data_acquisition2,69073.0,-6.103515625e-05,-6.103515625e-05,-6.103515625e-05,0.9814453125,35.125,57.125,-10.4375,-3.58,-0.36,9.45
1541002849595284938,488,0,/imu_data_acquisition2,69083.0,0.0284423828125,0.194885253906,0.0048828125,0.980407714844,39.625,59.0625,-15.625,-3.5,0.31,-0.01
1541002849607070922,489,0,/imu_data_acquisition2,69094.0,0.0316162109375,0.200073242188,0.00262451171875,0.979248046875,42.875,61.8125,-20.4375,-3.49,0.43,9.42
1541002849617446899,490,0,/imu_data_acquisition2,69103.0,0.034912109375,0.205444335938,-6.103515625e-05,0.97802734375,45.125,64.3125,-24.875,-3.5,0.57,9.35
1541002849626106023,491,0,/imu_data_acquisition2,69113.0,0.0382080078125,0.211120605469,-0.0029296875,0.976684570312,45.875,67.5,-28.0,-3.67,1.23,-0.01
1541002849637387037,492,0,/imu_data_acquisition2,69124.0,-6.103515625e-05,-6.103515625e-05,-6.103515625e-05,0.975280761719,42.9375,69.3125,-13.125,-3.73,0.53,9.74
1541002849648530960,493,0,/imu_data_acquisition2,69132.0,0.0441284179688,0.222717285156,-0.0087890625,0.973815917969,40.8125,69.25,-29.0,-4.04,-0.34,10.16
1541002849656691074,494,0,/imu_data_acquisition2,69144.0,0.0471801757812,0.227966308594,-0.01171875,0.972473144531,43.3125,63.375,-28.8125,-3.61,-0.27,10.43
1541002849668067932,495,0,/imu_data_acquisition2,69155.0,0.0503540039062,0.232727050781,-0.0145263671875,0.971130371094,43.5,57.125,-26.4375,-1.92,1.5,10.91
1541002849678129911,496,0,/imu_data_acquisition2,69162.0,0.0503540039062,0.232727050781,-0.0145263671875,0.971130371094,36.125,51.25,-0.0625,-1.03,-0.01,-0.01
1541002849688633918,497,0,/imu_data_acquisition2,69173.0,0.0550537109375,0.240600585938,-0.0185546875,0.968872070312,29.375,43.875,-15.625,0.31,1.78,12.01
1541002849697688102,498,0,/imu_data_acquisition2,69184.0,0.0576171875,0.243713378906,-6.103515625e-05,0.967956542969,32.0625,37.8125,-7.125,-1.73,-0.98,13.42
1541002849708050966,499,0,/imu_data_acquisition2,69194.0,0.0576171875,0.243713378906,-0.0040283203125,0.967956542969,19.75,23.3125,-5.1875,-0.11,-0.44,14.24
1541002849716694116,500,0,/imu_data_acquisition2,69203.0,0.0606079101562,0.246032714844,-0.0206298828125,0.967163085938,17.0625,5.6875,1.0,1.91,2.85,11.85
1541002849726855039,501,0,/imu_data_acquisition2,69213.0,0.0606079101562,0.246032714844,-0.0206298828125,0.967163085938,6.4375,-4.625,14.375,1.07,4.25,13.1
1541002849734766006,502,0,/imu_data_acquisition2,69222.0,-6.103515625e-05,-6.103515625e-05,-6.103515625e-05,0.967224121094,-2.1875,-15.5,31.875,1.31,-0.01,-0.01
1541002849759460926,504,0,/imu_data_acquisition2,69243.0,0.0634155273438,0.238342285156,-0.00653076171875,0.969055175781,-6.4375,-4.125,-0.0625,-0.11,5.74,11.91
1541002849765616893,505,0,/imu_data_acquisition2,69253.0,0.0634155273438,0.238342285156,-0.00653076171875,0.969055175781,-7.25,-42.5,96.375,-1.17,4.97,10.92
1541002849779108047,506,0,/imu_data_acquisition2,69264.0,0.06640625,0.230102539062,0.0104370117188,0.970825195312,-6.5625,-44.0,113.5,-2.51,3.13,10.91
1541002849788068056,507,0,/imu_data_acquisition2,69273.0,0.068359375,0.225708007812,0.0203857421875,0.971557617188,-6.3125,-45.0625,123.0625,-2.68,1.69,9.95
1541002849796422004,508,0,/imu_data_acquisition2,69283.0,0.068359375,0.225708007812,0.0203857421875,0.971557617188,-0.3125,-41.1875,124.875,-3.96,-0.69,9.77
1541002849807372093,509,0,/imu_data_acquisition2,69293.0,0.07080078125,0.221618652344,0.0303955078125,0.972106933594,5.5,-37.4375,118.625,-4.29,-0.72,9.63
1541002849819231033,510,0,/imu_data_acquisition2,69304.0,0.0735473632812,0.217834472656,0.0398559570312,0.972412109375,15.875,-35.25,106.9375,-4.57,-1.56,10.01
1541002849825512886,511,0,/imu_data_acquisition2,69312.0,-6.103515625e-05,-6.103515625e-05,-6.103515625e-05,0.972534179688,24.5625,-35.625,91.0625,-4.52,-1.24,-0.01
1541002849838426113,512,0,/imu_data_acquisition2,69325.0,0.084716796875,0.20751953125,0.06005859375,0.972717285156,30.125,-36.125,72.5,-4.76,-1.25,10.93
1541002849849555015,513,0,/imu_data_acquisition2,69334.0,0.084716796875,0.20751953125,0.06005859375,0.972717285156,31.0625,-38.0,53.5,-4.72,-1.25,10.93
1541002849856343030,514,0,/imu_data_acquisition2,69344.0,0.08837890625,0.204162597656,0.0636596679688,0.972839355469,30.8125,-42.5,35.3125,-4.55,-1.07,10.61
1541002849868633985,515,0,/imu_data_acquisition2,69355.0,0.0917358398438,0.200561523438,0.0657348632812,0.97314453125,30.0,-45.5,18.0,-3.89,-0.15,9.65
1541002849878561019,516,0,/imu_data_acquisition2,69364.0,0.0947875976562,0.196899414062,0.0663452148438,0.973571777344,29.75,-45.625,3.375,-3.74,0.37,9.63
1541002849885678052,517,0,/imu_data_acquisition2,69372.0,0.0975341796875,0.193237304688,0.0657348632812,0.974060058594,28.75,-14.25,-0.0625,-3.5,0.98,-0.01
1541002849897883892,518,0,/imu_data_acquisition2,69384.0,0.100036621094,0.189636230469,0.0642700195312,0.974609375,26.125,-47.375,-12.9375,-2.56,3.22,8.7
1541002849951416969,519,0,/imu_data_acquisition2,69394.0,0.102233886719,0.18603515625,0.0623779296875,0.975219726562,21.25,-46.1875,-13.625,-2.32,3.71,8.78
1541002849957634925,521,0,/imu_data_acquisition2,69416.0,0.1064453125,0.175415039062,0.0582885742188,0.976989746094,10.5625,-44.125,-2.75,-1.87,4.7,8.83
1541002849962043046,522,0,/imu_data_acquisition2,69423.0,-6.103515625e-05,-6.103515625e-05,-6.103515625e-05,0.976989746094,10.5625,-44.125,-2.75,-1.93,4.51,8.56
1541002849965369939,523,0,/imu_data_acquisition2,69433.0,0.107238769531,0.171691894531,-6.103515625e-05,0.9775390625,4.75,-43.625,16.25,-2.12,4.65,8.5
1541002849967600107,524,0,/imu_data_acquisition2,69445.0,0.108093261719,0.16796875,0.0592041015625,0.97802734375,4.6875,-44.3125,26.125,-2.33,-0.01,-0.01
1541002849971620082,525,0,/imu_data_acquisition2,69454.0,0.109069824219,0.164123535156,0.0609130859375,0.978515625,2.75,-43.3125,35.5625,-2.58,4.44,8.14
1541002849979093074,526,0,/imu_data_acquisition2,69464.0,0.110046386719,0.160217285156,0.0634155273438,0.978881835938,0.6875,-42.5625,43.875,-2.94,4.06,8.19
1541002849985456943,527,0,/imu_data_acquisition2,69472.0,0.110900878906,0.156311035156,0.066650390625,0.979187011719,0.6875,-42.5625,43.875,-2.94,4.06,8.19
1541002849998171091,528,0,/imu_data_acquisition2,69485.0,0.11181640625,0.15234375,0.0703735351562,0.979431152344,-0.9375,-41.8125,53.75,-3.82,2.99,7.35
1541002850007671117,529,0,/imu_data_acquisition2,69494.0,0.112670898438,0.148315429688,0.074462890625,0.979675292969,-2.375,-39.625,54.5,-4.11,2.86,7.34
1541002850017658948,530,0,/imu_data_acquisition2,69504.0,0.113403320312,0.14453125,0.07861328125,0.979858398438,-3.875,-36.9375,52.875,-4.42,2.63,7.51
1541002850029402017,531,0,/imu_data_acquisition2,69516.0,0.1142578125,0.137634277344,0.08642578125,0.980041503906,-6.3125,-0.0625,-0.0625,-4.98,2.23,7.82
1541002850037441968,532,0,/imu_data_acquisition2,69524.0,0.1142578125,0.137634277344,-6.103515625e-05,0.980041503906,-8.625,-31.1875,41.8125,-5.09,2.05,7.82
1541002850047758102,533,0,/imu_data_acquisition2,69533.0,0.1142578125,-6.103515625e-05,-6.103515625e-05,0.980224609375,-10.375,-29.125,33.5,-5.38,1.91,8.11
1541002850058141946,534,0,/imu_data_acquisition2,69545.0,0.114013671875,0.131774902344,0.0923461914062,0.980346679688,-9.4375,-28.625,24.875,-5.46,2.37,8.11
1541002850068075895,535,0,/imu_data_acquisition2,69555.0,0.113708496094,0.129089355469,0.09423828125,0.980590820312,-5.0,-29.1875,17.1875,-5.3,2.65,7.69
1541002850075378894,536,0,/imu_data_acquisition2,69562.0,0.113708496094,0.12646484375,0.0953979492188,0.980834960938,-5.0,-29.1875,17.1875,-5.3,2.65,7.69
1541002850086898088,537,0,/imu_data_acquisition2,69573.0,0.114074707031,0.1240234375,0.0960693359375,0.981018066406,-0.5,-28.125,11.5,-5.22,3.46,7.34
1541002850098484039,538,0,/imu_data_acquisition2,69585.0,0.114685058594,0.121826171875,0.096435546875,0.981201171875,7.875,-22.9375,5.5625,-5.02,4.34,6.97
1541002850107887983,539,0,/imu_data_acquisition2,69594.0,0.115539550781,0.119934082031,0.0965576171875,0.981323242188,8.625,-17.8125,4.6875,-5.25,3.97,7.32
1541002850118211984,540,0,/imu_data_acquisition2,69605.0,0.116455078125,0.118469238281,0.0967407226562,0.981323242188,6.5625,-13.375,3.6875,-5.1,3.6,7.01
1541002850127865076,541,0,/imu_data_acquisition2,69614.0,0.1171875,0.117370605469,0.0968017578125,0.981384277344,6.5625,-13.375,-0.0625,-5.1,2.61,6.72
1541002850134726047,542,0,/imu_data_acquisition2,69622.0,0.117736816406,0.116638183594,0.0968627929688,0.981384277344,5.6875,-9.0,2.375,-2.54,-0.01,-0.01
1541002850147952079,543,0,/imu_data_acquisition2,69635.0,0.117980957031,0.116394042969,0.0967407226562,0.981384277344,0.4375,0.5625,-6.8125,-5.49,1.81,7.66
1541002850159506082,544,0,/imu_data_acquisition2,69645.0,0.117919921875,0.116455078125,0.09619140625,0.9814453125,-2.375,1.5,-14.5625,-6.66,5.24,6.91
1541002850166945934,545,0,/imu_data_acquisition2,69654.0,0.117614746094,0.11669921875,0.0950317382812,0.981567382812,-29.5,16.0,-29.0625,-13.29,-3.44,9.39
1541002850177061080,546,0,/imu_data_acquisition2,69664.0,0.11474609375,0.118103027344,0.0930786132812,0.98193359375,-29.5,16.0,-29.0625,-13.29,-3.44,9.39
1541002850189551115,547,0,/imu_data_acquisition2,69674.0,-6.103515625e-05,-6.103515625e-05,-6.103515625e-05,0.982849121094,-74.625,28.0625,-58.0625,-9.91,13.77,4.04
1541002850196892976,548,0,/imu_data_acquisition2,69684.0,0.100524902344,0.122131347656,0.0836181640625,0.98388671875,-84.0,24.875,-81.625,-4.26,19.17,5.98
1541002850210485935,549,0,/imu_data_acquisition2,69694.0,-6.103515625e-05,-6.103515625e-05,-6.103515625e-05,0.98486328125,-84.0,24.875,-81.625,-1.27,9.44,6.12
1541002850219741106,550,0,/imu_data_acquisition2,69706.0,0.0805053710938,0.126525878906,0.0741577148438,0.985900878906,-181.9375,45.0625,-45.9375,-4.96,-5.16,12.97
1541002850224766016,551,0,/imu_data_acquisition2,69712.0,0.0645751953125,0.129455566406,0.0725708007812,0.98681640625,-181.9375,45.0625,-45.9375,-2.4,-0.01,-0.01
1541002850239660024,552,0,/imu_data_acquisition2,69724.0,0.0499267578125,0.130737304688,0.0701293945312,0.987670898438,-166.625,24.875,-52.625,-2.45,5.85,8.59
1541002850247334957,553,0,/imu_data_acquisition2,69734.0,-6.103515625e-05,-6.103515625e-05,-6.103515625e-05,0.988708496094,-113.9375,-17.0,-68.9375,3.94,2.41,3.54
1541002850257122039,554,0,/imu_data_acquisition2,69744.0,0.0308837890625,0.12646484375,0.06103515625,0.989624023438,-99.5625,-26.0,-66.0625,-4.64,1.0,11.94
1541002850268826961,555,0,/imu_data_acquisition2,69755.0,0.0222778320312,0.126647949219,0.0581665039062,0.989990234375,-63.25,16.125,-40.875,-2.59,-0.29,10.13
1541002850277111053,556,0,/imu_data_acquisition2,69763.0,0.0164794921875,0.127746582031,0.055419921875,0.990112304688,-63.25,16.125,-40.875,-2.59,-0.29,10.13
1541002850288161993,557,0,/imu_data_acquisition2,69775.0,0.01171875,0.128723144531,0.0534057617188,0.990173339844,-30.6875,15.6875,-18.875,-4.08,-1.64,10.81
1541002850298629999,558,0,/imu_data_acquisition2,69785.0,0.00885009765625,0.1298828125,0.0521240234375,0.990112304688,-12.375,9.125,-4.5,-3.24,-1.2,-0.01
1541002850309094905,559,0,/imu_data_acquisition2,69795.0,0.00775146484375,0.130615234375,0.0519409179688,0.990051269531,-12.375,9.125,-4.5,-3.22,-0.04,10.05
1541002850317467927,560,0,/imu_data_acquisition2,69805.0,0.0079345703125,0.130676269531,0.0523681640625,0.989990234375,7.0,-2.9375,10.5,-2.48,0.99,9.91
1541002850326900005,561,0,/imu_data_acquisition2,69814.0,0.00860595703125,0.130432128906,0.05322265625,0.989990234375,7.0,-2.9375,10.5,-2.48,0.99,9.91
1541002850337650060,562,0,/imu_data_acquisition2,69822.0,0.00933837890625,0.130065917969,0.053955078125,0.989990234375,6.5,-5.0,10.25,-2.29,1.23,9.62
1541002850347290039,563,0,/imu_data_acquisition2,69835.0,0.009765625,0.129699707031,0.0545043945312,0.989990234375,-0.1875,-2.625,3.5625,-2.41,1.11,9.71
1541002850358622074,564,0,/imu_data_acquisition2,69845.0,-6.103515625e-05,-6.103515625e-05,-6.103515625e-05,0.989990234375,-0.1875,-2.625,3.5625,-2.92,0.77,-0.01
1541002850369667053,565,0,/imu_data_acquisition2,69855.0,0.00946044921875,0.129333496094,0.0548706054688,0.990051269531,-3.6875,-1.875,0.25,-2.72,0.66,9.7
1541002850376734972,566,0,/imu_data_acquisition2,69863.0,0.00897216796875,0.129150390625,0.0548095703125,0.990051269531,-6.1875,-2.0625,-1.75,-2.72,0.66,9.7
1541002850388684988,567,0,/imu_data_acquisition2,69874.0,0.00830078125,0.12890625,0.0546264648438,0.990112304688,-7.875,-2.5,-2.8125,-2.74,0.49,9.5
1541002850399100065,568,0,/imu_data_acquisition2,69885.0,0.007568359375,0.128601074219,0.054443359375,0.990173339844,-8.5,-2.5,-3.4375,-2.48,0.14,9.59
1541002850408267021,569,0,/imu_data_acquisition2,69895.0,0.0068359375,0.12841796875,0.05419921875,0.990234375,-7.125,-2.5625,-3.125,-2.82,0.21,9.48
1541002850418363094,570,0,/imu_data_acquisition2,69905.0,0.0062255859375,0.128173828125,0.0540161132812,0.990234375,-7.125,-2.5625,-3.125,-2.64,0.2,9.54
1541002850427356958,571,0,/imu_data_acquisition2,69913.0,0.0057373046875,0.127990722656,0.0538940429688,0.990295410156,-5.5625,-1.8125,-2.5,-2.64,0.2,9.54
1541002850437076091,572,0,/imu_data_acquisition2,69924.0,0.00531005859375,0.127746582031,0.0537719726562,0.990356445312,-4.6875,-2.125,-2.0625,-2.71,0.35,9.84
1541002850448856115,573,0,/imu_data_acquisition2,69935.0,0.0050048828125,0.127624511719,0.0536499023438,0.990356445312,-4.0,-1.8125,-1.6875,-2.74,0.29,9.7
1541002850459533929,574,0,/imu_data_acquisition2,69945.0,0.0047607421875,0.12744140625,0.0535888671875,0.990356445312,-3.125,-2.0625,-1.3125,-2.41,0.16,9.7
1541002850468524932,575,0,/imu_data_acquisition2,69956.0,0.0045166015625,0.127197265625,0.0535278320312,0.990417480469,-2.5625,-2.8125,-0.8125,-2.81,0.16,-0.01
1541002850476458072,576,0,/imu_data_acquisition2,69962.0,0.00439453125,0.126953125,0.0535278320312,0.990478515625,-1.875,-3.125,-0.3125,-2.81,0.16,9.94
1541002850487637042,577,0,/imu_data_acquisition2,69974.0,0.00433349609375,0.126647949219,0.0535888671875,0.990478515625,-0.75,-3.8125,0.25,-2.61,0.11,9.79
1541002850497806072,578,0,/imu_data_acquisition2,69984.0,0.00433349609375,0.126342773438,0.0536499023438,0.990539550781,0.4375,-4.625,-0.0625,-2.66,0.21,-0.01
1541002850508328914,579,0,/imu_data_acquisition2,69995.0,0.00445556640625,0.1259765625,0.0538330078125,0.990539550781,1.0,-4.8125,-0.0625,-2.77,0.14,9.69
1541002850519625902,580,0,/imu_data_acquisition2,70006.0,0.004638671875,0.125610351562,0.0540161132812,0.990600585938,2.625,-6.75,-0.0625,-2.78,0.3,9.77
1541002850527596950,581,0,/imu_data_acquisition2,70014.0,0.0048828125,0.125122070312,0.0543212890625,0.990661621094,2.625,-6.75,3.8125,-2.78,0.3,9.77
1541002850534791946,582,0,/imu_data_acquisition2,70022.0,0.0052490234375,0.124572753906,0.0546875,0.99072265625,3.1875,-7.75,4.5625,-2.59,0.35,-0.01
1541002850546442985,583,0,/imu_data_acquisition2,70033.0,0.0057373046875,0.124084472656,0.0550537109375,0.99072265625,3.75,-7.6875,5.1875,-2.97,0.47,9.69
1541002850560599088,584,0,/imu_data_acquisition2,70045.0,0.006103515625,0.12353515625,0.0554809570312,0.990783691406,3.5,-7.25,-0.0625,-2.38,0.57,9.51
1541002850568133115,585,0,/imu_data_acquisition2,70055.0,0.00653076171875,0.122863769531,0.0559692382812,0.990844726562,3.8125,-8.25,5.9375,-2.67,1.04,9.05
1541002850577908992,586,0,/imu_data_acquisition2,70063.0,0.00689697265625,0.122131347656,0.0563354492188,0.990905761719,3.4375,-8.25,5.1875,-2.67,1.04,9.05
1541002850587825059,587,0,/imu_data_acquisition2,70073.0,0.007080078125,0.12158203125,-6.103515625e-05,0.990966796875,0.875,-7.125,2.625,-2.62,0.73,9.49
1541002850603399038,588,0,/imu_data_acquisition2,70085.0,0.00701904296875,0.120910644531,0.056640625,0.991027832031,-1.25,-8.0,1.375,-2.22,0.06,9.16
1541002850609955072,589,0,/imu_data_acquisition2,70096.0,0.0069580078125,0.120361328125,0.0569458007812,0.991088867188,-1.0,-6.4375,2.9375,-2.32,0.41,9.32
1541002850620721101,590,0,/imu_data_acquisition2,70106.0,0.00701904296875,0.1201171875,-6.103515625e-05,0.991088867188,-0.1875,-2.5625,0.9375,-2.85,0.41,-0.01
1541002850625070095,591,0,/imu_data_acquisition2,70112.0,0.00701904296875,-6.103515625e-05,-6.103515625e-05,0.991088867188,-0.5,0.9375,0.5625,-2.85,0.41,9.91
1541002850636687040,592,0,/imu_data_acquisition2,70123.0,0.00701904296875,0.120422363281,0.0570678710938,0.991088867188,-0.1875,2.3125,0.75,-2.49,0.32,9.8
1541002850649566888,593,0,/imu_data_acquisition2,70135.0,0.0069580078125,0.120544433594,-6.103515625e-05,0.991027832031,0.375,2.125,0.9375,-2.78,0.58,9.74
1541002850659794092,594,0,/imu_data_acquisition2,70146.0,0.0069580078125,0.120788574219,0.0571899414062,0.991027832031,0.0625,2.375,0.625,-2.64,0.36,9.64
1541002850671212911,595,0,/imu_data_acquisition2,70158.0,0.0069580078125,0.120849609375,0.0571899414062,0.990966796875,-0.1875,1.0,0.3125,-2.99,0.44,10.1
1541002850676770925,596,0,/imu_data_acquisition2,70162.0,0.0069580078125,0.120849609375,0.0571899414062,0.990966796875,-0.1875,0.375,0.125,-2.99,0.44,10.1
1541002850688697099,597,0,/imu_data_acquisition2,70176.0,0.00701904296875,0.120849609375,0.0571899414062,0.991027832031,-0.125,-0.625,0.3125,-2.45,0.53,9.41
1541002850702397108,598,0,/imu_data_acquisition2,70187.0,0.007080078125,0.120910644531,0.0571899414062,0.990966796875,0.375,0.0625,0.375,-2.48,0.39,9.56
1541002850712166070,599,0,/imu_data_acquisition2,70197.0,0.00714111328125,-6.103515625e-05,-6.103515625e-05,0.990966796875,0.125,-0.1875,-0.0625,-2.5,0.43,9.66
1541002850718528985,600,0,/imu_data_acquisition2,70206.0,0.007080078125,0.120910644531,-6.103515625e-05,0.990966796875,-0.8125,-0.25,-0.375,-2.5,0.43,9.66
1541002850729664087,601,0,/imu_data_acquisition2,70213.0,0.0069580078125,0.120910644531,0.0571899414062,0.990966796875,-1.5625,-0.25,-0.75,-2.47,0.45,-0.01
1541002850736679077,602,0,/imu_data_acquisition2,70222.0,0.00677490234375,0.120910644531,0.05712890625,0.990966796875,-1.875,0.5,-1.125,-2.45,0.47,-0.01
1541002850745409011,603,0,/imu_data_acquisition2,70232.0,0.00665283203125,-6.103515625e-05,-6.103515625e-05,0.990966796875,-2.625,1.0625,-1.9375,-2.62,0.51,9.51
1541002850759413003,604,0,/imu_data_acquisition2,70246.0,0.00634765625,0.121276855469,0.0568237304688,0.990966796875,-3.4375,1.5625,-0.0625,-2.93,0.44,9.52
1541002850772794961,605,0,/imu_data_acquisition2,70257.0,0.00616455078125,0.12158203125,0.056640625,0.990966796875,-3.5625,1.0625,-2.5,-2.93,0.44,9.52
1541002850777463912,606,0,/imu_data_acquisition2,70265.0,0.00579833984375,0.121704101562,0.0565185546875,0.990966796875,-3.625,1.875,-2.375,-2.75,0.26,9.72
1541002850787472963,607,0,/imu_data_acquisition2,70274.0,0.0054931640625,0.121826171875,0.0563354492188,0.990966796875,-3.5,1.375,-2.25,-2.8,0.41,-0.01
1541002850796658992,608,0,/imu_data_acquisition2,70282.0,0.00518798828125,0.121948242188,0.0562133789062,0.990905761719,-3.0,1.6875,-2.0625,-2.72,0.26,9.84
1541002850808825969,609,0,/imu_data_acquisition2,70296.0,0.00494384765625,0.122131347656,0.0560913085938,0.990905761719,-2.875,1.0,-2.0,-2.65,0.35,9.64
1541002850821410894,610,0,/imu_data_acquisition2,70307.0,0.0047607421875,0.122253417969,0.0559692382812,0.990905761719,-2.5,0.625,-0.0625,-2.76,0.5,9.59
1541002850827698945,611,0,/imu_data_acquisition2,70313.0,0.004638671875,0.122436523438,0.0558471679688,0.990905761719,-2.5625,0.5,-1.75,-2.76,0.5,9.59
1541002850836045980,612,0,/imu_data_acquisition2,70323.0,0.00445556640625,0.122619628906,0.0557250976562,0.990905761719,-2.375,1.5625,-0.0625,-2.47,0.25,-0.01
1541002850848464965,613,0,/imu_data_acquisition2,70334.0,0.00421142578125,0.122619628906,0.0556030273438,0.990905761719,-2.5625,0.6875,-1.9375,-2.17,-0.01,-0.01
1541002850859522104,614,0,/imu_data_acquisition2,70346.0,0.00396728515625,-6.103515625e-05,-6.103515625e-05,0.990905761719,-2.1875,1.1875,-0.0625,-2.42,0.16,9.67
1541002850868052005,615,0,/imu_data_acquisition2,70355.0,0.0037841796875,0.122863769531,0.0552978515625,0.990905761719,-2.4375,1.5625,-2.25,-2.42,0.16,9.67
1541002850876450061,616,0,/imu_data_acquisition2,70362.0,0.0035400390625,0.123046875,0.0551147460938,0.990844726562,-2.5625,1.5625,-2.375,-2.7,0.44,9.68
1541002850886223077,617,0,/imu_data_acquisition2,70373.0,0.00335693359375,-6.103515625e-05,-6.103515625e-05,0.990844726562,-2.4375,2.0,-2.5,-2.58,0.21,9.91
1541002850896008968,618,0,/imu_data_acquisition2,70383.0,0.00311279296875,0.123474121094,0.0547485351562,0.990844726562,-2.375,2.3125,-0.0625,-2.52,0.34,9.54
1541002850906800985,619,0,/imu_data_acquisition2,70393.0,0.0029296875,0.123718261719,0.0545043945312,0.990783691406,-2.375,3.0,-3.0,-2.56,0.23,9.52
1541002851019062995,620,0,/imu_data_acquisition2,70404.0,0.002685546875,0.1240234375,0.0542602539062,0.990783691406,-2.375,3.4375,-3.375,-2.25,0.21,9.56
1541002851034528017,623,0,/imu_data_acquisition2,70432.0,0.001953125,0.124877929688,0.0534057617188,0.99072265625,-2.25,3.625,-4.0625,-2.12,0.59,9.6
1541002851036314964,624,0,/imu_data_acquisition2,70443.0,0.00164794921875,0.125183105469,0.0530395507812,0.99072265625,-2.6875,3.6875,-4.1875,-2.3,-0.67,9.56
1541002851037455081,625,0,/imu_data_acquisition2,70454.0,0.0013427734375,0.125610351562,0.052734375,0.990661621094,-2.5,5.375,-0.0625,-4.1,0.21,10.93
1541002851038530111,626,0,/imu_data_acquisition2,70462.0,0.0009765625,0.126342773438,0.0523681640625,0.990600585938,-3.4375,9.0,-4.6875,-1.54,1.36,7.67
1541002851040317058,627,0,/imu_data_acquisition2,70473.0,0.00067138671875,0.126892089844,0.0519409179688,0.990539550781,-2.5625,6.25,-5.3125,-3.22,-0.04,11.8
1541002851041707992,628,0,/imu_data_acquisition2,70482.0,0.00048828125,0.127563476562,0.051513671875,0.990478515625,-1.125,8.4375,-5.125,-1.08,-0.01,-0.01
1541002851048198938,629,0,/imu_data_acquisition2,70495.0,0.00042724609375,0.128234863281,0.0510864257812,0.990417480469,0.5625,8.0625,-5.375,-2.31,0.21,9.4
1541002851049444913,630,0,/imu_data_acquisition2,70502.0,0.00042724609375,0.129150390625,0.0505981445312,0.990356445312,1.5625,10.6875,-5.375,-2.45,-0.11,9.69
1541002851051280021,631,0,/imu_data_acquisition2,70512.0,0.00054931640625,0.130065917969,0.0501098632812,0.990234375,2.625,-0.0625,-0.0625,-2.22,0.32,9.9
1541002851053263902,632,0,/imu_data_acquisition2,70522.0,0.000732421875,0.130981445312,0.049560546875,0.990112304688,3.625,10.8125,-5.75,-1.96,0.28,9.61
1541002851056660890,633,0,/imu_data_acquisition2,70532.0,0.0009765625,0.131958007812,0.0490112304688,0.990051269531,4.3125,11.1875,-6.4375,-2.16,0.4,9.55
1541002851063299894,634,0,/imu_data_acquisition2,70542.0,0.00128173828125,0.132751464844,0.04833984375,0.989990234375,3.8125,-0.0625,-0.0625,-2.09,0.23,-0.01
1541002851067987918,635,0,/imu_data_acquisition2,70553.0,0.00140380859375,0.133850097656,0.0474243164062,0.989868164062,3.5,15.5625,-10.1875,-2.29,0.03,9.71
1541002851075860023,636,0,/imu_data_acquisition2,70562.0,0.001220703125,0.135009765625,0.04638671875,0.98974609375,1.6875,17.875,-12.25,-2.23,-0.01,-0.01
1541002851088076114,637,0,/imu_data_acquisition2,70575.0,0.00115966796875,0.137023925781,0.045166015625,0.989562988281,2.0625,23.375,-14.0625,-2.46,-0.29,9.53
1541002851095393896,638,0,/imu_data_acquisition2,70582.0,0.0010986328125,-6.103515625e-05,-6.103515625e-05,0.989318847656,2.0625,23.375,-14.0625,-3.14,-0.17,10.02
1541002851108601093,639,0,/imu_data_acquisition2,70596.0,0.00128173828125,0.14111328125,0.042724609375,0.989074707031,5.0,25.75,-14.1875,-2.6,0.3,9.43
1541002851118963956,640,0,/imu_data_acquisition2,70602.0,0.00152587890625,0.143493652344,0.04150390625,0.98876953125,6.3125,27.4375,-13.75,-2.77,0.23,9.47
1541002851126909971,641,0,/imu_data_acquisition2,70614.0,0.0018310546875,0.145935058594,0.0403442382812,0.988464355469,7.0625,29.0,-12.8125,-2.9,0.2,9.86
1541002851137356042,642,0,/imu_data_acquisition2,70623.0,0.002197265625,0.148193359375,-6.103515625e-05,0.988159179688,6.25,26.9375,-9.4375,-3.71,0.68,9.76
1541002851152406930,643,0,/imu_data_acquisition2,70635.0,0.00250244140625,0.150451660156,0.0388793945312,0.987854003906,5.9375,27.0,-6.1875,-2.96,0.12,9.57
1541002851165381908,644,0,/imu_data_acquisition2,70651.0,0.0030517578125,0.153015136719,0.0382080078125,0.987487792969,9.6875,30.1875,-5.875,-2.99,0.02,-0.01
1541002851171873092,645,0,/imu_data_acquisition2,70659.0,0.003662109375,0.155517578125,0.03759765625,0.987121582031,11.625,32.5,-4.75,-2.97,0.04,9.43
1541002851175622940,646,0,/imu_data_acquisition2,70663.0,0.00445556640625,0.158264160156,0.0370483398438,0.986694335938,11.625,32.5,-4.75,-2.97,0.04,-0.01
1541002851187696933,647,0,/imu_data_acquisition2,70675.0,0.0054931640625,0.1611328125,0.0365600585938,0.986267089844,13.8125,33.1875,-3.8125,-3.02,0.06,9.6
1541002851198750972,648,0,/imu_data_acquisition2,70683.0,0.00665283203125,0.1640625,0.0360717773438,0.985778808594,16.3125,35.1875,-0.0625,-2.98,-0.06,9.51
1541002851206520080,649,0,/imu_data_acquisition2,70692.0,0.0079345703125,0.167175292969,0.0354614257812,0.985229492188,20.0625,38.9375,-3.4375,-2.99,-0.17,9.41
1541002851218599081,650,0,/imu_data_acquisition2,70706.0,0.0093994140625,0.170471191406,0.03466796875,0.984680175781,24.4375,43.0625,-0.0625,-2.85,-0.26,9.42
1541002851228507995,651,0,/imu_data_acquisition2,70713.0,0.0115966796875,0.174621582031,0.0335693359375,0.984008789062,29.625,48.5625,-8.1875,-2.98,-0.52,9.48
1541002851235073089,652,0,/imu_data_acquisition2,70722.0,0.0143432617188,0.179321289062,0.0321044921875,0.983154296875,36.8125,54.9375,-11.9375,-0.73,-0.01,-0.01
1541002851245995998,653,0,/imu_data_acquisition2,70733.0,0.0173950195312,0.184326171875,0.0301513671875,0.982238769531,41.6875,58.625,-0.0625,-3.26,-0.34,9.26
1541002851257453918,654,0,/imu_data_acquisition2,70743.0,0.020751953125,0.189575195312,0.027587890625,0.981262207031,47.125,61.625,-22.625,-0.76,-0.01,-0.01
1541002851265008926,655,0,/imu_data_acquisition2,70752.0,0.0244140625,0.195129394531,0.0244750976562,0.980163574219,51.6875,64.75,-29.3125,-3.63,-0.22,9.31
1541002851276755094,656,0,/imu_data_acquisition2,70763.0,0.0284423828125,0.200805664062,0.0206909179688,0.97900390625,57.25,66.5625,-36.0,-3.63,-0.01,9.55
1541002851286556005,657,0,/imu_data_acquisition2,70773.0,0.0325927734375,0.206726074219,0.016357421875,0.977722167969,60.125,68.9375,-41.625,-3.44,1.45,9.11
1541002851294739961,658,0,/imu_data_acquisition2,70782.0,0.0361938476562,0.212890625,0.0117797851562,0.976318359375,54.9375,-0.0625,-0.0625,-0.96,-0.01,-0.01
1541002851318655967,660,0,/imu_data_acquisition2,70803.0,0.0446166992188,0.226318359375,0.00140380859375,0.973022460938,61.3125,81.4375,-52.9375,-3.7,0.57,9.46
1541002851326097011,661,0,/imu_data_acquisition2,70813.0,0.0484619140625,0.233154296875,-0.0037841796875,0.971252441406,59.0,80.5,-53.0625,-4.28,-0.5,10.31
1541002851338025093,662,0,/imu_data_acquisition2,70823.0,0.0525512695312,0.239318847656,-0.00897216796875,0.969482421875,62.25,72.5625,-51.6875,-4.02,-0.25,10.31
1541002851346828937,663,0,/imu_data_acquisition2,70832.0,-6.103515625e-05,-6.103515625e-05,-6.103515625e-05,0.967895507812,63.6875,60.4375,-0.0625,-2.94,0.35,11.19
1541002851356599092,664,0,/imu_data_acquisition2,70843.0,0.060546875,0.248657226562,-0.0191650390625,0.966491699219,57.6875,49.75,-0.0625,-1.44,1.15,10.89
1541002851367710113,665,0,/imu_data_acquisition2,70853.0,0.0632934570312,0.252136230469,-0.0236206054688,0.96533203125,44.875,40.625,-45.9375,-0.16,2.09,11.89
1541002851377068996,666,0,/imu_data_acquisition2,70863.0,0.06591796875,0.25439453125,-0.0276489257812,0.964477539062,42.25,-0.0625,-0.0625,-0.03,0.08,-0.01
1541002851386275053,667,0,/imu_data_acquisition2,70873.0,0.0679321289062,0.255493164062,-0.031005859375,0.963928222656,32.625,-0.0625,-0.0625,-0.14,-0.6,14.05
1541002851397250890,668,0,/imu_data_acquisition2,70883.0,0.0692138671875,0.255249023438,-0.0336303710938,0.963806152344,23.0625,-4.4375,-25.8125,0.95,-0.01,-0.01
1541002851405201911,669,0,/imu_data_acquisition2,70892.0,0.0699462890625,0.253967285156,-6.103515625e-05,0.964050292969,13.0625,-16.3125,-13.1875,0.99,2.5,13.29
1541002851417280912,670,0,/imu_data_acquisition2,70904.0,0.0702514648438,0.251647949219,-0.0350341796875,0.964599609375,3.3125,-27.375,3.9375,0.57,3.92,14.02
1541002851428884029,671,0,/imu_data_acquisition2,70912.0,0.0706787109375,0.248107910156,-0.033203125,0.965576171875,0.1875,-41.75,25.375,0.99,4.93,12.21
1541002851436888933,672,0,/imu_data_acquisition2,70923.0,0.071533203125,-6.103515625e-05,-6.103515625e-05,0.966735839844,-0.25,-50.0625,47.8125,0.15,5.16,12.09
1541002851447216987,673,0,/imu_data_acquisition2,70934.0,0.0726318359375,0.238708496094,-0.024169921875,0.968078613281,-2.1875,-56.0625,70.0625,-0.69,6.01,10.13
1541002851456552028,674,0,/imu_data_acquisition2,70942.0,0.073974609375,0.233764648438,-6.103515625e-05,0.969299316406,-4.1875,-54.0,89.9375,-1.73,5.8,10.29
1541002851469439029,675,0,/imu_data_acquisition2,70956.0,0.0757446289062,0.228820800781,-0.008544921875,0.970458984375,-3.625,-52.125,107.0625,-2.43,4.88,9.79
1541002851477591991,676,0,/imu_data_acquisition2,70964.0,0.0780639648438,0.224060058594,0.000732421875,0.971435546875,1.5,-49.0,116.875,-4.32,1.04,9.69
1541002851487133979,677,0,/imu_data_acquisition2,70972.0,0.0810546875,0.219482421875,-6.103515625e-05,0.972229003906,9.3125,-46.3125,116.1875,-4.79,0.25,9.27
1541002851497780084,678,0,/imu_data_acquisition2,70984.0,0.08447265625,0.215148925781,0.0178833007812,0.972778320312,17.5625,-43.6875,106.125,-2.32,-0.01,-0.01
1541002851507836103,679,0,/imu_data_acquisition2,70995.0,0.0883178710938,0.211181640625,0.0245361328125,0.97314453125,26.3125,-40.8125,90.3125,-5.02,-1.49,9.62
1541002851514502048,680,0,/imu_data_acquisition2,71002.0,0.0928344726562,0.207336425781,0.0294799804688,0.973388671875,37.8125,-41.0,72.25,-4.88,-1.63,9.99
1541002851527493000,681,0,/imu_data_acquisition2,71014.0,0.0977172851562,0.203430175781,0.0327758789062,0.9736328125,46.875,-43.8125,54.625,-4.85,-0.68,10.36
1541002851536974906,682,0,/imu_data_acquisition2,71023.0,-6.103515625e-05,-6.103515625e-05,-6.103515625e-05,0.973937988281,47.875,-15.125,-0.0625,-4.74,-0.46,10.57
1541002851548563957,683,0,/imu_data_acquisition2,71034.0,0.106628417969,0.195251464844,0.0353393554688,0.974304199219,44.625,-48.75,21.8125,-4.33,0.24,9.97
1541002851556155920,684,0,/imu_data_acquisition2,71043.0,0.110046386719,0.191284179688,0.034912109375,0.974731445312,38.0625,-49.0,7.6875,-4.0,0.36,9.7
1541002851569762945,685,0,/imu_data_acquisition2,71056.0,0.112731933594,0.187377929688,0.0336303710938,0.975219726562,31.5625,-49.125,-3.375,-3.73,0.79,-0.01
1541002851575177907,686,0,/imu_data_acquisition2,71062.0,0.114929199219,0.183288574219,0.031982421875,0.975769042969,26.6875,-0.0625,-0.0625,-2.75,2.27,9.86
1541002851587280035,687,0,/imu_data_acquisition2,71073.0,0.116638183594,0.17919921875,0.0303955078125,0.976379394531,20.5,-51.6875,-9.5,-2.38,2.9,9.5
1541002851596107959,688,0,/imu_data_acquisition2,71083.0,0.117919921875,0.175109863281,0.0291748046875,0.97705078125,14.75,-0.0625,-0.0625,-2.0,3.57,9.12
1541002851605612993,689,0,/imu_data_acquisition2,71092.0,0.118896484375,0.171020507812,0.0287475585938,0.977661132812,10.1875,-49.1875,2.375,-1.5,4.5,8.99
1541002851616661071,690,0,/imu_data_acquisition2,71103.0,0.119689941406,0.1669921875,0.029296875,0.978210449219,6.0625,-47.6875,13.125,-1.54,4.85,9.16
1541002851628932952,691,0,/imu_data_acquisition2,71113.0,0.120300292969,0.162841796875,0.0309448242188,0.978820800781,1.5,-46.8125,25.875,-1.34,4.9,9.01
1541002851635176897,692,0,/imu_data_acquisition2,71122.0,-6.103515625e-05,-6.103515625e-05,-6.103515625e-05,0.979370117188,-2.0625,-14.125,-0.0625,-1.61,4.67,9.38
1541002851651957988,693,0,/imu_data_acquisition2,71133.0,0.121276855469,0.154235839844,0.0374145507812,0.979858398438,-3.5,-46.9375,50.3125,-1.85,4.43,9.01
1541002851657157897,694,0,/imu_data_acquisition2,71143.0,-6.103515625e-05,-6.103515625e-05,-6.103515625e-05,0.980285644531,-4.0,-47.0,60.625,-2.09,4.05,8.78
1541002851666277885,695,0,/imu_data_acquisition2,71153.0,-6.103515625e-05,-6.103515625e-05,-6.103515625e-05,0.980651855469,-3.5,-45.8125,68.75,-2.47,3.84,8.8
1541002851676913976,696,0,/imu_data_acquisition2,71163.0,0.123413085938,0.140625,0.052978515625,0.980895996094,-3.875,-45.25,74.375,-3.25,3.16,8.81
1541002851687987089,697,0,/imu_data_acquisition2,71175.0,0.124145507812,0.136108398438,0.0588989257812,0.981140136719,-4.5625,-0.0625,-0.0625,-1.08,-0.01,-0.01
1541002851697448968,698,0,/imu_data_acquisition2,71184.0,0.124694824219,0.131652832031,0.0648193359375,0.981262207031,-6.3125,-43.6875,75.5,-3.87,2.61,8.53
1541002851706517934,699,0,/imu_data_acquisition2,71193.0,0.124938964844,0.127380371094,0.0703735351562,0.9814453125,-9.125,-41.6875,71.75,-4.53,2.14,8.4
1541002851728460073,701,0,/imu_data_acquisition2,71215.0,0.124328613281,0.119567871094,0.079833984375,0.981750488281,-15.375,-37.6875,55.0,-5.03,1.51,8.33
1541002851736264944,702,0,/imu_data_acquisition2,71222.0,0.123657226562,0.116027832031,0.0831909179688,0.981994628906,-16.4375,-35.75,42.8125,-5.24,1.29,8.03
1541002851748532056,703,0,/imu_data_acquisition2,71235.0,0.122863769531,0.11279296875,0.08544921875,0.982299804688,-16.1875,-34.0,29.5625,-5.23,1.4,7.86
1541002851758016109,704,0,/imu_data_acquisition2,71244.0,0.1220703125,0.10986328125,0.0866088867188,0.982604980469,-13.625,-32.3125,16.9375,-5.25,1.64,7.95
1541002851766429901,705,0,/imu_data_acquisition2,71252.0,-6.103515625e-05,-6.103515625e-05,-6.103515625e-05,0.982971191406,-8.6875,-31.625,5.3125,-5.28,1.89,8.27
1541002851776058912,706,0,/imu_data_acquisition2,71263.0,0.121520996094,0.104370117188,0.0861206054688,0.983337402344,-3.9375,-33.125,-4.5,-4.93,3.11,7.85
