%time,field.header.seq,field.header.stamp,field.header.frame_id,field.time_stamp,field.quat_x,field.quat_y,field.quat_z,field.quat_w,field.gyro_x,field.gyro_y,field.gyro_z,field.accel_x,field.accel_y,field.accel_z
1540942510023502111,1,0,/imu_data_acquisition2,8630.0,0.0558471679688,-0.138061523438,0.832153320312,0.534240722656,-1.875,3.75,-0.0625,3.04,-1.85,8.71
1540942510030524015,2,0,/imu_data_acquisition2,8639.0,0.0554809570312,-0.137878417969,0.832092285156,0.534362792969,-0.875,4.9375,-0.0625,2.38,-1.77,9.57
1540942510040312051,3,0,/imu_data_acquisition2,8649.0,0.0551147460938,-0.137817382812,0.831970214844,0.534545898438,-2.125,3.9375,-1.625,2.55,-1.89,9.05
1540942510050091028,4,0,/imu_data_acquisition2,8659.0,0.0547485351562,-0.0127563476562,-6.103515625e-05,0.534729003906,-1.5625,4.0625,-1.25,2.56,-1.57,9.33
1540942510060357093,5,0,/imu_data_acquisition2,8669.0,0.054443359375,-0.0126953125,-6.103515625e-05,0.534851074219,-1.4375,3.5625,-0.0625,2.62,-1.62,9.09
1540942510070183992,6,0,/imu_data_acquisition2,8679.0,0.0541381835938,-0.137634277344,0.831909179688,0.534851074219,-1.5,3.6875,-0.4375,2.54,-1.64,9.32
1540942510080239057,7,0,/imu_data_acquisition2,8689.0,0.053955078125,-0.137634277344,0.831848144531,0.534912109375,-1.125,3.5625,-0.0625,2.68,-1.64,9.09
1540942510090002059,8,0,/imu_data_acquisition2,8699.0,0.0538330078125,-0.137634277344,0.831848144531,0.534973144531,-1.1875,3.25,0.25,2.51,-1.66,9.45
1540942510099982023,9,0,/imu_data_acquisition2,8709.0,0.0537719726562,-0.137634277344,0.831848144531,0.535034179688,-0.6875,2.9375,0.375,2.69,-1.52,9.16
1540942510110574960,10,0,/imu_data_acquisition2,8719.0,0.0538330078125,-0.1376953125,0.831787109375,0.535034179688,-0.5625,2.8125,0.6875,2.81,-1.65,9.22
1540942510120268106,11,0,/imu_data_acquisition2,8729.0,0.053955078125,-0.137817382812,0.831787109375,0.534973144531,-1.0625,2.4375,0.8125,2.77,-1.62,9.16
1540942510130896091,12,0,/imu_data_acquisition2,8739.0,0.0538940429688,-0.137817382812,0.831848144531,0.534973144531,-0.4375,3.625,1.125,2.61,-1.7,9.23
1540942510140613079,13,0,/imu_data_acquisition2,8749.0,0.0537719726562,-0.137817382812,0.831909179688,0.534851074219,-0.25,3.875,1.5625,2.68,-1.87,9.34
1540942510157810926,14,0,/imu_data_acquisition2,8763.0,0.053955078125,-0.137512207031,0.831909179688,0.534851074219,2.625,4.0625,1.25,2.75,-1.19,8.96
1540942510162281990,15,0,/imu_data_acquisition2,8771.0,0.0537719726562,-0.137390136719,0.83203125,0.534729003906,-0.0625,5.4375,2.4375,2.6,-1.73,9.41
1540942510173271894,16,0,/imu_data_acquisition2,8781.0,0.0537109375,-0.137329101562,0.832153320312,0.534606933594,-0.9375,5.375,3.375,2.83,-1.36,9.35
1540942510184932947,17,0,/imu_data_acquisition2,8791.0,0.0537719726562,-0.137329101562,0.832275390625,0.534423828125,-0.25,5.0,3.8125,2.85,-1.72,9.18
1540942510192445039,18,0,/imu_data_acquisition2,8801.0,0.0536499023438,-0.137573242188,0.832458496094,0.534057617188,-2.1875,5.3125,6.0,2.92,-1.8,9.24
1540942510200701951,19,0,/imu_data_acquisition2,8809.0,0.0534057617188,-0.137634277344,0.832641601562,0.533752441406,-1.9375,5.75,5.625,2.66,-1.56,9.33
1540942510224812984,21,0,/imu_data_acquisition2,8832.0,0.0521240234375,-0.137451171875,0.833068847656,0.533264160156,-4.875,10.3125,5.6875,2.35,-2.0,9.47
1540942510236232042,22,0,/imu_data_acquisition2,8839.0,0.0513916015625,-0.0123901367188,-6.103515625e-05,0.533020019531,-3.75,11.375,6.25,2.74,-1.46,8.84
1540942510252923965,24,0,/imu_data_acquisition2,8861.0,0.0489501953125,-0.13720703125,0.833801269531,0.532531738281,-8.5,15.8125,6.4375,2.4,-1.64,9.11
1540942510264388084,25,0,/imu_data_acquisition2,8869.0,0.0473022460938,-0.13720703125,0.833984375,0.532348632812,-10.1875,16.875,6.25,2.2,-1.6,9.33
1540942510271836996,26,0,/imu_data_acquisition2,8880.0,0.04541015625,-0.137329101562,0.834228515625,0.532104492188,-12.6875,17.4375,7.0,2.12,-1.73,9.45
1540942510282061100,27,0,/imu_data_acquisition2,8890.0,0.0435791015625,-0.137512207031,0.83447265625,0.531799316406,-12.75,17.25,7.5625,2.43,-1.44,9.07
1540942510291887044,28,0,/imu_data_acquisition2,8899.0,-6.103515625e-05,-6.103515625e-05,-6.103515625e-05,0.531494140625,-15.1875,18.9375,-0.0625,1.93,-1.84,9.76
1540942510314006090,30,0,/imu_data_acquisition2,8922.0,0.0368041992188,-0.138732910156,0.83544921875,0.530456542969,-19.625,19.875,12.25,2.02,-1.94,9.27
1540942510322005033,31,0,/imu_data_acquisition2,8929.0,0.0343017578125,-0.139343261719,0.835876464844,0.529846191406,-21.0,20.375,13.125,2.24,-1.84,9.34
1540942510333673000,32,0,/imu_data_acquisition2,8940.0,0.0316162109375,-0.139892578125,0.836303710938,0.529113769531,-22.125,22.0625,14.6875,1.86,-1.66,9.62
1540942510343377113,33,0,/imu_data_acquisition2,8950.0,0.028564453125,-0.0155029296875,-6.103515625e-05,0.528259277344,-24.25,25.4375,17.8125,2.13,-2.11,9.09
1540942510350518941,34,0,/imu_data_acquisition2,8959.0,-6.103515625e-05,-6.103515625e-05,-6.103515625e-05,0.527160644531,-26.625,27.625,21.25,2.24,-2.21,9.02
1540942510362976074,35,0,/imu_data_acquisition2,8970.0,0.0217895507812,-0.141540527344,0.838256835938,0.526123046875,-22.9375,33.3125,20.375,2.01,-1.81,9.32
1540942510372142076,36,0,/imu_data_acquisition2,8980.0,0.0177612304688,-0.1416015625,0.839111328125,0.52490234375,-24.375,37.9375,24.4375,2.39,-2.0,9.17
1540942510382414102,37,0,/imu_data_acquisition2,8990.0,0.01318359375,-0.140991210938,0.840087890625,0.523620605469,-20.25,47.3125,26.375,2.27,-1.63,9.41
1540942510396281003,38,0,/imu_data_acquisition2,9003.0,0.0079345703125,-0.140014648438,0.841247558594,0.522094726562,-20.5,55.3125,31.125,2.15,-1.55,9.44
1540942510404997110,39,0,/imu_data_acquisition2,9013.0,0.0018310546875,-0.138793945312,0.8427734375,0.520080566406,-23.125,65.4375,39.125,2.15,-2.27,9.24
1540942510412074089,40,0,/imu_data_acquisition2,9019.0,-0.00506591796875,-0.137023925781,0.844360351562,0.517883300781,-22.0625,76.3125,43.0,1.21,-3.5,9.87
1540942510421602010,41,0,/imu_data_acquisition2,9030.0,-0.012451171875,-0.134521484375,0.845947265625,0.515930175781,-17.5625,85.9375,41.4375,1.75,-2.89,9.21
1540942510435658931,42,0,/imu_data_acquisition2,9044.0,-0.0201416015625,-0.130676269531,0.847412109375,0.51416015625,-6.3125,96.6875,39.625,2.47,-1.9,10.13
1540942510440385103,43,0,/imu_data_acquisition2,9049.0,-0.0286865234375,-0.12646484375,0.84912109375,0.512023925781,-7.6875,108.0625,46.1875,2.63,-0.47,10.4
1540942510452857971,44,0,/imu_data_acquisition2,9061.0,-0.0383911132812,-0.121704101562,0.851135253906,0.509155273438,-9.25,121.5625,56.9375,2.62,-0.95,10.54
1540942510462533950,45,0,/imu_data_acquisition2,9070.0,-0.0496826171875,-0.117492675781,0.853515625,0.505187988281,-23.3125,131.9375,72.5,1.17,-2.22,11.19
1540942510470746040,46,0,/imu_data_acquisition2,9079.0,-0.062255859375,-0.114196777344,0.856506347656,0.49951171875,-41.5625,137.1875,94.4375,0.69,-2.32,10.97
1540942510485168933,47,0,/imu_data_acquisition2,9091.0,-0.0755004882812,-0.111389160156,0.85986328125,0.492492675781,-50.5,138.75,110.6875,1.14,-3.52,11.09
1540942510494544029,48,0,/imu_data_acquisition2,9100.0,-0.0888671875,-0.0145263671875,-6.103515625e-05,0.485107421875,-48.125,141.5,115.1875,4.25,-3.68,11.52
1540942510501247882,49,0,/imu_data_acquisition2,9110.0,-0.101440429688,-0.103759765625,0.866271972656,0.47802734375,-29.875,142.3125,110.75,7.53,-4.09,12.45
1540942510513015031,50,0,/imu_data_acquisition2,9121.0,-0.112365722656,-0.0977172851562,0.868774414062,0.472290039062,-3.3125,135.875,94.375,8.05,-1.78,12.84
1540942510523092985,51,0,/imu_data_acquisition2,9130.0,-0.120788574219,-0.0921630859375,0.870971679688,0.46728515625,5.75,109.4375,80.3125,2.38,-5.64,21.11
1540942510532432079,52,0,/imu_data_acquisition2,9141.0,-0.1240234375,-0.0130004882812,-6.103515625e-05,0.462280273438,-11.4375,29.9375,70.0625,8.37,-0.15,9.95
1540942510543241024,53,0,/imu_data_acquisition2,9151.0,-0.121276855469,-0.091552734375,0.875610351562,0.458557128906,6.9375,-37.75,47.3125,6.18,-1.58,9.81
1540942510552197933,54,0,/imu_data_acquisition2,9159.0,-0.118041992188,-0.0936889648438,0.878173828125,0.453918457031,-7.875,-0.0625,-0.0625,6.17,-2.68,7.23
1540942510562164068,55,0,/imu_data_acquisition2,9170.0,-0.113342285156,-0.0953369140625,0.880798339844,0.44970703125,4.5,-65.625,50.0625,5.79,-3.25,7.57
1540942510573729038,56,0,/imu_data_acquisition2,9181.0,-0.108032226562,-0.09716796875,0.883422851562,0.445434570312,6.625,-73.6875,50.3125,5.87,-3.43,8.25
1540942510582779884,57,0,/imu_data_acquisition2,9190.0,-0.101867675781,-0.09912109375,0.885986328125,0.44140625,9.875,-0.0625,-0.0625,5.75,-4.24,8.88
1540942510593566894,58,0,/imu_data_acquisition2,9202.0,-0.094970703125,-0.102172851562,0.888305664062,0.4375,2.25,-95.375,41.5,5.64,-0.01,-0.01
1540942510603735923,59,0,/imu_data_acquisition2,9211.0,-0.0872802734375,-0.106201171875,0.890319824219,0.43408203125,-4.125,-108.3125,32.5625,4.79,-5.69,7.71
1540942510611243009,60,0,/imu_data_acquisition2,9219.0,-0.0790405273438,-0.111267089844,0.891845703125,0.431213378906,-12.125,-118.3125,22.8125,4.49,-5.71,7.21
1540942510622714996,61,0,/imu_data_acquisition2,9231.0,-0.0704956054688,-0.1171875,0.892883300781,0.428955078125,-19.625,-124.0625,11.8125,4.22,-6.08,7.26
1540942510634404897,62,0,/imu_data_acquisition2,9239.0,-0.0704956054688,-0.1171875,0.892883300781,0.428955078125,-26.125,-126.6875,0.4375,3.96,-6.5,7.72
1540942510643546104,63,0,/imu_data_acquisition2,9250.0,-6.103515625e-05,-6.103515625e-05,-6.103515625e-05,0.426879882812,-33.625,-128.25,-11.5,3.85,-6.59,8.03
1540942510651892900,64,0,/imu_data_acquisition2,9260.0,-0.044677734375,-0.138854980469,0.892395019531,0.427062988281,-40.375,-130.0,-24.4375,3.72,-6.68,8.21
1540942510662290096,65,0,/imu_data_acquisition2,9270.0,-0.0360107421875,-0.147277832031,0.890930175781,0.428161621094,-47.3125,-131.625,-37.4375,3.23,-6.51,8.62
1540942510672852039,66,0,/imu_data_acquisition2,9280.0,-0.0274047851562,-0.156372070312,0.888793945312,0.429992675781,-54.8125,-132.75,-49.125,3.05,-6.72,8.68
1540942510682538986,67,0,/imu_data_acquisition2,9290.0,-0.0274047851562,-0.156372070312,0.888793945312,0.429992675781,-61.375,-132.375,-60.0625,2.68,-6.7,8.57
1540942510692301988,68,0,/imu_data_acquisition2,9300.0,-0.0189208984375,-0.165893554688,0.885986328125,0.432556152344,-65.9375,-130.1875,-72.0,2.28,-6.94,8.74
1540942510702159881,69,0,/imu_data_acquisition2,9310.0,-0.00238037109375,-0.185607910156,0.878479003906,0.440246582031,-69.5,-14.8125,-0.0625,2.23,-7.09,8.63
1540942510714294910,70,0,/imu_data_acquisition2,9323.0,0.00555419921875,-0.195373535156,0.873718261719,0.445434570312,-70.6875,-122.3125,-96.8125,2.07,-6.96,8.99
1540942510724220037,71,0,/imu_data_acquisition2,9331.0,0.00555419921875,-0.195373535156,0.873718261719,0.445434570312,-72.0,-117.125,-108.6875,2.03,-7.02,9.04
1540942510733985900,72,0,/imu_data_acquisition2,9342.0,0.0206909179688,-0.214660644531,0.862182617188,0.458374023438,-75.1875,-112.0625,-119.1875,1.86,-7.24,9.75
1540942510744776010,73,0,/imu_data_acquisition2,9349.0,0.0206909179688,-0.214660644531,0.862182617188,0.458374023438,-79.0,-107.375,-129.3125,1.68,-7.38,10.1
1540942510751172065,74,0,/imu_data_acquisition2,9360.0,0.03466796875,-0.233947753906,0.848083496094,0.47412109375,-81.75,-102.75,-139.0625,1.45,-7.32,10.13
1540942510762461900,75,0,/imu_data_acquisition2,9370.0,0.0413208007812,-0.243286132812,0.840087890625,0.483093261719,-82.4375,-98.375,-5.375,0.95,-6.38,10.3
1540942510776850938,76,0,/imu_data_acquisition2,9384.0,0.0477905273438,-0.252380371094,0.83154296875,0.492492675781,-82.8125,-93.375,-156.8125,0.59,-5.86,10.4
1540942510780869007,77,0,/imu_data_acquisition2,9389.0,0.0477905273438,-0.252380371094,0.83154296875,0.492492675781,-83.4375,-87.5625,-160.4375,0.53,-5.36,10.55
1540942510802553892,78,0,/imu_data_acquisition2,9403.0,0.0538940429688,-0.26123046875,0.822631835938,0.502197265625,-84.0625,-81.5,-160.25,0.17,-4.2,9.95
1540942510805318117,79,0,/imu_data_acquisition2,9412.0,0.0595092773438,-0.269775390625,0.8134765625,0.511840820312,-84.3125,-76.5625,-157.0625,-0.6,-3.41,10.39
1540942510816642999,80,0,/imu_data_acquisition2,9422.0,0.064697265625,-0.0123901367188,-6.103515625e-05,0.521240234375,-83.1875,-68.875,-150.25,-0.61,-3.19,9.75
1540942510822799921,81,0,/imu_data_acquisition2,9431.0,-6.103515625e-05,-6.103515625e-05,-6.103515625e-05,0.53857421875,-77.0,-61.875,-141.3125,-0.97,-1.23,9.37
1540942510831294059,82,0,/imu_data_acquisition2,9439.0,0.0733642578125,-0.29296875,0.786560058594,0.53857421875,-77.0,-61.875,-13.3125,-1.4,-1.03,9.75
1540942510840528964,83,0,/imu_data_acquisition2,9449.0,-6.103515625e-05,-6.103515625e-05,-6.103515625e-05,0.546203613281,-68.5625,-54.6875,-129.125,-1.31,-0.39,9.43
1540942510857630968,84,0,/imu_data_acquisition2,9461.0,0.0800170898438,-0.304626464844,0.771545410156,0.552734375,-52.3125,-39.625,-92.125,-1.3,-0.07,9.65
1540942510865019083,85,0,/imu_data_acquisition2,9472.0,0.0841674804688,-0.313293457031,0.760864257812,0.56201171875,-46.9375,-31.375,-5.3125,-1.39,-0.42,9.48
1540942510872539997,86,0,/imu_data_acquisition2,9481.0,0.0841674804688,-0.313293457031,0.760864257812,0.56201171875,-6.9375,-0.0625,-0.0625,-1.51,0.16,10.7
1540942510887553930,87,0,/imu_data_acquisition2,9491.0,0.0850219726562,-0.316589355469,0.757507324219,0.564575195312,-27.1875,-17.6875,-22.75,-1.86,0.13,11.27
1540942510895049095,88,0,/imu_data_acquisition2,9501.0,0.0855102539062,-0.319030761719,0.755554199219,0.565734863281,-27.1875,-17.6875,-6.75,-1.67,-1.48,12.61
1540942510901420116,89,0,/imu_data_acquisition2,9510.0,0.0850830078125,-0.321350097656,0.754943847656,0.565307617188,-18.8125,-19.4375,24.0625,-2.18,-0.01,-0.01
1540942510915548086,90,0,/imu_data_acquisition2,9522.0,0.0855712890625,-0.326477050781,0.756652832031,0.559997558594,-11.5625,-37.5,38.3125,-2.87,-3.74,13.21
1540942510925131082,91,0,/imu_data_acquisition2,9532.0,0.0855712890625,-0.326477050781,0.756652832031,0.559997558594,2.0625,-64.0,41.5,-3.77,-2.52,9.94
1540942510933425903,92,0,/imu_data_acquisition2,9542.0,0.0934448242188,-0.3330078125,0.760070800781,0.550170898438,15.0625,-84.8125,45.125,-3.82,-2.12,8.06
1540942510943108081,93,0,/imu_data_acquisition2,9550.0,-6.103515625e-05,-6.103515625e-05,-6.103515625e-05,0.550170898438,23.6875,-94.9375,51.6875,-4.0,-1.64,6.38
1540942510953610897,94,0,/imu_data_acquisition2,9561.0,0.1044921875,-0.339294433594,0.765258789062,0.537048339844,26.5,-90.8125,63.5625,-4.02,-2.89,5.18
1540942510962300062,95,0,/imu_data_acquisition2,9570.0,0.1044921875,-0.339294433594,0.765258789062,0.537048339844,29.25,-75.625,75.375,-3.61,-4.42,5.13
1540942510973567962,96,0,/imu_data_acquisition2,9581.0,0.108520507812,-0.341491699219,0.768798828125,0.529724121094,33.875,-59.9375,81.25,-0.76,-0.01,-0.01
1540942510982583045,97,0,/imu_data_acquisition2,9590.0,0.111572265625,-0.342651367188,0.772827148438,0.522338867188,33.875,-59.9375,81.25,-3.0,-5.75,5.52
1540942510991686105,98,0,/imu_data_acquisition2,9600.0,0.113342285156,-0.34228515625,0.777160644531,0.515747070312,40.4375,-34.75,80.125,-2.35,-6.26,5.24
1540942511007100105,99,0,/imu_data_acquisition2,9611.0,0.115051269531,-0.341918945312,0.781494140625,0.509033203125,39.4375,-22.375,77.1875,-1.98,-6.34,4.7
1540942511012954950,100,0,/imu_data_acquisition2,9621.0,0.115966796875,-0.341003417969,0.785705566406,0.5029296875,34.5,8.125,71.3125,-1.64,-6.84,4.53
1540942511072880029,101,0,/imu_data_acquisition2,9633.0,0.114868164062,-0.339050292969,0.789794921875,0.498046875,32.6875,24.25,65.6875,-0.89,-7.76,4.86
1540942511121006011,102,0,/imu_data_acquisition2,9640.0,0.112731933594,-0.336486816406,0.793701171875,0.494079589844,32.6875,24.25,65.6875,-0.89,-7.76,4.86
1540942511123114109,103,0,/imu_data_acquisition2,9652.0,0.106811523438,-0.327697753906,0.800170898438,0.490844726562,50.25,61.625,24.875,0.27,-8.76,5.83
1540942511125403881,104,0,/imu_data_acquisition2,9661.0,0.106811523438,-0.0151977539062,-6.103515625e-05,0.490844726562,37.125,-0.0625,-0.0625,1.47,-9.11,5.9
1540942511126974105,105,0,/imu_data_acquisition2,9671.0,0.10302734375,-0.322204589844,0.802307128906,0.491760253906,24.375,81.0,-4.75,4.1,-9.15,4.99
1540942511128072023,106,0,/imu_data_acquisition2,9681.0,0.0986938476562,-0.317138671875,0.803466796875,0.494079589844,12.625,93.5625,-5.0,8.47,-20.32,3.16
1540942511132411003,107,0,/imu_data_acquisition2,9689.0,0.0938110351562,-0.312072753906,0.803039550781,0.498962402344,12.625,93.5625,-37.0,8.47,-20.32,3.16
1540942511136092901,108,0,/imu_data_acquisition2,9699.0,-6.103515625e-05,-6.103515625e-05,-6.103515625e-05,0.508239746094,70.5,-0.0625,-0.0625,9.94,-9.34,10.0
1540942511137830972,109,0,/imu_data_acquisition2,9710.0,-6.103515625e-05,-6.103515625e-05,-6.103515625e-05,0.517639160156,22.1875,101.25,-7.25,3.25,0.74,-0.65
1540942511139156103,110,0,/imu_data_acquisition2,9720.0,0.0857543945312,-0.284301757812,0.795349121094,0.528442382812,65.375,179.875,-97.8125,0.92,6.68,-0.68
1540942511140181064,111,0,/imu_data_acquisition2,9731.0,0.0789184570312,-0.271118164062,0.793701171875,0.538757324219,49.4375,206.375,-66.75,0.83,0.25,9.04
1540942511141494035,112,0,/imu_data_acquisition2,9739.0,0.06884765625,-0.257934570312,0.793029785156,0.547546386719,49.4375,206.375,-0.0625,0.83,0.25,9.04
1540942511144128084,113,0,/imu_data_acquisition2,9751.0,0.0621337890625,-6.103515625e-05,-6.103515625e-05,0.55615234375,188.0625,166.6875,-91.0625,10.08,0.58,21.15
1540942511151601076,114,0,/imu_data_acquisition2,9760.0,-6.103515625e-05,-6.103515625e-05,-6.103515625e-05,0.564514160156,188.0625,166.6875,-91.0625,0.72,7.48,23.46
1540942511166304111,115,0,/imu_data_acquisition2,9773.0,0.0693969726562,-0.20068359375,0.793518066406,0.5703125,103.3125,-4.875,-10.75,3.85,-11.63,10.23
1540942511174433946,116,0,/imu_data_acquisition2,9781.0,0.0748901367188,-0.193908691406,0.794677734375,0.5703125,168.5,27.6875,-49.125,6.97,3.03,16.58
1540942511182559013,117,0,/imu_data_acquisition2,9791.0,0.0819091796875,-0.180908203125,0.795166015625,0.572937011719,168.5,27.6875,-49.125,0.56,10.74,18.32
1540942511191041946,118,0,/imu_data_acquisition2,9799.0,0.0838012695312,-0.00555419921875,-6.103515625e-05,0.572326660156,47.8125,5.8125,5.1875,0.56,10.74,18.32
1540942511202558040,119,0,/imu_data_acquisition2,9811.0,0.0827026367188,-0.176086425781,0.796691894531,0.572265625,6.9375,47.0625,10.5,4.22,-1.4,7.65
1540942511214422941,120,0,/imu_data_acquisition2,9822.0,0.0797119140625,-0.173400878906,0.797607421875,0.572204589844,2.5,65.6875,27.0,4.23,-3.29,7.64
1540942511223257064,121,0,/imu_data_acquisition2,9831.0,0.0750122070312,-0.170288085938,0.799377441406,0.5712890625,23.4375,55.625,15.8125,2.29,-1.35,11.1
1540942511234996080,122,0,/imu_data_acquisition2,9843.0,0.0721435546875,-0.166076660156,0.800842285156,0.570861816406,22.25,39.5625,6.8125,3.11,-0.2,9.29
1540942511242851018,123,0,/imu_data_acquisition2,9849.0,0.0704345703125,-6.103515625e-05,-6.103515625e-05,0.57080078125,22.25,39.5625,6.8125,3.11,-0.2,9.29
1540942511254992961,124,0,/imu_data_acquisition2,9861.0,0.068115234375,-0.160278320312,0.802429199219,0.57080078125,12.625,37.125,2.3125,3.36,-0.94,8.94
1540942511264189958,125,0,/imu_data_acquisition2,9872.0,0.066162109375,-0.157653808594,0.802917480469,0.571044921875,5.4375,36.4375,4.1875,3.01,-1.89,9.25
1540942511275623083,126,0,/imu_data_acquisition2,9883.0,0.0639038085938,-0.155517578125,0.803405761719,0.571228027344,5.375,32.6875,3.3125,3.21,-2.23,9.55
1540942511285001993,127,0,/imu_data_acquisition2,9891.0,0.0619506835938,-0.153564453125,0.803771972656,0.571411132812,5.375,32.6875,3.3125,2.67,-1.67,10.12
1540942511293170928,128,0,/imu_data_acquisition2,9901.0,0.0602416992188,-0.151550292969,0.804138183594,0.571655273438,8.8125,30.5,0.875,2.86,-1.84,9.44
1540942511304518938,129,0,/imu_data_acquisition2,9911.0,0.0587768554688,-0.14990234375,0.804321289062,0.571960449219,5.375,25.9375,0.375,2.76,-1.61,9.77
1540942511313446044,130,0,/imu_data_acquisition2,9922.0,0.0574951171875,-0.148498535156,0.804382324219,0.572387695312,1.1875,17.9375,-2.625,2.67,-1.63,9.5
1540942511323746919,131,0,/imu_data_acquisition2,9932.0,-6.103515625e-05,-6.103515625e-05,-6.103515625e-05,0.57275390625,1.1875,17.9375,-2.625,2.52,-1.95,9.46
1540942511331140041,132,0,/imu_data_acquisition2,9939.0,0.0554809570312,-0.146911621094,0.804321289062,0.573120117188,-0.875,13.1875,-2.25,2.52,-1.95,-0.01
1540942511342941045,133,0,/imu_data_acquisition2,9950.0,0.0547485351562,-6.103515625e-05,-6.103515625e-05,0.573364257812,-0.5,10.875,-1.875,2.55,-1.84,9.78
1540942511354995012,134,0,/imu_data_acquisition2,9963.0,0.05419921875,-0.14599609375,0.80419921875,0.573608398438,0.0,7.5625,-1.125,2.96,-1.9,8.79
1540942511365889072,135,0,/imu_data_acquisition2,9972.0,0.0537109375,-0.145629882812,0.80419921875,0.57373046875,1.0625,7.625,-0.375,2.7,-1.92,9.59
1540942511375164985,136,0,/imu_data_acquisition2,9982.0,0.05322265625,-0.145202636719,0.804260253906,0.573852539062,2.125,6.5625,0.125,2.82,-1.86,8.96
1540942511386353015,137,0,/imu_data_acquisition2,9992.0,0.0529174804688,-0.144714355469,0.804321289062,0.573913574219,2.125,6.5625,0.125,2.51,-2.0,9.45
1540942511391145944,138,0,/imu_data_acquisition2,10000.0,0.0525512695312,-0.144165039062,0.804382324219,0.573913574219,3.0,7.375,0.6875,2.51,-2.0,9.45
1540942511402868032,139,0,/imu_data_acquisition2,10011.0,0.05224609375,-6.103515625e-05,-6.103515625e-05,0.573974609375,2.6875,5.9375,0.5625,2.64,-1.88,9.32
1540942511415440082,140,0,/imu_data_acquisition2,10022.0,0.0520629882812,-0.143249511719,0.804504394531,0.574035644531,3.875,6.0625,0.25,2.66,-1.87,9.03
1540942511424560070,141,0,/imu_data_acquisition2,10032.0,0.0518798828125,-6.103515625e-05,-6.103515625e-05,0.574096679688,2.9375,5.3125,0.5,2.44,-1.72,9.49
1540942511436728000,142,0,/imu_data_acquisition2,10042.0,0.0516967773438,-0.142517089844,0.804626464844,0.574096679688,3.5625,4.75,0.4375,2.45,-1.8,9.24
1540942511444511890,143,0,/imu_data_acquisition2,10051.0,0.0515747070312,-0.142150878906,0.8046875,0.574096679688,3.25,4.4375,0.875,2.45,-1.8,9.24
1540942511456073045,144,0,/imu_data_acquisition2,10063.0,0.0513305664062,-0.141357421875,0.804931640625,0.574035644531,3.3125,3.1875,0.9375,2.45,-1.68,9.15
1540942511465075969,145,0,/imu_data_acquisition2,10073.0,0.0513305664062,-0.141357421875,0.804931640625,0.574035644531,3.125,2.9375,1.0,2.41,-1.64,9.32
1540942511476213932,146,0,/imu_data_acquisition2,10083.0,0.05126953125,-0.140991210938,0.804992675781,0.573974609375,2.6875,2.6875,1.0625,2.32,-1.69,9.46
1540942511483707904,147,0,/imu_data_acquisition2,10093.0,0.0511474609375,-0.140441894531,0.80517578125,0.573852539062,2.25,1.875,0.8125,2.25,-1.66,9.45
1540942511494406938,148,0,/imu_data_acquisition2,10102.0,0.0511474609375,-0.140441894531,0.80517578125,0.573852539062,2.25,1.875,0.8125,2.23,-1.63,9.49
1540942511501228094,149,0,/imu_data_acquisition2,10109.0,0.0511474609375,-0.140197753906,0.805236816406,0.573852539062,2.3125,1.875,0.6875,2.23,-1.63,9.49
1540942511513528108,150,0,/imu_data_acquisition2,10122.0,0.0510864257812,-0.140014648438,0.805297851562,0.573852539062,1.5625,1.1875,0.375,2.17,-1.65,9.39
1540942511524589061,151,0,/imu_data_acquisition2,10132.0,0.0510864257812,-0.139892578125,0.805297851562,0.573852539062,0.9375,0.5,0.125,2.32,-1.69,9.49
1540942511534439086,152,0,/imu_data_acquisition2,10140.0,0.0511474609375,-0.139831542969,0.805358886719,0.573852539062,1.1875,0.5,0.0625,2.32,-1.69,9.49
1540942511543829917,153,0,/imu_data_acquisition2,10152.0,0.0511474609375,-0.139770507812,0.805358886719,0.573791503906,0.875,-0.3125,-0.0625,2.16,-1.76,9.54
1540942511556160926,154,0,/imu_data_acquisition2,10163.0,0.0511474609375,-0.139709472656,0.805358886719,0.573791503906,0.625,0.0625,0.3125,2.15,-1.56,9.49
1540942511565628051,155,0,/imu_data_acquisition2,10173.0,0.0511474609375,-0.139587402344,0.805358886719,0.573791503906,1.25,-0.375,-0.125,2.44,-1.85,9.32
1540942511574486970,156,0,/imu_data_acquisition2,10183.0,0.0512084960938,-0.1396484375,0.805358886719,0.573791503906,-0.125,-1.0625,0.4375,2.23,-1.56,9.42
1540942511584043979,157,0,/imu_data_acquisition2,10190.0,0.0512084960938,-0.139526367188,0.805419921875,0.573791503906,1.25,-0.5,-0.1875,2.23,-1.56,9.42
1540942511598757982,158,0,/imu_data_acquisition2,10203.0,0.05126953125,-0.139587402344,0.805419921875,0.573791503906,-0.0625,-1.0625,0.4375,2.21,-1.63,9.41
1540942511605355024,159,0,/imu_data_acquisition2,10214.0,0.05126953125,-0.1396484375,0.805419921875,0.57373046875,0.125,-1.375,0.375,2.17,-1.74,9.44
1540942511615664005,160,0,/imu_data_acquisition2,10222.0,0.0513305664062,-0.1396484375,0.805419921875,0.57373046875,0.125,-0.0625,-0.0625,2.45,-1.59,9.21
1540942511625000953,161,0,/imu_data_acquisition2,10233.0,0.0513916015625,-0.139770507812,0.805419921875,0.57373046875,0.1875,-1.375,0.1875,2.4,-1.68,9.45
1540942511634346008,162,0,/imu_data_acquisition2,10241.0,0.051513671875,-0.139831542969,0.805419921875,0.57373046875,0.1875,-1.375,0.1875,2.4,-1.68,9.45
1540942511648811101,163,0,/imu_data_acquisition2,10249.0,0.0516357421875,-0.0149536132812,-6.103515625e-05,0.573669433594,0.0,-2.0625,0.3125,2.43,-1.73,9.36
1540942511653778076,164,0,/imu_data_acquisition2,10259.0,0.0517578125,-0.140014648438,0.805358886719,0.573669433594,0.375,-1.9375,0.375,2.34,-1.68,9.42
1540942511664663076,165,0,/imu_data_acquisition2,10273.0,0.0519409179688,-0.140197753906,0.805358886719,0.573608398438,0.25,-2.75,0.0,2.34,-1.64,9.26
1540942511676532983,166,0,/imu_data_acquisition2,10283.0,0.0521240234375,-0.140258789062,0.805358886719,0.573608398438,0.375,-2.0,0.3125,2.34,-1.64,9.26
1540942511683397054,167,0,/imu_data_acquisition2,10292.0,0.0521850585938,-0.140380859375,0.805358886719,0.573547363281,0.3125,-1.75,0.0625,2.34,-1.57,9.45
1540942511693494081,168,0,/imu_data_acquisition2,10300.0,0.0523681640625,-0.140441894531,0.805358886719,0.573547363281,-0.5,-1.875,-0.4375,2.52,-1.65,9.43
1540942511707331895,169,0,/imu_data_acquisition2,10313.0,0.052490234375,-0.140563964844,0.805297851562,0.573608398438,-0.375,-1.625,-1.0,2.37,-1.63,9.28
1540942511715012073,170,0,/imu_data_acquisition2,10323.0,0.052490234375,-0.140625,0.805236816406,0.573669433594,-1.1875,-0.625,-0.875,2.48,-1.61,9.35
1540942511726638078,171,0,/imu_data_acquisition2,10333.0,0.0524291992188,-0.140747070312,0.80517578125,0.57373046875,-1.0625,0.1875,-1.1875,2.48,-1.61,9.35
1540942511731870889,172,0,/imu_data_acquisition2,10340.0,0.0523681640625,-0.140869140625,0.805114746094,0.573791503906,-1.875,0.6875,-0.8125,2.66,-1.77,9.22
1540942511742988109,173,0,/imu_data_acquisition2,10351.0,0.05224609375,-0.140869140625,0.805053710938,0.573913574219,-1.0,1.625,-1.0,2.49,-1.56,9.18
1540942511751528024,174,0,/imu_data_acquisition2,10359.0,0.052001953125,-0.140869140625,0.804992675781,0.573913574219,-1.6875,2.0625,-0.0625,2.43,-1.68,9.2
1540942511764617919,175,0,/imu_data_acquisition2,10372.0,0.0517578125,-6.103515625e-05,-6.103515625e-05,0.573974609375,-0.8125,2.5625,-0.1875,2.24,-1.69,9.37
1540942511776866912,176,0,/imu_data_acquisition2,10383.0,0.0515747070312,-0.140808105469,0.804992675781,0.573974609375,-1.4375,1.8125,0.125,2.42,-1.78,9.48
1540942511785581111,177,0,/imu_data_acquisition2,10391.0,0.0514526367188,-6.103515625e-05,-6.103515625e-05,0.574035644531,-0.8125,1.1875,-0.1875,2.52,-1.79,9.18
1540942511794702053,178,0,/imu_data_acquisition2,10403.0,0.0513305664062,-0.140930175781,0.804992675781,0.574035644531,-0.875,0.8125,0.0625,2.36,-1.68,9.41
1540942511804254055,179,0,/imu_data_acquisition2,10410.0,0.0513305664062,-0.140991210938,0.804992675781,0.574035644531,-0.6875,0.5,0.1875,2.36,-1.68,9.41
1540942511819808006,180,0,/imu_data_acquisition2,10425.0,0.05126953125,-0.140991210938,0.804992675781,0.574035644531,-0.5625,-0.375,0.0625,2.45,-1.78,9.33
1540942511825505018,181,0,/imu_data_acquisition2,10433.0,0.05126953125,-0.141052246094,0.804992675781,0.574035644531,-0.5625,-0.375,0.0625,2.45,-1.78,9.33
1540942511833547115,182,0,/imu_data_acquisition2,10440.0,0.05126953125,-0.141052246094,0.804992675781,0.574035644531,-0.375,-0.375,0.4375,2.32,-1.71,9.37
1540942511848301887,183,0,/imu_data_acquisition2,10454.0,0.0512084960938,-0.141052246094,0.804992675781,0.573974609375,0.0,-0.3125,0.8125,2.07,-1.7,9.52
1540942511855505943,184,0,/imu_data_acquisition2,10464.0,0.0511474609375,-0.141052246094,0.805053710938,0.573913574219,-0.3125,-0.75,0.75,2.23,-1.72,9.24
1540942511864124059,185,0,/imu_data_acquisition2,10470.0,0.0511474609375,-0.141052246094,0.805114746094,0.573852539062,-0.3125,-0.75,0.75,2.23,-1.72,9.24
1540942511875443935,186,0,/imu_data_acquisition2,10483.0,0.0511474609375,-0.14111328125,0.805114746094,0.573791503906,-0.1875,-1.125,0.4375,2.18,-1.67,9.36
1540942511883177042,187,0,/imu_data_acquisition2,10491.0,0.0510864257812,-0.14111328125,0.805114746094,0.573791503906,-0.375,-1.0,0.375,2.1,-1.66,9.39
1540942511894675970,188,0,/imu_data_acquisition2,10500.0,0.0510864257812,-0.141052246094,0.805114746094,0.573791503906,-0.375,-0.9375,0.125,2.06,-1.65,9.54
1540942511905244112,189,0,/imu_data_acquisition2,10513.0,0.051025390625,-0.141052246094,0.80517578125,0.573791503906,-0.5625,-0.6875,-0.1875,2.12,-1.64,9.41
1540942511916069030,190,0,/imu_data_acquisition2,10525.0,0.0509033203125,-0.140991210938,0.80517578125,0.573791503906,-0.375,-0.6875,-0.5625,2.23,-1.71,9.36
1540942511923521995,191,0,/imu_data_acquisition2,10530.0,0.0509033203125,-6.103515625e-05,-6.103515625e-05,0.573791503906,-0.375,-0.6875,-0.5625,2.23,-1.71,9.36
1540942511936168909,192,0,/imu_data_acquisition2,10544.0,0.0509033203125,-0.141052246094,0.80517578125,0.57373046875,-0.125,-0.875,-0.5625,2.08,-1.7,9.53
1540942511944730043,193,0,/imu_data_acquisition2,10552.0,0.0508422851562,-0.140991210938,0.80517578125,0.57373046875,0.5,-0.0625,-0.0625,2.08,-1.7,9.53
1540942511954137086,194,0,/imu_data_acquisition2,10560.0,0.0507202148438,-0.140930175781,0.805236816406,0.57373046875,0.625,-0.3125,0.0,2.07,-1.75,9.46
1540942511965945959,195,0,/imu_data_acquisition2,10572.0,0.0505981445312,-0.140808105469,0.805236816406,0.57373046875,0.875,-0.25,0.1875,2.03,-1.71,9.29
1540942511976885080,196,0,/imu_data_acquisition2,10585.0,0.050537109375,-0.140625,0.805297851562,0.57373046875,1.5,-0.75,0.0,2.0,-1.62,9.45
1540942511980720043,197,0,/imu_data_acquisition2,10589.0,0.0504760742188,-0.140441894531,0.805358886719,0.57373046875,1.5,-0.75,0.0,2.0,-1.62,9.45
1540942511992156982,198,0,/imu_data_acquisition2,10600.0,0.0503540039062,-0.140258789062,0.805419921875,0.573669433594,1.5,-0.6875,-0.125,1.96,-1.69,9.48
1540942512004236936,199,0,/imu_data_acquisition2,10611.0,0.0503540039062,-0.140075683594,0.805480957031,0.573669433594,1.6875,-1.0,-0.0625,2.07,-1.69,9.43
1540942512012728929,200,0,/imu_data_acquisition2,10620.0,0.0504150390625,-0.139953613281,0.805480957031,0.573608398438,1.6875,-1.3125,-0.4375,2.21,-1.64,9.29
1540942512024072885,201,0,/imu_data_acquisition2,10633.0,0.0504760742188,-0.139831542969,0.805541992188,0.573608398438,1.75,-0.75,-0.5,2.18,-1.64,9.43
1540942512070745944,202,0,/imu_data_acquisition2,10640.0,0.050537109375,-0.139709472656,0.805541992188,0.573608398438,1.75,-1.0,-0.375,2.13,-1.73,9.45
1540942512072925090,203,0,/imu_data_acquisition2,10652.0,0.0506591796875,-0.139587402344,0.805603027344,0.573547363281,2.0,-1.0,-0.3125,2.2,-1.67,9.4
1540942512075043916,204,0,/imu_data_acquisition2,10660.0,0.0507202148438,-0.0144653320312,-6.103515625e-05,0.573547363281,1.9375,-0.8125,-0.4375,2.11,-1.66,9.34
1540942512077709913,205,0,/imu_data_acquisition2,10670.0,0.05078125,-0.0143432617188,-6.103515625e-05,0.573608398438,1.9375,-0.625,-0.75,2.21,-1.62,9.34
1540942512081772089,206,0,/imu_data_acquisition2,10680.0,0.0508422851562,-0.13916015625,0.805603027344,0.573608398438,1.875,-0.5625,-0.8125,2.09,-1.6,9.35
1540942512086911916,207,0,/imu_data_acquisition2,10691.0,0.0508422851562,-0.138977050781,0.805603027344,0.573669433594,1.5,-0.5625,-0.75,2.12,-1.64,9.59
1540942512092067003,208,0,/imu_data_acquisition2,10700.0,0.0509033203125,-0.138916015625,0.805541992188,0.57373046875,1.375,-0.625,-1.25,2.32,-1.63,9.15
1540942512102792978,209,0,/imu_data_acquisition2,10711.0,0.0509643554688,-0.138793945312,0.805541992188,0.573852539062,1.625,0.4375,-1.4375,2.13,-1.62,9.57
1540942512115762948,210,0,/imu_data_acquisition2,10723.0,0.0509643554688,-0.138610839844,0.805480957031,0.573974609375,1.375,0.625,-1.5625,2.23,-1.64,9.32
1540942512126535892,211,0,/imu_data_acquisition2,10732.0,0.0509033203125,-0.138488769531,0.805419921875,0.574035644531,1.0625,1.25,-1.4375,2.21,-1.7,9.36
1540942512134893894,212,0,/imu_data_acquisition2,10742.0,0.05078125,-0.138244628906,0.805358886719,0.574157714844,1.125,1.5625,-1.375,2.05,-1.68,9.5
1540942512144576072,213,0,/imu_data_acquisition2,10752.0,0.0506591796875,-0.138061523438,0.805358886719,0.574279785156,1.1875,1.3125,-1.5625,2.16,-1.69,9.42
1540942512150830984,214,0,/imu_data_acquisition2,10760.0,0.0505981445312,-0.137878417969,0.805297851562,0.574401855469,1.375,1.125,-0.0625,2.16,-1.59,9.42
1540942512163791894,215,0,/imu_data_acquisition2,10772.0,0.050537109375,-0.137634277344,0.805236816406,0.574523925781,1.6875,1.5625,-1.875,2.02,-1.66,9.29
1540942512173341989,216,0,/imu_data_acquisition2,10779.0,0.0504150390625,-0.012451171875,-6.103515625e-05,0.574645996094,1.3125,1.375,-1.25,2.08,-1.66,9.43
1540942512183394908,217,0,/imu_data_acquisition2,10792.0,0.05029296875,-0.137268066406,0.80517578125,0.57470703125,1.3125,1.1875,-1.25,2.13,-1.65,9.4
1540942512193331956,218,0,/imu_data_acquisition2,10799.0,0.0501708984375,-0.137145996094,0.80517578125,0.574768066406,0.6875,0.9375,-1.1875,2.14,-1.65,9.52
1540942512200335979,219,0,/imu_data_acquisition2,10809.0,0.0501098632812,-0.136962890625,0.805114746094,0.574890136719,1.125,1.125,-1.25,2.24,-1.55,9.45
1540942512213108062,220,0,/imu_data_acquisition2,10820.0,0.0499267578125,-0.136840820312,0.805114746094,0.575012207031,0.5,1.1875,-1.25,1.89,-1.7,9.03
1540942512226624965,221,0,/imu_data_acquisition2,10834.0,0.0498657226562,-0.136779785156,0.805053710938,0.575073242188,0.625,0.3125,-0.0625,2.08,-1.64,9.74
1540942512232527017,222,0,/imu_data_acquisition2,10839.0,0.049560546875,-0.136535644531,0.804992675781,0.5751953125,1.0,2.3125,-1.5,1.82,-1.76,8.94
1540942512242497920,223,0,/imu_data_acquisition2,10851.0,0.0494995117188,-0.136291503906,0.804931640625,0.575378417969,1.375,1.0,-2.375,2.08,-1.3,9.41
1540942512252955913,224,0,/imu_data_acquisition2,10860.0,0.0494384765625,-0.136108398438,0.804870605469,0.575500488281,0.75,1.625,-2.0,2.38,-1.76,9.09
1540942512263696908,225,0,/imu_data_acquisition2,10871.0,0.0493774414062,-0.136047363281,0.804748535156,0.575744628906,0.5625,1.125,-2.5625,2.19,-1.53,9.59
1540942512275151014,226,0,/imu_data_acquisition2,10881.0,0.0492553710938,-0.135986328125,0.804626464844,0.575927734375,-0.5,1.5,-0.0625,2.58,-1.81,9.42
1540942512283404111,227,0,/imu_data_acquisition2,10890.0,0.0491333007812,-0.135803222656,0.804504394531,0.576110839844,-0.4375,2.625,-2.375,2.54,-1.61,9.65
1540942512290879011,228,0,/imu_data_acquisition2,10899.0,0.0489501953125,-0.135803222656,0.804382324219,0.576293945312,-1.0625,1.75,-1.875,2.69,-1.67,9.78
1540942512302506923,229,0,/imu_data_acquisition2,10911.0,0.048828125,-0.135864257812,0.804321289062,0.576354980469,-1.8125,0.875,-1.0625,2.87,-1.69,9.19
1540942512316325902,230,0,/imu_data_acquisition2,10920.0,0.0486450195312,-0.135864257812,0.804260253906,0.576477050781,-1.375,2.25,-0.0625,2.65,-1.89,9.25
1540942512322860956,231,0,/imu_data_acquisition2,10931.0,0.04833984375,-0.136047363281,0.804260253906,0.576477050781,-3.5,1.75,-0.375,2.72,-1.84,9.26
1540942512335889101,232,0,/imu_data_acquisition2,10943.0,0.048095703125,-0.136108398438,0.804138183594,0.576599121094,-2.4375,1.75,-0.0625,2.51,-1.77,9.08
1540942512341785907,233,0,/imu_data_acquisition2,10950.0,0.0478515625,-0.136169433594,0.804077148438,0.576721191406,-2.9375,2.1875,-1.0625,2.51,-1.65,8.97
1540942512351771116,234,0,/imu_data_acquisition2,10960.0,0.047607421875,-0.136169433594,0.804016113281,0.576843261719,-1.5625,2.0625,-1.1875,2.47,-1.7,9.54
1540942512363745927,235,0,/imu_data_acquisition2,10972.0,0.0474243164062,-0.13623046875,0.804016113281,0.576843261719,-2.125,1.4375,-0.125,2.76,-1.72,8.87
1540942512377264022,236,0,/imu_data_acquisition2,10983.0,0.0474853515625,-0.136291503906,0.803955078125,0.576904296875,-0.4375,2.1875,-0.0625,2.59,-1.42,9.2
1540942512382620096,237,0,/imu_data_acquisition2,10991.0,0.0472412109375,-0.136291503906,0.804016113281,0.576843261719,-1.0,3.0625,1.5625,2.34,-1.68,9.38
1540942512392539024,238,0,/imu_data_acquisition2,11001.0,0.0473022460938,-0.136108398438,0.804138183594,0.576782226562,1.625,2.3125,1.3125,2.53,-1.34,9.44
1540942512402509927,239,0,/imu_data_acquisition2,11010.0,0.047119140625,-0.136108398438,0.804260253906,0.576599121094,-0.6875,2.5625,2.8125,2.55,-1.69,9.23
1540942512411448955,240,0,/imu_data_acquisition2,11020.0,0.0469970703125,-0.135986328125,0.804382324219,0.576477050781,0.125,2.9375,2.8125,2.47,-1.42,9.53
1540942512424773931,241,0,/imu_data_acquisition2,11033.0,0.0470581054688,-0.136108398438,0.804504394531,0.576232910156,0.5,3.125,3.4375,2.98,-1.71,8.88
1540942512431468963,242,0,/imu_data_acquisition2,11039.0,0.0469970703125,-0.135986328125,0.8046875,0.575988769531,0.8125,3.0,3.9375,2.36,-1.54,9.44
1540942512443653106,243,0,/imu_data_acquisition2,11052.0,0.0467529296875,-0.135925292969,0.804870605469,0.575744628906,0.5625,4.25,4.375,2.6,-1.97,9.27
1540942512452115058,244,0,/imu_data_acquisition2,11059.0,0.0465087890625,-0.135925292969,0.805053710938,0.575500488281,-0.8125,3.625,4.25,2.55,-1.43,9.24
1540942512469309091,245,0,/imu_data_acquisition2,11075.0,0.0462036132812,-0.1357421875,0.805236816406,0.575378417969,0.0625,4.75,2.875,2.29,-1.48,9.46
1540942512475378990,246,0,/imu_data_acquisition2,11084.0,0.045654296875,-0.135681152344,0.805358886719,0.575256347656,-2.625,5.25,2.8125,2.38,-1.43,9.62
1540942512483494997,247,0,/imu_data_acquisition2,11090.0,0.0451049804688,-0.135498046875,0.805480957031,0.5751953125,-2.0625,6.0625,1.9375,2.37,-1.85,9.5
1540942512491740942,248,0,/imu_data_acquisition2,11100.0,0.0448608398438,-0.135559082031,0.805541992188,0.575073242188,-2.875,5.3125,2.875,2.85,-1.27,8.96
1540942512502697944,249,0,/imu_data_acquisition2,11109.0,0.0442504882812,-0.135559082031,0.8056640625,0.574951171875,-4.625,7.625,3.0,2.42,-1.64,9.53
1540942512510535955,250,0,/imu_data_acquisition2,11119.0,0.0435791015625,-0.1357421875,0.805786132812,0.574829101562,-6.3125,-0.0625,-0.0625,2.63,-1.6,9.07
1540942512522367954,251,0,/imu_data_acquisition2,11130.0,0.0426025390625,-0.135864257812,0.805908203125,0.57470703125,-7.6875,8.5,3.8125,2.48,-1.7,9.21
1540942512535373926,252,0,/imu_data_acquisition2,11140.0,0.0413818359375,-0.135986328125,0.806030273438,0.574523925781,-9.0,10.5,4.25,2.56,-1.63,9.1
1540942512540574073,253,0,/imu_data_acquisition2,11149.0,0.0399780273438,-0.136108398438,0.806213378906,0.574401855469,-10.75,12.625,4.6875,2.5,-1.73,8.9
1540942512555632114,254,0,/imu_data_acquisition2,11162.0,0.0382690429688,-0.136352539062,0.806335449219,0.57421875,-13.125,14.1875,5.5,2.18,-1.56,9.54
1540942512565546035,255,0,/imu_data_acquisition2,11171.0,0.036376953125,-0.13671875,0.806518554688,0.574035644531,-16.25,15.875,6.5,2.31,-1.68,9.07
1540942512571255922,256,0,/imu_data_acquisition2,11179.0,0.0341796875,-0.13720703125,0.806762695312,0.57373046875,-18.9375,16.9375,8.25,2.21,-1.74,9.25
1540942512582483053,257,0,/imu_data_acquisition2,11190.0,0.0318603515625,-0.137817382812,0.807006835938,0.573364257812,-20.6875,17.5625,9.125,2.1,-1.71,9.69
1540942512593779087,258,0,/imu_data_acquisition2,11200.0,0.0294189453125,-0.138427734375,0.807312011719,0.572875976562,-21.8125,18.375,-0.0625,2.42,-1.37,9.02
1540942512603455066,259,0,/imu_data_acquisition2,11210.0,0.0264282226562,-0.139282226562,0.807739257812,0.572204589844,-27.4375,21.625,14.75,2.18,-1.64,9.56
1540942512614114999,260,0,/imu_data_acquisition2,11221.0,0.0234985351562,-0.14013671875,0.808288574219,0.571350097656,-14.375,-0.0625,-0.0625,2.28,-1.52,9.25
1540942512624286890,261,0,/imu_data_acquisition2,11230.0,0.0203247070312,-0.140930175781,0.808898925781,0.570434570312,-31.1875,30.3125,20.5,2.67,-1.77,9.13
1540942512633362054,262,0,/imu_data_acquisition2,11241.0,0.015869140625,-6.103515625e-05,-6.103515625e-05,0.569213867188,-15.8125,-0.0625,-0.0625,3.18,-1.61,8.92
1540942512642952919,263,0,/imu_data_acquisition2,11251.0,0.0106201171875,-0.140991210938,0.810852050781,0.56787109375,-30.0,50.6875,-0.0625,3.39,-1.26,8.93
1540942512655381917,264,0,/imu_data_acquisition2,11260.0,0.0040283203125,-0.139770507812,0.812316894531,0.566223144531,-30.25,68.625,36.125,3.4,-1.4,8.8
1540942512660830020,265,0,/imu_data_acquisition2,11269.0,-0.00408935546875,-0.137756347656,0.814086914062,0.564147949219,-32.0625,88.5625,45.4375,3.1,-1.4,9.14
1540942512674710988,266,0,/imu_data_acquisition2,11280.0,-0.0140991210938,-0.135131835938,0.816223144531,0.561584472656,-38.0,109.5,55.375,1.53,-4.56,9.96
1540942512683593034,267,0,/imu_data_acquisition2,11290.0,-0.0249633789062,-0.131530761719,0.818176269531,0.559143066406,-34.625,124.75,55.0,3.19,-1.73,9.47
1540942512690820932,268,0,/imu_data_acquisition2,11299.0,-0.0360107421875,-0.125671386719,0.820129394531,0.557067871094,-14.5,142.125,51.3125,4.12,0.56,11.53
1540942512701555967,269,0,/imu_data_acquisition2,11310.0,-0.0491333007812,-0.119812011719,0.822570800781,0.553771972656,-26.6875,159.875,70.3125,2.54,0.63,13.85
1540942512713222026,270,0,/imu_data_acquisition2,11320.0,-0.0650634765625,-0.115112304688,0.825866699219,0.548156738281,-57.5625,175.9375,101.25,1.06,-0.01,-0.01
1540942512720803976,271,0,/imu_data_acquisition2,11329.0,-0.0836791992188,-0.114074707031,0.830688476562,0.538452148438,-111.625,171.9375,152.6875,1.09,-2.56,10.26
1540942512733006000,272,0,/imu_data_acquisition2,11341.0,-0.103698730469,-0.114685058594,0.835998535156,0.526550292969,-138.625,171.75,177.5625,3.1,-0.71,-0.01
1540942512742182016,273,0,/imu_data_acquisition2,11350.0,-0.1220703125,-0.112548828125,0.840393066406,0.515869140625,-100.375,175.25,160.5,8.11,-7.17,11.98
1540942512750894069,274,0,/imu_data_acquisition2,11360.0,-0.0123291015625,-6.103515625e-05,-6.103515625e-05,0.507690429688,-49.0,167.9375,129.875,9.94,-5.11,14.14
1540942512762779951,275,0,/imu_data_acquisition2,11370.0,-0.148742675781,-0.100463867188,0.846130371094,0.501831054688,-5.875,143.8125,98.375,2.78,-6.56,24.96
1540942512770710945,276,0,/imu_data_acquisition2,11379.0,-0.152709960938,-0.097412109375,0.848571777344,0.4970703125,1.4375,-0.0625,-0.0625,9.33,2.42,11.76
1540942512782233953,277,0,/imu_data_acquisition2,11390.0,-0.150268554688,-0.0968627929688,0.851440429688,0.493041992188,15.9375,-30.9375,55.5,6.8,0.19,10.65
1540942512792896986,278,0,/imu_data_acquisition2,11400.0,-0.147033691406,-0.0987548828125,0.855224609375,0.487060546875,-6.6875,-57.1875,75.4375,6.18,-1.46,7.5
1540942512801757097,279,0,/imu_data_acquisition2,11409.0,-0.141845703125,-0.099609375,0.859313964844,0.481201171875,16.0625,-70.8125,74.8125,5.99,-2.87,7.82
1540942512813175916,280,0,/imu_data_acquisition2,11421.0,-0.135803222656,-0.1005859375,0.863708496094,0.474792480469,18.6875,-82.5,81.75,5.77,-3.38,9.73
1540942512821926116,281,0,/imu_data_acquisition2,11429.0,-0.128234863281,-0.101318359375,0.868103027344,0.468688964844,30.75,-95.3125,76.5,5.68,-3.61,9.88
1540942512835607051,282,0,/imu_data_acquisition2,11443.0,-0.119323730469,-0.103210449219,0.872375488281,0.462646484375,25.75,-116.125,72.1875,4.46,-5.03,8.03
1540942512844048976,283,0,/imu_data_acquisition2,11451.0,-0.109191894531,-0.106201171875,0.876342773438,0.456970214844,21.0625,-133.5,64.3125,4.14,-5.32,6.91
1540942512852922916,284,0,/imu_data_acquisition2,11459.0,-0.0983276367188,-0.110046386719,0.8798828125,0.451721191406,17.0625,-144.4375,54.9375,3.61,-5.66,6.72
1540942512864257097,285,0,/imu_data_acquisition2,11472.0,-0.0872192382812,-0.114501953125,0.882873535156,0.446960449219,11.0,-0.0625,-0.0625,3.45,-1.1,-0.01
1540942512872328042,286,0,/imu_data_acquisition2,11480.0,-0.0759887695312,-0.119812011719,0.88525390625,0.442932128906,3.4375,-153.5,34.125,3.13,-7.26,7.17
1540942512884182929,287,0,/imu_data_acquisition2,11492.0,-0.0647583007812,-0.126220703125,0.886962890625,0.439514160156,-8.9375,-157.6875,22.6875,2.85,-7.79,7.28
1540942512892378091,288,0,/imu_data_acquisition2,11500.0,-0.0534057617188,-0.13330078125,0.887817382812,0.437194824219,-15.9375,-160.125,6.8125,2.71,-7.68,7.27
1540942512902390956,289,0,/imu_data_acquisition2,11510.0,-0.0421142578125,-0.140930175781,0.887878417969,0.435913085938,-22.875,-160.25,-9.1875,2.44,-2.46,-0.01
1540942512913217067,290,0,/imu_data_acquisition2,11521.0,-0.031005859375,-0.148986816406,0.887084960938,0.435791015625,-28.25,-158.4375,-25.625,2.2,-7.3,7.77
1540942512920942068,291,0,/imu_data_acquisition2,11529.0,-0.020263671875,-0.15771484375,0.885498046875,0.436584472656,-38.4375,-155.75,-38.0625,2.02,-7.72,8.15
1540942512934612989,292,0,/imu_data_acquisition2,11543.0,-0.00982666015625,-0.166870117188,0.883178710938,0.438293457031,-14.0625,-0.0625,-0.0625,1.62,-7.91,8.45
1540942512943480014,293,0,/imu_data_acquisition2,11550.0,0.0001220703125,-0.176635742188,0.880065917969,0.440734863281,-56.25,-149.5,-62.4375,1.45,-7.92,8.63
1540942512952075958,294,0,/imu_data_acquisition2,11561.0,0.00982666015625,-0.186340332031,0.876220703125,0.444274902344,-58.6875,-15.75,-0.0625,1.29,-7.75,8.71
1540942512963836908,295,0,/imu_data_acquisition2,11572.0,0.0189819335938,-0.195983886719,0.871643066406,0.448913574219,-62.75,-136.1875,-91.5,0.88,-8.13,9.45
1540942512971173048,296,0,/imu_data_acquisition2,11579.0,0.02783203125,-0.20556640625,0.8662109375,0.454650878906,-65.4375,-130.25,-106.5625,0.84,-0.01,-0.01
1540942512983618021,297,0,/imu_data_acquisition2,11592.0,0.0358276367188,-0.215576171875,0.859985351562,0.461120605469,-77.25,-122.1875,-115.625,1.09,-8.13,9.38
1540942512993355989,298,0,/imu_data_acquisition2,11600.0,0.0436401367188,-0.224975585938,0.853088378906,0.46875,-73.8125,-114.5,-131.4375,0.83,-7.15,9.44
1540942513000699996,299,0,/imu_data_acquisition2,11609.0,0.0510864257812,-0.234191894531,0.845458984375,0.477233886719,-76.5625,-107.5625,-142.9375,0.68,-5.98,9.72
1540942513013227939,300,0,/imu_data_acquisition2,11622.0,0.05810546875,-0.243469238281,0.837158203125,0.486267089844,-81.625,-102.5625,-151.125,0.71,-6.78,9.77
1540942513031910896,301,0,/imu_data_acquisition2,11641.0,0.0645751953125,-0.252685546875,0.828430175781,0.495666503906,-85.5,-89.9375,-159.75,0.2,-4.57,10.15
1540942513042948007,302,0,/imu_data_acquisition2,11647.0,0.0706787109375,-0.261535644531,0.819274902344,0.505310058594,-85.5,-89.9375,-159.75,0.2,-4.57,10.15
1540942513080755949,303,0,/imu_data_acquisition2,11653.0,0.0762329101562,-0.270202636719,0.809936523438,0.514953613281,-88.0625,-83.375,-159.125,0.19,-4.17,10.3
1540942513082561016,304,0,/imu_data_acquisition2,11661.0,0.0812377929688,-0.278564453125,0.800537109375,0.524353027344,-88.0625,-76.9375,-156.25,0.13,-3.66,10.77
1540942513084268093,305,0,/imu_data_acquisition2,11670.0,0.0857543945312,-0.286499023438,0.791137695312,0.533508300781,-86.9375,-71.6875,-152.1875,-0.44,-1.75,11.15
1540942513088385105,306,0,/imu_data_acquisition2,11681.0,0.0901489257812,-0.293762207031,0.782043457031,0.542175292969,-80.0,-66.6875,-146.5625,-0.57,-1.2,10.2
1540942513138008117,307,0,/imu_data_acquisition2,11694.0,0.0901489257812,-0.293762207031,0.782043457031,0.542175292969,-76.9375,-61.3125,-133.625,-1.12,-0.01,-0.01
1540942513181334018,308,0,/imu_data_acquisition2,11700.0,0.0974731445312,-0.306518554688,0.765808105469,0.556823730469,-66.1875,-54.4375,-117.9375,-0.96,0.28,11.57
1540942513182713985,309,0,/imu_data_acquisition2,11713.0,0.0974731445312,-0.306518554688,0.765808105469,0.556823730469,-59.1875,-50.1875,-96.6875,-1.17,-1.03,13.58
1540942513185142993,310,0,/imu_data_acquisition2,11724.0,0.103454589844,-0.317077636719,0.753723144531,0.566223144531,-51.4375,-53.4375,-77.625,-1.48,-0.8,14.02
1540942513186661005,311,0,/imu_data_acquisition2,11730.0,0.103454589844,-6.103515625e-05,-6.103515625e-05,0.566223144531,-41.1875,-62.4375,-61.1875,-1.35,-0.43,12.26
1540942513188039064,312,0,/imu_data_acquisition2,11742.0,0.111145019531,-0.326965332031,0.745544433594,0.570007324219,-31.1875,-68.1875,-44.0625,-2.27,0.19,11.09
1540942513191829919,313,0,/imu_data_acquisition2,11749.0,0.111145019531,-0.326965332031,0.745544433594,0.570007324219,-15.1875,-0.0625,-0.0625,-2.64,1.01,10.8
1540942513192945003,314,0,/imu_data_acquisition2,11759.0,0.115478515625,-0.331298828125,0.743103027344,0.56982421875,-17.6875,-7.25,-0.0625,-2.83,0.56,10.0
1540942513195590019,315,0,/imu_data_acquisition2,11769.0,-6.103515625e-05,-6.103515625e-05,-6.103515625e-05,0.568237304688,-3.6875,-72.5,18.125,-3.44,-0.46,9.33
1540942513199673891,316,0,/imu_data_acquisition2,11780.0,0.123718261719,-0.339111328125,0.741882324219,0.565063476562,3.375,-73.125,37.1875,-3.76,-1.54,8.89
1540942513202308893,317,0,/imu_data_acquisition2,11790.0,0.127380371094,-0.3427734375,0.742980957031,0.560607910156,9.4375,-72.4375,52.9375,-3.91,-2.0,8.1
1540942513204683065,318,0,/imu_data_acquisition2,11799.0,0.130859375,-0.346130371094,0.744995117188,0.555053710938,20.375,-68.875,62.625,-4.06,-2.48,7.42
1540942513206036090,319,0,/imu_data_acquisition2,11809.0,0.134338378906,-0.348754882812,0.747741699219,0.548828125,30.1875,-61.8125,69.3125,-3.99,-2.98,5.95
1540942513211365938,320,0,/imu_data_acquisition2,11820.0,0.137573242188,-0.350524902344,0.751098632812,0.542297363281,39.0,-51.125,74.5625,-3.62,-3.37,5.5
1540942513236072063,321,0,/imu_data_acquisition2,11843.0,0.142395019531,-0.351135253906,0.759460449219,0.52880859375,43.125,-38.0,80.0,-2.7,-5.6,5.45
1540942513240103960,322,0,/imu_data_acquisition2,11848.0,0.143432617188,-0.350402832031,0.764221191406,0.522155761719,44.25,-24.125,84.375,-2.7,-5.6,5.45
1540942513242908954,323,0,/imu_data_acquisition2,11851.0,0.143432617188,-0.34912109375,0.769165039062,0.515686035156,43.0625,-10.875,85.9375,-2.24,-6.43,5.22
1540942513254993915,324,0,/imu_data_acquisition2,11861.0,0.143432617188,-0.34912109375,0.769165039062,0.515686035156,41.6875,2.5,84.25,-1.89,-7.02,5.33
1540942513261442899,325,0,/imu_data_acquisition2,11870.0,0.142639160156,-0.347290039062,0.774047851562,0.509765625,41.5,18.625,-0.0625,-1.08,-6.68,5.25
1540942513273663043,326,0,/imu_data_acquisition2,11882.0,0.140869140625,-0.3447265625,0.778869628906,0.504699707031,39.125,31.75,71.5,-0.88,-7.68,5.39
1540942513283395051,327,0,/imu_data_acquisition2,11891.0,0.138366699219,-0.341613769531,0.783386230469,0.500427246094,29.4375,46.125,67.375,-0.46,-7.63,5.45
1540942513291323900,328,0,/imu_data_acquisition2,11900.0,0.134643554688,-0.338500976562,0.78759765625,0.496948242188,29.4375,46.125,67.375,0.92,-10.39,5.84
1540942513301322937,329,0,/imu_data_acquisition2,11910.0,0.129943847656,-0.335205078125,0.791381835938,0.494445800781,22.0625,58.6875,58.9375,1.66,-7.75,6.03
1540942513313492059,330,0,/imu_data_acquisition2,11921.0,0.124450683594,-6.103515625e-05,-6.103515625e-05,0.493408203125,26.25,88.3125,17.375,2.57,-8.84,6.12
1540942513321827888,331,0,/imu_data_acquisition2,11930.0,0.119140625,-0.326232910156,0.796813964844,0.494384765625,12.3125,96.1875,3.375,8.42,-10.87,4.45
1540942513339005947,332,0,/imu_data_acquisition2,11942.0,0.113098144531,-0.321411132812,0.798278808594,0.496704101562,-34.0,89.3125,-10.625,16.78,-9.38,10.15
1540942513342067003,333,0,/imu_data_acquisition2,11950.0,0.105895996094,-0.31982421875,0.797729492188,0.500122070312,-34.0,89.3125,-10.625,16.92,-7.13,7.37
1540942513351075887,334,0,/imu_data_acquisition2,11960.0,0.103149414062,-0.316284179688,0.793640136719,0.509338378906,-9.75,76.5625,-105.3125,11.95,-6.53,-1.8
1540942513366079092,335,0,/imu_data_acquisition2,11971.0,0.100402832031,-0.312744140625,0.789489746094,0.518493652344,23.3125,106.9375,-115.5625,0.59,14.14,-5.04
1540942513373353958,336,0,/imu_data_acquisition2,11981.0,0.0973510742188,-0.305480957031,0.785827636719,0.52880859375,47.25,217.6875,-44.8125,0.32,7.48,4.04
1540942513382114887,337,0,/imu_data_acquisition2,11991.0,0.086181640625,-0.292175292969,0.786743164062,0.536926269531,54.625,217.5625,-17.8125,1.58,2.7,15.74
1540942513392396926,338,0,/imu_data_acquisition2,12000.0,-6.103515625e-05,-6.103515625e-05,-6.103515625e-05,0.54296875,54.625,217.5625,-17.8125,8.24,4.18,25.3
1540942513401992082,339,0,/imu_data_acquisition2,12010.0,-6.103515625e-05,-6.103515625e-05,-6.103515625e-05,0.548461914062,126.0625,163.0,-38.375,8.24,4.18,25.3
1540942513412486076,340,0,/imu_data_acquisition2,12021.0,0.0718994140625,-0.246215820312,0.792175292969,0.553833007812,131.125,39.9375,-30.3125,0.12,-0.49,15.68
1540942513424108028,341,0,/imu_data_acquisition2,12032.0,-6.103515625e-05,-6.103515625e-05,-6.103515625e-05,0.555847167969,111.5,42.625,-21.6875,3.54,-10.89,-0.68
1540942513433258056,342,0,/imu_data_acquisition2,12042.0,0.0787963867188,-0.00701904296875,-6.103515625e-05,0.557373046875,195.4375,91.4375,-71.4375,5.06,1.42,9.33
1540942513442858934,343,0,/imu_data_acquisition2,12052.0,0.0831909179688,-0.207824707031,0.7958984375,0.5625,203.625,110.125,-64.6875,12.54,10.95,25.53
1540942513452692031,344,0,/imu_data_acquisition2,12061.0,0.0865478515625,-0.188415527344,0.796997070312,0.567260742188,203.625,110.125,-64.6875,-2.82,24.44,36.94
1540942513463794946,345,0,/imu_data_acquisition2,12070.0,0.0868530273438,-0.0123291015625,-6.103515625e-05,0.566528320312,-88.0,10.125,49.3125,3.98,-18.74,7.55
1540942513472547054,346,0,/imu_data_acquisition2,12081.0,0.0811767578125,-0.190063476562,0.799499511719,0.56396484375,45.625,43.125,0.625,2.5,-2.93,13.27
1540942513485441923,347,0,/imu_data_acquisition2,12093.0,0.0804443359375,-0.184875488281,0.800537109375,0.564331054688,24.3125,34.3125,14.6875,3.28,5.46,8.82
1540942513491658926,348,0,/imu_data_acquisition2,12100.0,0.0790405273438,-0.181701660156,0.801879882812,0.563659667969,24.3125,34.3125,14.6875,3.68,-4.66,8.2
1540942513502990961,349,0,/imu_data_acquisition2,12112.0,0.0763549804688,-0.180847167969,0.803100585938,0.562622070312,-6.0625,29.9375,23.1875,3.43,0.69,9.18
1540942513513534069,350,0,/imu_data_acquisition2,12121.0,0.0750122070312,-0.176940917969,0.803894042969,0.562805175781,7.5625,38.25,9.6875,2.71,-1.02,10.33
1540942513524034023,351,0,/imu_data_acquisition2,12132.0,0.0726318359375,-0.174682617188,0.804748535156,0.562683105469,10.0,33.125,3.9375,3.01,-1.3,9.35
1540942513533592939,352,0,/imu_data_acquisition2,12142.0,0.07080078125,-0.172424316406,0.805297851562,0.562866210938,7.25,-0.0625,-0.0625,3.22,-1.74,9.29
1540942513543313026,353,0,/imu_data_acquisition2,12149.0,0.069091796875,-0.170532226562,0.805725097656,0.56298828125,7.25,29.625,3.5625,3.22,-1.74,9.29
1540942513551686048,354,0,/imu_data_acquisition2,12160.0,0.0674438476562,-0.168823242188,0.806091308594,0.563171386719,6.25,27.8125,2.625,2.73,-1.36,10.0
1540942513564018011,355,0,/imu_data_acquisition2,12172.0,0.06591796875,-0.167419433594,0.806335449219,0.563415527344,0.25,20.625,-0.375,2.68,-1.4,9.55
1540942513575171947,356,0,/imu_data_acquisition2,12182.0,0.0645141601562,-0.166442871094,0.806457519531,0.563720703125,-3.3125,17.25,-1.0625,2.49,-1.92,9.79
1540942513584249973,357,0,/imu_data_acquisition2,12191.0,0.0631713867188,-0.165832519531,0.806457519531,0.564025878906,-2.1875,13.625,-2.125,2.68,-1.98,9.36
1540942513593678951,358,0,/imu_data_acquisition2,12200.0,0.0621948242188,-0.165344238281,0.806396484375,0.564392089844,-2.1875,13.625,-2.125,2.69,-1.85,9.72
1540942513601527929,359,0,/imu_data_acquisition2,12209.0,0.061279296875,-0.164794921875,0.806335449219,0.564697265625,-1.0625,12.5625,-1.5,2.69,-1.85,9.72
1540942513612992048,360,0,/imu_data_acquisition2,12221.0,0.060546875,-0.164367675781,0.806335449219,0.564880371094,-1.0,10.3125,-1.1875,2.47,-1.87,9.6
1540942513625313043,361,0,/imu_data_acquisition2,12232.0,0.0597534179688,-0.163818359375,0.806396484375,0.565063476562,0.5625,9.0625,0.1875,2.51,-1.99,9.47
1540942513632648944,362,0,/imu_data_acquisition2,12241.0,0.0591430664062,-0.163391113281,0.806457519531,0.565185546875,2.5625,8.0625,-0.125,2.64,-1.83,9.35
1540942513645912885,363,0,/imu_data_acquisition2,12250.0,0.0587158203125,-6.103515625e-05,-6.103515625e-05,0.565307617188,2.5625,8.0625,-0.0625,2.64,-1.83,9.35
1540942513654625892,364,0,/imu_data_acquisition2,12262.0,0.0582885742188,-0.162231445312,0.806579589844,0.565368652344,2.6875,6.75,0.1875,2.53,-1.81,9.34
1540942513660415887,365,0,/imu_data_acquisition2,12269.0,0.0579223632812,-0.161682128906,0.806701660156,0.565490722656,2.6875,6.75,0.1875,2.53,-1.81,9.34
1540942513674830913,366,0,/imu_data_acquisition2,12283.0,0.0576171875,-0.1611328125,0.806762695312,0.565551757812,3.125,6.0,0.3125,2.4,-1.87,9.43
1540942513684381008,367,0,/imu_data_acquisition2,12292.0,0.0573120117188,-0.160583496094,0.806823730469,0.565612792969,3.125,6.0,0.3125,2.53,-1.79,9.3
1540942513690264940,368,0,/imu_data_acquisition2,12299.0,0.0570678710938,-6.103515625e-05,-6.103515625e-05,0.565673828125,3.375,5.375,0.125,2.53,-1.79,9.3
1540942513702404975,369,0,/imu_data_acquisition2,12310.0,0.056884765625,-0.159545898438,0.807006835938,0.565734863281,3.625,4.9375,0.125,2.67,-1.76,9.2
1540942513714772939,370,0,/imu_data_acquisition2,12323.0,0.0567016601562,-0.158996582031,0.807067871094,0.565795898438,3.875,5.3125,0.125,2.55,-1.82,9.14
1540942513725315093,371,0,/imu_data_acquisition2,12332.0,0.0565795898438,-0.158447265625,0.807189941406,0.565856933594,3.6875,4.4375,0.9375,2.52,-1.76,9.3
1540942513735388040,372,0,/imu_data_acquisition2,12344.0,0.056396484375,-0.157958984375,0.807312011719,0.565795898438,3.75,3.9375,0.8125,2.33,-1.73,9.51
1540942513745484113,373,0,/imu_data_acquisition2,12350.0,0.0562744140625,-6.103515625e-05,-6.103515625e-05,0.565795898438,3.75,3.9375,0.8125,2.33,-1.73,9.51
1540942513750591993,374,0,/imu_data_acquisition2,12359.0,0.05615234375,-0.156921386719,0.807495117188,0.565795898438,3.1875,3.0,0.625,2.4,-1.72,9.65
1540942513763808012,375,0,/imu_data_acquisition2,12371.0,0.05615234375,-0.156616210938,0.807556152344,0.565856933594,2.75,2.625,0.375,2.46,-1.73,9.21
1540942513775898933,376,0,/imu_data_acquisition2,12382.0,0.0560913085938,-0.156433105469,0.8076171875,0.565856933594,1.625,1.25,0.375,2.41,-1.6,9.27
1540942513782735109,377,0,/imu_data_acquisition2,12392.0,0.05615234375,-0.156311035156,0.8076171875,0.565856933594,1.8125,0.8125,0.1875,2.48,-1.72,9.39
1540942513792265892,378,0,/imu_data_acquisition2,12400.0,0.05615234375,-0.156066894531,0.807678222656,0.565856933594,1.375,0.9375,0.125,2.48,-1.72,9.39
1540942513806862115,379,0,/imu_data_acquisition2,12412.0,0.05615234375,-0.155883789062,0.807678222656,0.565856933594,1.1875,0.625,0.1875,2.24,-1.67,9.45
1540942513812772989,380,0,/imu_data_acquisition2,12421.0,-6.103515625e-05,-6.103515625e-05,-6.103515625e-05,0.565856933594,1.1875,0.625,0.1875,2.36,-1.63,9.37
1540942513825714111,381,0,/imu_data_acquisition2,12433.0,0.0560913085938,-0.155395507812,0.807739257812,0.56591796875,0.75,0.4375,0.0,2.14,-1.7,9.43
1540942513837352991,382,0,/imu_data_acquisition2,12444.0,0.0559692382812,-0.155151367188,0.807800292969,0.56591796875,0.75,-0.125,0.125,2.31,-1.72,9.36
1540942513841964006,383,0,/imu_data_acquisition2,12450.0,0.0559692382812,-0.154968261719,0.807861328125,0.56591796875,0.75,-0.125,0.125,2.31,-1.72,9.36
1540942513855304002,384,0,/imu_data_acquisition2,12463.0,0.0558471679688,-0.154724121094,0.807861328125,0.56591796875,1.125,0.0625,0.3125,2.21,-1.64,9.37
1540942513865905046,385,0,/imu_data_acquisition2,12472.0,0.0557861328125,-0.154418945312,0.807983398438,0.565856933594,1.125,-0.0625,0.6875,2.39,-1.69,9.31
1540942513873862981,386,0,/imu_data_acquisition2,12482.0,0.0557861328125,-0.154174804688,0.808044433594,0.565856933594,1.375,-0.1875,0.625,2.26,-1.58,9.22
1540942513886157989,387,0,/imu_data_acquisition2,12493.0,0.0557861328125,-0.153930664062,0.808166503906,0.565795898438,1.6875,-0.25,0.9375,2.36,-1.69,9.36
