%time,field.header.seq,field.header.stamp,field.header.frame_id,field.time_stamp,field.quat_x,field.quat_y,field.quat_z,field.quat_w,field.gyro_x,field.gyro_y,field.gyro_z,field.accel_x,field.accel_y,field.accel_z
1540941669958956003,10745,0,/imu_data_acquisition2,133963.0,0.007568359375,-0.132385253906,0.767517089844,0.627136230469,-1.625,2.0,-0.5625,1.94,-2.08,9.66
1540941669964531898,10746,0,/imu_data_acquisition2,133971.0,0.00732421875,-0.132385253906,0.767517089844,0.627197265625,-1.6875,2.625,0.0,1.94,-2.08,9.66
1540941669974354028,10747,0,/imu_data_acquisition2,133981.0,0.007080078125,-0.13232421875,0.767517089844,0.627197265625,-1.0625,2.5625,0.5625,1.94,-1.94,9.59
1540941669986562967,10748,0,/imu_data_acquisition2,133993.0,0.0069580078125,-0.13232421875,0.767517089844,0.627136230469,-1.0,1.5625,1.125,2.21,-1.93,9.56
1540941669996726989,10749,0,/imu_data_acquisition2,134003.0,0.0067138671875,-0.132263183594,0.767639160156,0.627014160156,-1.1875,2.0,2.0625,2.0,-2.02,-0.01
1540941670007364988,10750,0,/imu_data_acquisition2,134014.0,0.0064697265625,-0.13232421875,0.767761230469,0.626892089844,-2.0625,1.25,2.75,2.23,-1.96,9.32
1540941670014769077,10751,0,/imu_data_acquisition2,134021.0,0.00653076171875,-0.132629394531,0.767822265625,0.626708984375,-2.25,0.25,2.3125,2.23,-1.96,9.32
1540941670024101018,10752,0,/imu_data_acquisition2,134031.0,0.00640869140625,-0.132934570312,0.767883300781,0.626586914062,-2.875,0.6875,2.1875,2.17,-2.03,9.55
1540941670034159898,10753,0,/imu_data_acquisition2,134041.0,0.00628662109375,-0.133178710938,0.767944335938,0.62646484375,-2.9375,0.8125,1.875,1.85,-2.06,9.47
1540941670047106981,10754,0,/imu_data_acquisition2,134054.0,0.00604248046875,-0.133483886719,0.768005371094,0.626342773438,-3.25,0.6875,1.8125,1.98,-1.92,9.41
1540941670057368993,10755,0,/imu_data_acquisition2,134064.0,0.0059814453125,-0.133666992188,0.768005371094,0.626281738281,-2.75,0.3125,1.5,1.86,-1.91,9.46
1540941670064306020,10756,0,/imu_data_acquisition2,134071.0,0.00579833984375,-0.133911132812,0.76806640625,0.626159667969,-2.9375,0.75,1.75,1.86,-1.91,9.46
1540941670074014902,10757,0,/imu_data_acquisition2,134081.0,0.005615234375,-0.134033203125,0.768188476562,0.626037597656,-2.625,0.6875,2.0625,1.75,-1.84,9.36
1540941670088677883,10758,0,/imu_data_acquisition2,134094.0,0.0054931640625,-0.134216308594,0.768249511719,0.625915527344,-2.5,0.5,2.4375,1.93,-1.84,9.02
1540941670097932100,10759,0,/imu_data_acquisition2,134104.0,0.00543212890625,-0.134399414062,0.768371582031,0.625732421875,-1.625,0.4375,2.625,1.91,-1.95,9.37
1540941670114414930,10760,0,/imu_data_acquisition2,134115.0,0.00537109375,-0.134460449219,0.768493652344,0.625549316406,-1.6875,0.6875,3.125,1.94,-1.78,9.35
1540941670121573925,10761,0,/imu_data_acquisition2,134126.0,0.00518798828125,-0.134643554688,0.768798828125,0.625122070312,-1.75,1.3125,3.9375,1.87,-1.96,9.44
1540941670127733945,10762,0,/imu_data_acquisition2,134134.0,0.00518798828125,-0.134643554688,0.768798828125,0.625122070312,-1.75,1.3125,3.9375,2.11,-1.86,9.29
1540941670137020111,10763,0,/imu_data_acquisition2,134142.0,0.00518798828125,-0.134704589844,0.768981933594,0.624877929688,-0.75,1.125,3.9375,2.11,-1.86,9.29
1540941670148648977,10764,0,/imu_data_acquisition2,134154.0,0.005126953125,-0.134765625,0.769226074219,0.624633789062,-1.0,1.5625,4.25,1.97,-1.92,9.47
1540941670159702062,10765,0,/imu_data_acquisition2,134166.0,0.00494384765625,-0.134765625,0.769409179688,0.624389648438,-2.1875,3.25,4.25,1.85,-2.01,9.5
1540941670165791988,10766,0,/imu_data_acquisition2,134171.0,0.004638671875,-0.134826660156,0.769592285156,0.624145507812,-2.1875,3.25,4.25,1.85,-2.01,9.5
1540941670177814960,10767,0,/imu_data_acquisition2,134182.0,0.00421142578125,-0.134826660156,0.769714355469,0.623962402344,-2.9375,3.8125,3.6875,1.86,-1.94,9.37
1540941670187318086,10768,0,/imu_data_acquisition2,134193.0,0.0037841796875,-0.134826660156,0.769836425781,0.623779296875,-3.625,4.3125,3.25,1.87,-1.87,9.49
1540941670197381973,10769,0,/imu_data_acquisition2,134203.0,0.0032958984375,-0.135009765625,0.769897460938,0.623657226562,-5.0625,4.75,2.625,2.13,-1.96,9.29
1540941670209291934,10770,0,/imu_data_acquisition2,134214.0,0.0028076171875,-0.135070800781,0.769958496094,0.623596191406,-5.3125,5.8125,2.125,1.83,-2.02,9.48
1540941670218058109,10771,0,/imu_data_acquisition2,134223.0,0.00201416015625,-0.13525390625,0.77001953125,0.62353515625,-7.5625,6.6875,2.5625,1.83,-2.02,9.48
1540941670225011110,10772,0,/imu_data_acquisition2,134231.0,0.00115966796875,-0.135437011719,0.770080566406,0.623474121094,-7.4375,7.125,2.75,1.81,-2.15,9.49
1540941670241228103,10773,0,/imu_data_acquisition2,134243.0,0.0003662109375,-0.135620117188,0.770080566406,0.623352050781,-7.875,7.0625,3.0,2.09,-1.98,9.33
1540941670248912096,10774,0,/imu_data_acquisition2,134254.0,-6.103515625e-05,-6.103515625e-05,-6.103515625e-05,0.623168945312,-9.375,7.8125,3.6875,2.14,-2.07,9.25
1540941670257858991,10775,0,/imu_data_acquisition2,134264.0,-6.103515625e-05,-6.103515625e-05,-6.103515625e-05,0.623046875,-9.625,9.375,3.8125,2.01,-1.94,9.24
1540941670271302938,10776,0,/imu_data_acquisition2,134272.0,-0.00262451171875,-0.136535644531,0.770263671875,0.622924804688,-11.375,10.1875,3.8125,1.58,-2.04,9.47
1540941670277507066,10777,0,/imu_data_acquisition2,134282.0,-0.0040283203125,-0.136657714844,0.770263671875,0.622863769531,-11.9375,11.4375,3.0,1.49,-2.02,9.61
1540941670285736083,10778,0,/imu_data_acquisition2,134292.0,-0.0054931640625,-0.136962890625,0.770263671875,0.622802734375,-13.4375,11.4375,2.625,1.5,-2.17,9.37
1540941670301695108,10779,0,/imu_data_acquisition2,134305.0,-0.0069580078125,-0.137268066406,0.770141601562,0.622863769531,-13.5625,11.3125,1.3125,1.49,-2.11,9.41
1540941670310754060,10780,0,/imu_data_acquisition2,134315.0,-0.00848388671875,-0.137634277344,0.770080566406,0.622924804688,-14.75,11.375,1.125,1.32,-2.2,9.69
1540941670315958976,10781,0,/imu_data_acquisition2,134322.0,-0.0101318359375,-0.138000488281,0.769958496094,0.622924804688,-15.8125,11.5625,1.4375,1.32,-2.2,9.69
1540941670332916975,10782,0,/imu_data_acquisition2,134333.0,-0.0116577148438,-0.138549804688,0.769836425781,0.622924804688,-16.25,10.625,1.4375,1.6,-2.2,9.46
1540941670335684061,10783,0,/imu_data_acquisition2,134341.0,-0.0132446289062,-0.138977050781,0.769714355469,0.622985839844,-16.0625,10.4375,1.375,1.44,-2.2,9.45
1540941670348182916,10784,0,/imu_data_acquisition2,134354.0,-0.014892578125,-0.139465332031,0.769592285156,0.622924804688,-16.875,11.375,2.125,1.25,-2.39,9.48
1540941670355153083,10785,0,/imu_data_acquisition2,134362.0,-0.0164184570312,-0.139892578125,0.76953125,0.622924804688,-14.75,10.8125,2.125,1.53,-2.45,9.44
1540941670367470026,10786,0,/imu_data_acquisition2,134373.0,-0.01806640625,-0.140258789062,0.769470214844,0.622802734375,-16.0,11.9375,3.25,1.43,-2.41,9.46
1540941670379163980,10787,0,/imu_data_acquisition2,134382.0,-0.0197143554688,-0.140747070312,0.76953125,0.622619628906,-16.0,11.3125,4.9375,1.57,-2.72,9.61
1540941670385035991,10788,0,/imu_data_acquisition2,134391.0,-0.0214233398438,-0.140930175781,0.769592285156,0.622436523438,-14.1875,-0.0625,-0.0625,1.66,-1.7,8.98
1540941670399100065,10789,0,/imu_data_acquisition2,134405.0,-0.0235595703125,-0.141479492188,0.769714355469,0.622009277344,-21.1875,14.5,-0.0625,1.13,-2.59,9.48
1540941670410465955,10790,0,/imu_data_acquisition2,134415.0,-0.02587890625,-0.141967773438,0.77001953125,0.621459960938,-21.0625,16.9375,10.8125,0.92,-2.76,9.69
1540941670414804935,10791,0,/imu_data_acquisition2,134421.0,-0.0281982421875,-0.141967773438,0.770385742188,0.620910644531,-17.0,19.8125,11.5625,2.5,-2.06,-0.01
1540941670427746057,10792,0,/imu_data_acquisition2,134433.0,-0.031005859375,-0.142150878906,0.770812988281,0.620239257812,-21.375,22.875,14.1875,1.85,-2.17,8.98
1540941670440980911,10793,0,/imu_data_acquisition2,134445.0,-0.034423828125,-0.142517089844,0.771301269531,0.619323730469,-28.3125,26.6875,17.4375,1.4,-2.82,9.51
1540941670447300910,10794,0,/imu_data_acquisition2,134454.0,-0.0380249023438,-0.142395019531,0.771911621094,0.618408203125,-24.75,32.125,19.0625,1.55,-1.83,9.13
1540941670460618972,10795,0,/imu_data_acquisition2,134466.0,-0.04248046875,-0.142456054688,0.772644042969,0.6171875,-31.9375,37.375,24.125,1.52,-2.66,9.09
1540941670467015981,10796,0,/imu_data_acquisition2,134472.0,-0.04736328125,-0.141906738281,0.7734375,0.616027832031,-30.0,46.8125,24.625,1.52,-2.66,9.09
1540941670475132942,10797,0,/imu_data_acquisition2,134481.0,-0.0526123046875,-0.140869140625,0.774047851562,0.614990234375,-28.375,53.75,23.0,0.9,-2.59,9.8
1540941670487514019,10798,0,/imu_data_acquisition2,134494.0,-0.0585327148438,-0.139587402344,0.774719238281,0.613952636719,-15.0,-0.0625,-0.0625,2.26,-2.57,9.12
1540941670500147104,10799,0,/imu_data_acquisition2,134505.0,-0.0650634765625,-0.0128173828125,-6.103515625e-05,0.612976074219,-30.8125,70.5625,-0.0625,1.6,-2.06,9.7
1540941670509742021,10800,0,/imu_data_acquisition2,134516.0,-0.072509765625,-0.136047363281,0.776062011719,0.611572265625,-37.625,78.8125,31.875,1.61,-1.63,10.23
1540941670517494916,10801,0,/imu_data_acquisition2,134523.0,-0.081298828125,-0.134155273438,0.777038574219,0.609558105469,-45.9375,90.1875,41.5625,1.61,-1.63,10.23
1540941670525892972,10802,0,/imu_data_acquisition2,134532.0,-0.0911865234375,-0.132446289062,0.778442382812,0.606811523438,-56.4375,96.9375,52.25,2.22,-1.87,11.02
1540941670539489030,10803,0,/imu_data_acquisition2,134546.0,-0.102355957031,-0.130554199219,0.780456542969,0.602844238281,-64.3125,108.5,70.9375,0.7,-1.0,12.95
1540941670547786951,10804,0,/imu_data_acquisition2,134553.0,-0.115844726562,-0.129821777344,0.783569335938,0.596435546875,-92.3125,116.125,103.4375,0.7,-1.0,-0.01
1540941670559722900,10805,0,/imu_data_acquisition2,134565.0,-0.13134765625,-0.00634765625,-6.103515625e-05,0.5869140625,-129.375,112.6875,141.1875,-0.39,-4.34,9.72
1540941670567307949,10806,0,/imu_data_acquisition2,134574.0,-6.103515625e-05,-6.103515625e-05,-6.103515625e-05,0.576049804688,-137.8125,121.875,158.5625,-0.25,-3.83,9.3
1540941670577461004,10807,0,/imu_data_acquisition2,134582.0,-0.165161132812,-0.132263183594,0.797607421875,0.564880371094,-125.0,137.625,165.1875,0.13,-6.46,9.03
1540941670586323976,10808,0,/imu_data_acquisition2,134592.0,-0.181518554688,-0.128173828125,0.801879882812,0.5546875,-84.25,157.3125,158.3125,0.84,-7.04,9.77
1540941670598174095,10809,0,/imu_data_acquisition2,134604.0,-0.195983886719,-0.121032714844,0.805419921875,0.546081542969,-40.1875,163.3125,142.3125,7.14,-7.61,12.76
1540941670612729072,10810,0,/imu_data_acquisition2,134613.0,-0.206176757812,-0.11083984375,0.808227539062,0.540344238281,22.0625,148.9375,110.6875,8.67,-4.77,13.78
1540941670618347883,10811,0,/imu_data_acquisition2,134624.0,-0.2119140625,-0.00689697265625,-6.103515625e-05,0.537231445312,56.125,111.1875,74.75,3.11,-1.55,19.59
1540941670626986026,10812,0,/imu_data_acquisition2,134633.0,-0.2119140625,-0.098876953125,0.813171386719,0.532958984375,9.5625,-1.5625,64.5625,9.03,-1.07,9.55
1540941670642039060,10813,0,/imu_data_acquisition2,134643.0,-0.208984375,-0.0995483398438,0.817077636719,0.528015136719,3.8125,-47.8125,67.375,6.07,-0.89,-0.01
1540941670652625083,10814,0,/imu_data_acquisition2,134656.0,-0.204956054688,-0.100646972656,0.821472167969,0.522521972656,6.25,-63.625,72.875,6.18,-1.68,7.64
1540941670661772012,10815,0,/imu_data_acquisition2,134666.0,-0.200012207031,-0.101379394531,0.826049804688,0.517028808594,15.5,-69.75,74.0,5.4,-4.87,9.49
1540941670669339895,10816,0,/imu_data_acquisition2,134675.0,-0.194152832031,-0.10205078125,0.83056640625,0.511840820312,22.3125,-78.5625,69.875,5.4,-4.87,9.49
1540941670679662942,10817,0,/imu_data_acquisition2,134683.0,-0.187438964844,-0.104064941406,0.8349609375,0.5068359375,14.75,-94.1875,63.4375,5.11,-6.18,8.86
1540941670685538053,10818,0,/imu_data_acquisition2,134692.0,-0.179748535156,-0.106872558594,0.8388671875,0.502563476562,14.0,-106.5625,49.75,4.91,-0.01,-0.01
1540941670698199987,10819,0,/imu_data_acquisition2,134704.0,-0.171447753906,-0.110290527344,0.842163085938,0.499145507812,12.4375,-114.5,35.5,4.08,-6.57,6.86
1540941670707413911,10820,0,/imu_data_acquisition2,134711.0,-0.162719726562,-0.1142578125,0.844909667969,0.496643066406,10.3125,-119.0,21.8125,3.9,-0.01,-0.01
1540941670716020107,10821,0,/imu_data_acquisition2,134722.0,-0.154052734375,-0.119018554688,0.846984863281,0.494689941406,2.1875,-121.5,11.0,3.85,-6.59,7.11
1540941670727339982,10822,0,/imu_data_acquisition2,134732.0,-0.145324707031,-0.124633789062,0.848510742188,0.493408203125,-5.0,-125.0,-0.875,3.53,-7.2,7.93
1540941670735341072,10823,0,/imu_data_acquisition2,134741.0,-0.13623046875,-0.130798339844,0.849304199219,0.492980957031,-8.3125,-129.25,-15.0625,3.33,-6.83,7.92
1540941670747262001,10824,0,/imu_data_acquisition2,134754.0,-0.127014160156,-0.1376953125,0.849487304688,0.4931640625,-15.1875,-0.0625,-0.0625,3.19,-7.17,7.73
1540941670761774063,10825,0,/imu_data_acquisition2,134767.0,-0.117614746094,-0.14501953125,0.84912109375,0.494079589844,-17.875,-134.8125,-37.8125,2.66,-7.31,8.24
1540941670767023086,10826,0,/imu_data_acquisition2,134773.0,-0.108276367188,-0.152770996094,0.848083496094,0.495666503906,-22.8125,-135.625,-48.3125,2.66,-7.31,8.24
1540941670777961015,10827,0,/imu_data_acquisition2,134784.0,-0.0989379882812,-0.160766601562,0.846496582031,0.497802734375,-26.0625,-134.625,-58.5,2.27,-6.92,8.51
1540941670790004968,10828,0,/imu_data_acquisition2,134793.0,-0.0896606445312,-0.169311523438,0.84423828125,0.500549316406,-31.75,-135.625,-67.875,2.07,-7.31,8.98
1540941670796807050,10829,0,/imu_data_acquisition2,134802.0,-6.103515625e-05,-6.103515625e-05,-6.103515625e-05,0.50390625,-33.5625,-136.3125,-78.875,1.86,-6.88,9.45
1540941670807441949,10830,0,/imu_data_acquisition2,134814.0,-0.0708618164062,-0.18701171875,0.837951660156,0.5078125,-36.9375,-135.125,-87.8125,1.44,-6.55,9.5
1540941670820174932,10831,0,/imu_data_acquisition2,134823.0,-0.0617065429688,-0.196166992188,0.833984375,0.512023925781,-41.125,-133.3125,-93.5625,1.26,-6.31,9.68
1540941670825786113,10832,0,/imu_data_acquisition2,134832.0,-0.052734375,-0.205444335938,0.82958984375,0.516479492188,-43.5625,-130.9375,-98.1875,1.02,-6.55,10.13
1540941670840409040,10833,0,/imu_data_acquisition2,134847.0,-0.0438232421875,-0.214538574219,0.824829101562,0.521240234375,-43.625,-128.875,-103.0625,0.92,-6.42,10.02
1540941670850249052,10834,0,/imu_data_acquisition2,134853.0,-0.0348510742188,-0.223327636719,0.819702148438,0.526245117188,-41.1875,-126.375,-108.0,0.77,-6.16,9.8
1540941670856275081,10835,0,/imu_data_acquisition2,134863.0,-0.0260009765625,-0.23193359375,0.814331054688,0.531433105469,-40.0,-123.25,-110.5625,0.74,-5.98,10.0
1540941670868149995,10836,0,/imu_data_acquisition2,134872.0,-0.0172729492188,-0.240234375,0.808715820312,0.53662109375,-39.25,-120.6875,-111.8125,0.68,-6.06,9.98
1540941670876207113,10837,0,/imu_data_acquisition2,134881.0,-0.00872802734375,-0.248413085938,0.802917480469,0.541809082031,-39.25,-117.875,-112.625,0.75,-6.2,9.77
1540941670886720895,10838,0,/imu_data_acquisition2,134892.0,-0.000244140625,-0.256225585938,0.796936035156,0.547058105469,-5.125,-0.0625,-0.0625,0.82,-6.24,9.77
1540941670900024890,10839,0,/imu_data_acquisition2,134904.0,0.008056640625,-0.263732910156,0.790771484375,0.552368164062,-35.625,-110.8125,-115.125,0.33,-6.13,9.52
1540941670905379056,10840,0,/imu_data_acquisition2,134912.0,0.0161743164062,-6.103515625e-05,-6.103515625e-05,0.557739257812,-34.625,-106.875,-116.4375,0.9,-5.79,9.45
1540941670916182041,10841,0,/imu_data_acquisition2,134922.0,0.02392578125,-0.278015136719,0.777893066406,0.563049316406,-36.5625,-103.125,-115.8125,0.29,-5.59,9.63
1540941670927848100,10842,0,/imu_data_acquisition2,134933.0,0.0315551757812,-0.284851074219,0.771301269531,0.568359375,-35.375,-99.625,-116.0625,0.27,-5.19,9.51
1540941671016966104,10843,0,/imu_data_acquisition2,134941.0,-6.103515625e-05,-6.103515625e-05,-6.103515625e-05,0.573791503906,-27.875,-92.75,-117.4375,0.46,-4.6,9.62
1540941671020328998,10844,0,/imu_data_acquisition2,134952.0,0.0462646484375,-0.296447753906,0.758056640625,0.579040527344,-27.0625,-88.625,-114.5,0.22,-3.97,9.66
1540941671021965980,10845,0,/imu_data_acquisition2,134962.0,0.0531005859375,-6.103515625e-05,-6.103515625e-05,0.583923339844,-28.8125,-6.375,-0.0625,0.1,-3.36,9.39
1540941671023475885,10846,0,/imu_data_acquisition2,134972.0,0.0596313476562,-0.307434082031,0.745483398438,0.58837890625,-27.4375,-83.0,-102.4375,-0.16,-2.94,9.12
1540941671025015115,10847,0,/imu_data_acquisition2,134983.0,0.0657958984375,-0.312438964844,0.739685058594,0.592407226562,-25.3125,-78.4375,-94.1875,-0.29,-2.09,8.7
1540941671026372909,10848,0,/imu_data_acquisition2,134991.0,0.0711669921875,-0.317016601562,0.734558105469,0.595703125,-23.75,-71.25,-81.6875,-0.46,-1.63,8.75
1540941671027750015,10849,0,/imu_data_acquisition2,135001.0,0.0755615234375,-0.321350097656,0.730163574219,0.598266601562,-25.5625,-62.375,-66.125,-0.33,-1.77,9.54
1540941671029927015,10850,0,/imu_data_acquisition2,135010.0,0.0789794921875,-0.32568359375,0.726440429688,0.599975585938,-28.9375,-56.875,-50.125,-0.56,-2.71,10.91
1540941671034256935,10851,0,/imu_data_acquisition2,135020.0,0.0819702148438,-0.330383300781,0.723205566406,0.600891113281,-32.5,-59.1875,-37.6875,-0.88,-3.52,10.74
1540941671035994052,10852,0,/imu_data_acquisition2,135031.0,0.0847778320312,-0.335754394531,0.720336914062,0.601013183594,-37.375,-64.375,-26.9375,-1.03,-3.52,9.83
1540941671038614988,10853,0,/imu_data_acquisition2,135041.0,0.087890625,-0.340515136719,0.718017578125,0.600646972656,-27.4375,-64.375,-21.375,-1.47,-2.78,9.79
1540941671044797897,10854,0,/imu_data_acquisition2,135051.0,0.0910034179688,-0.344970703125,0.716247558594,0.599792480469,-5.9375,-0.0625,-0.0625,-1.51,-2.44,9.04
1540941671058468103,10855,0,/imu_data_acquisition2,135064.0,0.0934448242188,-0.349426269531,0.715087890625,0.59814453125,-23.0625,-12.3125,-0.0625,-2.09,-3.41,8.87
1540941671064661026,10856,0,/imu_data_acquisition2,135071.0,0.0955810546875,-0.353698730469,0.714477539062,0.596069335938,-21.3125,-57.75,9.125,-2.44,-3.48,8.71
1540941671076565027,10857,0,/imu_data_acquisition2,135082.0,0.0975952148438,-0.357849121094,0.714172363281,0.593627929688,-19.125,-56.8125,15.0,-2.55,-4.12,8.55
1540941671089482069,10858,0,/imu_data_acquisition2,135093.0,0.099609375,-0.361450195312,0.714233398438,0.591003417969,-13.5,-5.1875,-0.0625,-3.1,-3.95,7.15
1540941671095649003,10859,0,/imu_data_acquisition2,135102.0,0.101318359375,-6.103515625e-05,-6.103515625e-05,0.588317871094,-8.25,-46.5625,21.5,-3.14,-0.96,-0.01
1540941671107450962,10860,0,/imu_data_acquisition2,135113.0,0.102600097656,-0.366760253906,0.715454101562,0.585693359375,-4.125,-37.1875,24.9375,-3.0,-4.38,6.18
1540941671115279912,10861,0,/imu_data_acquisition2,135121.0,0.103210449219,-0.368225097656,0.716613769531,0.583312988281,0.0,-24.6875,27.4375,-3.1,-4.62,5.92
1540941671126760005,10862,0,/imu_data_acquisition2,135133.0,0.103149414062,-0.369140625,0.717956542969,0.581115722656,-0.5625,-13.5,29.4375,-2.78,-5.05,5.7
1540941671139259099,10863,0,/imu_data_acquisition2,135144.0,0.102600097656,-0.369323730469,0.719421386719,0.579223632812,3.5625,-2.9375,28.3125,-2.72,-4.77,5.07
1540941671150839090,10864,0,/imu_data_acquisition2,135151.0,0.101623535156,-0.368591308594,0.721069335938,0.577819824219,8.375,9.5,27.0,-2.47,-4.9,5.22
1540941671156579017,10865,0,/imu_data_acquisition2,135163.0,0.100036621094,-0.366943359375,0.722900390625,0.576843261719,12.6875,22.75,-0.0625,-2.09,-4.41,5.34
1540941671169711112,10866,0,/imu_data_acquisition2,135173.0,0.0977172851562,-0.364624023438,0.724975585938,0.576110839844,13.6875,34.625,27.125,-1.78,-4.49,5.5
1540941671175807952,10867,0,/imu_data_acquisition2,135181.0,0.0946044921875,-6.103515625e-05,-6.103515625e-05,0.575622558594,12.8125,46.0625,29.625,-1.61,-4.55,5.63
1540941671188656091,10868,0,/imu_data_acquisition2,135194.0,-6.103515625e-05,-6.103515625e-05,-6.103515625e-05,0.575317382812,12.125,57.1875,31.9375,-1.1,-4.85,6.2
1540941671194328069,10869,0,/imu_data_acquisition2,135201.0,0.0862426757812,-0.354797363281,0.732055664062,0.575134277344,13.0,66.375,33.1875,-0.76,-4.87,6.6
1540941671206590890,10870,0,/imu_data_acquisition2,135213.0,0.0810546875,-6.103515625e-05,-6.103515625e-05,0.575012207031,6.25,72.125,35.8125,0.14,-0.01,-0.01
1540941671216857910,10871,0,/imu_data_acquisition2,135222.0,0.0761108398438,-0.346130371094,0.736694335938,0.575927734375,18.375,83.0,23.1875,3.23,-5.19,7.19
1540941671226061105,10872,0,/imu_data_acquisition2,135231.0,0.0718383789062,-0.340515136719,0.738220214844,0.577880859375,24.0,84.125,5.5625,12.35,-15.19,4.0
1540941671236798048,10873,0,/imu_data_acquisition2,135242.0,0.06640625,-0.337036132812,0.737854003906,0.5810546875,-10.75,83.6875,-11.3125,16.17,-17.07,12.83
1540941671248955011,10874,0,/imu_data_acquisition2,135252.0,0.067626953125,-0.328125,0.736083984375,0.588134765625,73.375,77.875,-85.75,12.08,-4.59,1.1
1540941671256865978,10875,0,/imu_data_acquisition2,135262.0,0.0652465820312,-0.323486328125,0.733337402344,0.594421386719,8.25,75.5,-68.375,4.74,0.52,-7.62
1540941671267024993,10876,0,/imu_data_acquisition2,135273.0,0.0626220703125,-0.309692382812,0.732666015625,0.602844238281,92.4375,151.1875,-78.375,0.56,13.04,-2.1
1540941671277751922,10877,0,/imu_data_acquisition2,135282.0,0.0547485351562,-0.0118408203125,-6.103515625e-05,0.610290527344,86.875,215.0,-0.0625,0.61,8.92,6.74
1540941671285063028,10878,0,/imu_data_acquisition2,135291.0,0.0426635742188,-0.280151367188,0.736206054688,0.614624023438,30.1875,215.5,-0.0625,1.27,-1.65,18.58
1540941671296669006,10879,0,/imu_data_acquisition2,135302.0,0.0360107421875,-0.265441894531,0.738464355469,0.618774414062,85.3125,179.375,-5.125,2.7,2.05,17.0
1540941671308346033,10880,0,/imu_data_acquisition2,135312.0,0.0337524414062,-0.25146484375,0.7412109375,0.621459960938,113.125,132.0625,-2.1875,3.73,3.63,12.61
1540941671315414905,10881,0,/imu_data_acquisition2,135321.0,0.031982421875,-0.237426757812,0.745300292969,0.622192382812,121.8125,122.125,23.1875,5.47,-1.29,9.98
1540941671327411890,10882,0,/imu_data_acquisition2,135332.0,0.0288696289062,-6.103515625e-05,-6.103515625e-05,0.622009277344,119.125,136.1875,40.0,4.75,-10.17,11.06
1540941671339832067,10883,0,/imu_data_acquisition2,135344.0,0.0231323242188,-0.212036132812,0.753173828125,0.622314453125,61.875,132.4375,31.3125,-1.44,-29.95,15.94
1540941671344604969,10884,0,/imu_data_acquisition2,135351.0,-6.103515625e-05,-6.103515625e-05,-6.103515625e-05,0.626403808594,148.0,-0.0625,-0.0625,0.55,4.05,6.99
1540941671356343984,10885,0,/imu_data_acquisition2,135362.0,0.0333251953125,-0.179077148438,0.753784179688,0.631408691406,220.4375,79.4375,-67.5,3.76,3.85,16.26
1540941671368691921,10886,0,/imu_data_acquisition2,135372.0,0.0396118164062,-0.162231445312,0.753601074219,0.6357421875,194.875,79.375,-59.625,5.03,9.97,-0.01
1540941671375200986,10887,0,/imu_data_acquisition2,135381.0,-6.103515625e-05,-6.103515625e-05,-6.103515625e-05,0.637756347656,137.1875,24.625,-34.5,0.22,8.16,15.24
1540941671386866092,10888,0,/imu_data_acquisition2,135392.0,0.0474853515625,-0.153381347656,0.754699707031,0.636108398438,3.3125,-26.75,19.875,3.83,-7.59,0.93
1540941671401257991,10889,0,/imu_data_acquisition2,135402.0,0.0418701171875,-0.158264160156,0.75634765625,0.633361816406,-81.5,9.5,50.0,1.52,-0.65,-0.01
1540941671406212091,10890,0,/imu_data_acquisition2,135412.0,-6.103515625e-05,-6.103515625e-05,-6.103515625e-05,0.632629394531,3.5,28.75,17.4375,2.29,-0.94,10.68
1540941671417135000,10891,0,/imu_data_acquisition2,135422.0,0.0389404296875,-0.15380859375,0.758483886719,0.632080078125,19.25,29.0,13.6875,3.23,-0.01,-0.01
1540941671428924083,10892,0,/imu_data_acquisition2,135431.0,0.0353393554688,-0.15380859375,0.759826660156,0.630676269531,-23.75,30.3125,28.75,2.35,-3.97,9.62
1540941671437587022,10893,0,/imu_data_acquisition2,135444.0,0.0323486328125,-0.152648925781,0.760803222656,0.629943847656,-9.5625,34.8125,19.375,1.92,-1.96,9.93
1540941671447073936,10894,0,/imu_data_acquisition2,135452.0,0.030517578125,-0.150634765625,0.761474609375,0.629699707031,5.5,31.25,9.3125,1.76,-2.06,9.87
1540941671456650972,10895,0,/imu_data_acquisition2,135462.0,0.0282592773438,-0.149841308594,0.762084960938,0.629272460938,-8.6875,25.625,11.9375,2.45,-2.34,8.73
1540941671465508937,10896,0,/imu_data_acquisition2,135472.0,0.026611328125,-0.148803710938,0.762451171875,0.629150390625,-2.375,22.6875,6.4375,2.86,-1.38,9.24
1540941671477155923,10897,0,/imu_data_acquisition2,135483.0,0.02490234375,-0.147521972656,0.762756347656,0.629150390625,0.375,-0.0625,-0.0625,2.31,-2.27,9.66
1540941671486655950,10898,0,/imu_data_acquisition2,135491.0,0.02490234375,-0.147521972656,0.762756347656,0.629150390625,-5.0,25.8125,7.1875,2.58,-1.95,8.65
1540941671496468067,10899,0,/imu_data_acquisition2,135503.0,0.0211181640625,-0.145080566406,0.763427734375,0.629028320312,-0.375,26.1875,5.3125,2.05,-1.7,9.73
1540941671507227897,10900,0,/imu_data_acquisition2,135513.0,0.0191650390625,-0.143859863281,0.763793945312,0.628967285156,-2.8125,26.6875,6.1875,2.05,-2.32,9.65
1540941671516807079,10901,0,/imu_data_acquisition2,135522.0,0.0176391601562,-0.142761230469,0.764038085938,0.62890625,-1.375,22.125,4.75,2.2,-1.79,10.02
1540941671526298999,10902,0,/imu_data_acquisition2,135532.0,0.0164184570312,-0.141784667969,0.764282226562,0.62890625,0.1875,18.4375,3.25,2.19,-1.92,9.1
1540941671537558078,10903,0,/imu_data_acquisition2,135543.0,0.0151977539062,-0.140930175781,0.764465332031,0.628845214844,-0.75,16.8125,3.875,2.15,-1.98,9.7
1540941671545671939,10904,0,/imu_data_acquisition2,135552.0,0.0151977539062,-0.140930175781,0.764465332031,0.628845214844,-0.875,16.0625,4.0625,1.68,-2.25,9.89
1540941671556539058,10905,0,/imu_data_acquisition2,135563.0,0.0131225585938,-0.139465332031,0.764892578125,0.628723144531,-0.25,13.875,3.375,1.93,-1.97,9.33
1540941671568074941,10906,0,/imu_data_acquisition2,135573.0,0.0131225585938,-0.139465332031,0.764892578125,0.628723144531,1.0,10.75,2.5,1.91,-2.04,9.78
1540941671575754880,10907,0,/imu_data_acquisition2,135582.0,0.012451171875,-0.0137939453125,-6.103515625e-05,0.628723144531,0.75,9.1875,2.6875,1.97,-2.12,9.52
1540941671587033987,10908,0,/imu_data_acquisition2,135593.0,0.0113525390625,-0.137756347656,0.765380859375,0.628540039062,1.0,8.125,2.75,1.84,-1.96,9.45
1540941671597779989,10909,0,/imu_data_acquisition2,135603.0,-6.103515625e-05,-6.103515625e-05,-6.103515625e-05,0.628540039062,1.5625,8.0625,2.875,1.59,-2.22,9.63
1540941671606193065,10910,0,/imu_data_acquisition2,135612.0,0.010498046875,-0.136779785156,0.765747070312,0.628356933594,1.75,6.5625,2.5,1.94,-1.79,9.29
1540941671617362976,10911,0,/imu_data_acquisition2,135623.0,0.010498046875,-0.136779785156,0.765747070312,0.628356933594,3.25,5.75,1.5625,1.77,-1.88,9.51
1540941671635066032,10912,0,/imu_data_acquisition2,135632.0,0.01025390625,-0.136291503906,0.765869140625,0.628295898438,3.25,5.75,1.5625,1.87,-1.99,9.62
1540941671638833045,10913,0,/imu_data_acquisition2,135644.0,0.00994873046875,-0.135803222656,0.765991210938,0.628234863281,2.5,5.3125,1.5,1.95,-1.76,9.32
1540941671648966073,10914,0,/imu_data_acquisition2,135652.0,0.009765625,-0.135375976562,0.76611328125,0.628234863281,2.25,5.5,1.0,1.76,-1.85,9.16
1540941671655608892,10915,0,/imu_data_acquisition2,135662.0,0.009521484375,-0.134887695312,0.766174316406,0.628234863281,1.3125,5.125,1.125,2.47,-1.75,9.62
1540941671669250965,10916,0,/imu_data_acquisition2,135673.0,0.00921630859375,-0.134582519531,0.766296386719,0.628234863281,0.625,4.625,1.1875,0.91,-1.95,9.43
1540941671678524017,10917,0,/imu_data_acquisition2,135684.0,0.00897216796875,-0.13427734375,0.766357421875,0.628173828125,-0.5,4.5625,1.0625,1.68,-1.8,9.48
1540941671685015916,10918,0,/imu_data_acquisition2,135691.0,0.0086669921875,-0.134033203125,0.766418457031,0.628173828125,-0.5,4.5625,1.0625,1.81,-1.98,9.38
1540941671697146892,10919,0,/imu_data_acquisition2,135703.0,0.008544921875,-0.133666992188,0.766418457031,0.628173828125,1.0625,3.0,0.5625,1.92,-2.06,9.33
1540941671707537889,10920,0,/imu_data_acquisition2,135713.0,0.0084228515625,-0.133422851562,0.766479492188,0.628234863281,3.0,3.0625,0.5,0.81,-1.9,9.56
1540941671717627048,10921,0,/imu_data_acquisition2,135723.0,0.00836181640625,-0.133056640625,0.766479492188,0.628295898438,1.3125,5.5,2.1875,1.71,-2.51,9.73
1540941671727220058,10922,0,/imu_data_acquisition2,135732.0,0.008056640625,-0.132690429688,0.7666015625,0.628173828125,1.5,3.8125,1.875,1.75,-1.74,9.47
1540941671739056110,10923,0,/imu_data_acquisition2,135745.0,0.00775146484375,-6.103515625e-05,-6.103515625e-05,0.628051757812,4.375,4.75,1.125,1.87,-1.81,9.74
1540941671747694969,10924,0,/imu_data_acquisition2,135752.0,0.00775146484375,-0.1318359375,0.766845703125,0.628051757812,1.25,2.25,2.4375,1.55,-1.74,9.52
1540941671757004976,10925,0,/imu_data_acquisition2,135763.0,0.0076904296875,-0.131652832031,0.767028808594,0.6279296875,4.3125,3.125,1.4375,1.62,-1.79,9.7
1540941671768857002,10926,0,/imu_data_acquisition2,135774.0,0.0076904296875,-0.131225585938,0.767150878906,0.627868652344,1.8125,1.5625,1.5,1.7,-1.93,9.31
1540941671774826049,10927,0,/imu_data_acquisition2,135781.0,0.00762939453125,-0.131042480469,0.767211914062,0.627807617188,1.8125,1.5625,1.5,1.78,-1.76,9.49
1540941671786672115,10928,0,/imu_data_acquisition2,135792.0,0.0076904296875,-0.130737304688,0.767272949219,0.627746582031,2.5625,1.625,0.6875,1.7,-2.02,9.5
1540941671798830032,10929,0,/imu_data_acquisition2,135803.0,0.00775146484375,-0.130676269531,0.767333984375,0.627746582031,1.0,0.4375,0.625,1.63,-1.88,9.41
1540941671805861949,10930,0,/imu_data_acquisition2,135812.0,0.0078125,-0.130615234375,0.767333984375,0.627746582031,1.8125,0.125,0.375,1.71,-1.98,9.54
1540941671817922115,10931,0,/imu_data_acquisition2,135824.0,0.00787353515625,-0.130493164062,0.767395019531,0.627746582031,0.9375,-0.25,1.125,1.8,-1.7,9.46
1540941671831244945,10932,0,/imu_data_acquisition2,135835.0,0.008056640625,-0.00531005859375,-6.103515625e-05,0.627624511719,1.8125,-0.25,0.8125,1.86,-1.68,9.52
1540941671835839033,10933,0,/imu_data_acquisition2,135841.0,0.008056640625,-0.00531005859375,-6.103515625e-05,0.627624511719,1.8125,-0.25,0.8125,1.86,-1.68,9.52
1540941671847843885,10934,0,/imu_data_acquisition2,135854.0,-6.103515625e-05,-6.103515625e-05,-6.103515625e-05,0.627502441406,0.375,-1.0625,0.8125,1.66,-1.76,9.82
1540941671857269048,10935,0,/imu_data_acquisition2,135863.0,0.008056640625,-0.130493164062,0.767639160156,0.62744140625,1.5,0.5,0.625,2.07,-1.98,-0.01
1540941671866488933,10936,0,/imu_data_acquisition2,135873.0,-6.103515625e-05,-6.103515625e-05,-6.103515625e-05,0.627380371094,0.1875,-0.4375,1.0,1.95,-1.93,9.56
1540941671876899957,10937,0,/imu_data_acquisition2,135882.0,0.00823974609375,-0.130493164062,0.767700195312,0.627319335938,0.1875,-0.4375,1.0,1.68,-2.01,-0.01
1540941671886071920,10938,0,/imu_data_acquisition2,135891.0,-6.103515625e-05,-6.103515625e-05,-6.103515625e-05,0.627258300781,1.5,0.3125,0.625,1.68,-2.01,9.64
1540941671896361112,10939,0,/imu_data_acquisition2,135903.0,0.00830078125,-6.103515625e-05,-6.103515625e-05,0.627197265625,1.125,0.25,0.5625,1.89,-1.69,9.21
1540941671907735109,10940,0,/imu_data_acquisition2,135913.0,0.00836181640625,-0.130310058594,0.767822265625,0.627197265625,0.0625,0.4375,0.8125,1.74,-1.86,9.48
1540941671922271013,10941,0,/imu_data_acquisition2,135923.0,-6.103515625e-05,-6.103515625e-05,-6.103515625e-05,0.627136230469,0.0625,0.4375,0.8125,1.61,-1.79,9.49
1540941671926115989,10942,0,/imu_data_acquisition2,135932.0,0.00830078125,-0.130310058594,0.767944335938,0.627075195312,0.3125,0.4375,0.625,1.56,-1.94,-0.01
1540941671937381029,10943,0,/imu_data_acquisition2,135943.0,-6.103515625e-05,-6.103515625e-05,-6.103515625e-05,0.627075195312,-0.375,-0.4375,0.6875,1.45,-1.9,9.56
1540941671947511911,10944,0,/imu_data_acquisition2,135953.0,0.00823974609375,-0.130249023438,0.767944335938,0.627075195312,0.25,-0.25,0.25,1.59,-1.89,9.56
1540941671957240104,10945,0,/imu_data_acquisition2,135963.0,-6.103515625e-05,-6.103515625e-05,-6.103515625e-05,0.627075195312,-0.0625,-0.375,0.25,1.65,-1.94,9.5
1540941671968894004,10946,0,/imu_data_acquisition2,135974.0,0.0081787109375,-0.130249023438,0.768005371094,0.627075195312,-0.625,-0.3125,0.375,1.6,-1.85,9.59
1540941672030313014,10947,0,/imu_data_acquisition2,135983.0,0.00811767578125,-0.130249023438,0.767944335938,0.627075195312,-0.625,-0.3125,0.375,1.74,-1.92,9.54
1540941672033704996,10948,0,/imu_data_acquisition2,135993.0,0.00811767578125,-6.103515625e-05,-6.103515625e-05,0.627075195312,-0.625,-0.6875,0.1875,1.52,-1.84,9.51
1540941672035561084,10949,0,/imu_data_acquisition2,136003.0,0.00811767578125,-0.130310058594,0.767944335938,0.627014160156,-0.375,-0.25,0.25,1.39,-1.93,9.63
1540941672036510944,10950,0,/imu_data_acquisition2,136013.0,-6.103515625e-05,-6.103515625e-05,-6.103515625e-05,0.627014160156,-0.375,-0.25,0.25,1.51,-1.9,9.6
1540941672039350986,10951,0,/imu_data_acquisition2,136023.0,-6.103515625e-05,-6.103515625e-05,-6.103515625e-05,0.627014160156,-0.4375,-0.8125,0.25,1.4,-1.9,9.64
1540941672045725107,10952,0,/imu_data_acquisition2,136032.0,-6.103515625e-05,-6.103515625e-05,-6.103515625e-05,0.627014160156,-0.0625,-0.5625,0.1875,1.4,-1.9,9.64
1540941672051532030,10953,0,/imu_data_acquisition2,136043.0,-6.103515625e-05,-6.103515625e-05,-6.103515625e-05,0.627014160156,-0.3125,-0.375,0.3125,1.59,-1.85,9.28
1540941672054526090,10954,0,/imu_data_acquisition2,136054.0,0.0078125,-0.130126953125,0.768005371094,0.627014160156,-0.375,-0.75,0.1875,1.15,-1.94,9.65
1540941672062225103,10955,0,/imu_data_acquisition2,136063.0,0.0076904296875,-0.130065917969,0.76806640625,0.627014160156,-0.375,-0.75,0.1875,1.6,-1.91,9.46
1540941672069258928,10956,0,/imu_data_acquisition2,136074.0,0.00762939453125,-0.130004882812,0.76806640625,0.627014160156,-0.3125,-0.0625,0.125,1.6,-1.99,9.59
1540941672079314947,10957,0,/imu_data_acquisition2,136082.0,0.00762939453125,-0.130004882812,0.76806640625,0.626953125,-0.5,-0.9375,0.0625,1.6,-1.99,9.59
1540941672086638927,10958,0,/imu_data_acquisition2,136093.0,0.007568359375,-0.130004882812,0.76806640625,0.626953125,0.1875,-0.8125,-0.3125,1.66,-1.86,9.55
1540941672099291086,10959,0,/imu_data_acquisition2,136104.0,0.00762939453125,-0.130004882812,0.76806640625,0.626953125,-0.4375,-1.25,-0.0625,1.34,-1.87,9.29
1540941672110197067,10960,0,/imu_data_acquisition2,136113.0,0.00762939453125,-0.00506591796875,-6.103515625e-05,0.626953125,-0.4375,-1.25,-0.0625,1.91,-1.85,9.02
1540941672116839885,10961,0,/imu_data_acquisition2,136123.0,0.00762939453125,-0.00506591796875,-6.103515625e-05,0.626953125,0.375,0.125,-0.0625,1.06,-1.96,9.98
1540941672126395940,10962,0,/imu_data_acquisition2,136132.0,0.0076904296875,-0.130187988281,0.76806640625,0.626892089844,-0.75,-1.9375,-0.0625,1.06,-1.96,9.98
1540941672135185003,10963,0,/imu_data_acquisition2,136141.0,0.00775146484375,-0.130249023438,0.76806640625,0.626892089844,0.0,-1.3125,-0.25,1.63,-1.72,9.05
1540941672147200107,10964,0,/imu_data_acquisition2,136153.0,0.00787353515625,-0.130310058594,0.76806640625,0.626892089844,0.0,-1.3125,-0.25,0.97,-1.83,9.71
1540941672159666061,10965,0,/imu_data_acquisition2,136164.0,0.00787353515625,-0.130310058594,0.76806640625,0.626892089844,0.5,-0.1875,-0.375,1.43,-2.02,9.56
1540941672169795989,10966,0,/imu_data_acquisition2,136174.0,0.00799560546875,-0.130432128906,0.76806640625,0.626892089844,-0.5625,-1.625,-0.25,1.08,-1.8,9.52
1540941672176964998,10967,0,/imu_data_acquisition2,136183.0,0.008056640625,-0.130432128906,0.76806640625,0.626892089844,0.8125,-0.875,-0.4375,1.08,-1.8,9.52
1540941672189408063,10968,0,/imu_data_acquisition2,136191.0,0.0081787109375,-0.130493164062,0.76806640625,0.626831054688,0.0,-1.4375,-0.375,1.58,-1.98,9.88
1540941672197853088,10969,0,/imu_data_acquisition2,136204.0,0.00830078125,-0.0054931640625,-6.103515625e-05,0.626892089844,0.9375,-1.0,-0.75,1.37,-1.84,9.37
1540941672207333087,10970,0,/imu_data_acquisition2,136214.0,-6.103515625e-05,-6.103515625e-05,-6.103515625e-05,0.626892089844,0.125,-1.6875,-0.8125,1.39,-1.85,9.41
1540941672224476099,10971,0,/imu_data_acquisition2,136224.0,0.0084228515625,-0.130554199219,0.768005371094,0.626953125,0.1875,-1.6875,-0.9375,1.47,-1.9,9.69
1540941672234591960,10972,0,/imu_data_acquisition2,136232.0,0.00836181640625,-0.130554199219,0.767944335938,0.627014160156,0.5,-1.4375,-0.875,1.47,-1.9,9.69
1540941672236155033,10973,0,/imu_data_acquisition2,136242.0,0.0084228515625,-6.103515625e-05,-6.103515625e-05,0.627014160156,0.4375,-1.5625,-1.0,1.56,-1.79,9.33
1540941672250375986,10974,0,/imu_data_acquisition2,136253.0,0.0084228515625,-6.103515625e-05,-6.103515625e-05,0.627075195312,0.5625,-1.375,-0.9375,1.32,-1.91,9.51
1540941672258419036,10975,0,/imu_data_acquisition2,136264.0,0.0084228515625,-0.130554199219,0.767822265625,0.627136230469,0.5625,-1.375,-1.125,1.62,-1.9,9.49
1540941672268543004,10976,0,/imu_data_acquisition2,136274.0,0.0084228515625,-0.130554199219,0.767761230469,0.627197265625,0.5,-1.25,-1.1875,1.42,-1.84,9.62
1540941672277251958,10977,0,/imu_data_acquisition2,136283.0,0.0084228515625,-0.130432128906,0.767761230469,0.627258300781,0.75,-0.4375,-0.875,1.42,-1.84,9.62
1540941672287913084,10978,0,/imu_data_acquisition2,136294.0,0.00848388671875,-6.103515625e-05,-6.103515625e-05,0.627319335938,0.75,-1.0,-1.1875,1.48,-1.81,9.25
1540941672297051906,10979,0,/imu_data_acquisition2,136304.0,0.0084228515625,-0.00537109375,-6.103515625e-05,0.627380371094,0.5,-0.5,-1.3125,1.48,-1.81,9.21
1540941672308394908,10980,0,/imu_data_acquisition2,136314.0,0.00848388671875,-0.130310058594,0.767578125,0.627502441406,0.875,-0.625,-1.25,1.59,-1.91,9.74
1540941672319190025,10981,0,/imu_data_acquisition2,136324.0,0.00848388671875,-0.130187988281,0.767578125,0.627563476562,0.875,-0.0625,-0.0625,1.67,-1.72,9.03
1540941672325427055,10982,0,/imu_data_acquisition2,136332.0,0.00860595703125,-0.130065917969,0.767456054688,0.627685546875,1.5625,-0.5,-1.6875,1.67,-1.72,9.03
1540941672338362932,10983,0,/imu_data_acquisition2,136344.0,0.0086669921875,-0.130004882812,0.767456054688,0.627746582031,1.8125,0.875,-0.0625,1.22,-1.99,-0.01
1540941672346590042,10984,0,/imu_data_acquisition2,136352.0,0.00872802734375,-0.129821777344,0.767395019531,0.627807617188,1.8125,0.875,-0.8125,1.22,-1.99,9.54
1540941672357882022,10985,0,/imu_data_acquisition2,136364.0,0.00872802734375,-0.129577636719,0.767395019531,0.627868652344,1.9375,0.5625,-1.125,1.8,-1.84,9.29
1540941672368907928,10986,0,/imu_data_acquisition2,136375.0,0.00872802734375,-0.129638671875,0.767395019531,0.627868652344,-0.9375,-1.0,-0.3125,0.67,-1.71,10.23
1540941672377888917,10987,0,/imu_data_acquisition2,136383.0,-6.103515625e-05,-6.103515625e-05,-6.103515625e-05,0.6279296875,1.875,2.0625,-0.8125,0.67,-1.71,10.23
1540941672388556003,10988,0,/imu_data_acquisition2,136394.0,0.0086669921875,-0.12939453125,0.767333984375,0.627990722656,-0.375,0.875,-0.875,1.66,-1.59,9.22
1540941672399247884,10989,0,/imu_data_acquisition2,136405.0,0.00860595703125,-0.129211425781,0.767211914062,0.628173828125,1.1875,1.5,-1.9375,1.4,-2.12,10.11
1540941672407860040,10990,0,/imu_data_acquisition2,136414.0,-6.103515625e-05,-6.103515625e-05,-6.103515625e-05,0.628295898438,-0.9375,1.9375,-1.4375,1.54,-2.07,9.31
1540941672418513059,10991,0,/imu_data_acquisition2,136425.0,0.00836181640625,-0.129333496094,0.767028808594,0.62841796875,-2.4375,-0.375,-1.75,1.6,-1.89,10.06
1540941672429402112,10992,0,/imu_data_acquisition2,136434.0,-6.103515625e-05,-6.103515625e-05,-6.103515625e-05,0.628540039062,-0.9375,-0.5625,-2.125,1.6,-1.89,10.06
1540941672440737962,10993,0,/imu_data_acquisition2,136445.0,0.00823974609375,-0.129516601562,0.766906738281,0.628540039062,-1.9375,-0.125,-0.5625,1.67,-1.97,9.52
1540941672450488090,10994,0,/imu_data_acquisition2,136455.0,0.00811767578125,-0.129516601562,0.766845703125,0.628540039062,-0.875,0.9375,-0.1875,1.78,-1.91,9.46
1540941672460083961,10995,0,/imu_data_acquisition2,136464.0,0.008056640625,-0.00457763671875,-6.103515625e-05,0.628540039062,-1.0,0.5625,0.125,1.78,-1.91,9.46
1540941672469921112,10996,0,/imu_data_acquisition2,136475.0,0.00799560546875,-0.129699707031,0.766845703125,0.628540039062,-1.3125,0.3125,-0.125,2.0,-1.96,9.45
1540941672478929042,10997,0,/imu_data_acquisition2,136485.0,0.00787353515625,-0.0047607421875,-6.103515625e-05,0.628540039062,-2.0,1.3125,0.875,1.84,-2.03,9.47
1540941672488898992,10998,0,/imu_data_acquisition2,136494.0,0.00762939453125,-0.129821777344,0.766845703125,0.628540039062,-2.0,1.3125,0.875,1.84,-2.03,9.47
1540941672498778104,10999,0,/imu_data_acquisition2,136504.0,0.007568359375,-0.1298828125,0.766845703125,0.628479003906,-1.6875,0.4375,0.75,2.0,-2.08,9.61
1540941672508145093,11000,0,/imu_data_acquisition2,136514.0,0.0074462890625,-0.130065917969,0.766906738281,0.62841796875,-1.4375,0.625,0.75,2.17,-2.03,-0.01
1540941672518415927,11001,0,/imu_data_acquisition2,136523.0,0.0074462890625,-0.13037109375,0.766906738281,0.628356933594,-1.875,-0.5,1.125,2.17,-2.03,9.36
1540941672527928113,11002,0,/imu_data_acquisition2,136533.0,0.00750732421875,-0.130432128906,0.766967773438,0.628234863281,-0.4375,0.375,1.1875,1.88,-1.74,9.39
1540941672540071010,11003,0,/imu_data_acquisition2,136544.0,0.0074462890625,-0.130615234375,0.767028808594,0.628112792969,-1.5,0.25,2.3125,1.99,-1.87,9.57
1540941672545154094,11004,0,/imu_data_acquisition2,136551.0,0.007568359375,-0.130737304688,0.767150878906,0.627990722656,-0.625,-0.6875,2.0625,1.92,-1.64,9.38
1540941672558473110,11005,0,/imu_data_acquisition2,136564.0,0.00750732421875,-0.130798339844,0.767272949219,0.627807617188,-0.9375,-0.375,2.25,1.88,-1.7,9.46
1540941672569919109,11006,0,/imu_data_acquisition2,136575.0,0.00738525390625,-0.005859375,-6.103515625e-05,0.627685546875,-1.1875,-0.375,2.4375,1.79,-1.78,9.41
1540941672575289964,11007,0,/imu_data_acquisition2,136581.0,0.00738525390625,-0.130981445312,0.767456054688,0.627563476562,-1.3125,-0.875,1.6875,1.79,-1.78,9.41
1540941672587635993,11008,0,/imu_data_acquisition2,136592.0,0.00726318359375,-0.131103515625,0.767517089844,0.62744140625,-1.5625,-0.3125,1.4375,1.8,-1.79,9.44
1540941672598279953,11009,0,/imu_data_acquisition2,136602.0,0.00732421875,-0.00628662109375,-6.103515625e-05,0.627380371094,-1.875,-0.8125,0.875,1.99,-1.81,9.45
1540941672609294891,11010,0,/imu_data_acquisition2,136614.0,0.00726318359375,-0.131408691406,0.767517089844,0.627380371094,-1.6875,-0.25,0.6875,1.82,-1.78,9.31
1540941672619911909,11011,0,/imu_data_acquisition2,136624.0,0.00714111328125,-0.131530761719,0.767578125,0.627319335938,-2.3125,0.3125,1.1875,1.83,-1.92,9.5
1540941672627343893,11012,0,/imu_data_acquisition2,136632.0,0.007080078125,-0.131713867188,0.767578125,0.627197265625,-2.0625,-0.0625,1.1875,2.03,-1.91,9.38
1540941672635473012,11013,0,/imu_data_acquisition2,136642.0,0.00701904296875,-0.1318359375,0.767639160156,0.627136230469,-1.6875,0.6875,1.75,1.98,-1.85,9.44
1540941672647104024,11014,0,/imu_data_acquisition2,136653.0,0.0068359375,-0.131958007812,0.767761230469,0.626953125,-2.0,1.0625,2.4375,1.87,-1.93,9.54
1540941672655677080,11015,0,/imu_data_acquisition2,136661.0,0.00665283203125,-6.103515625e-05,-6.103515625e-05,0.626770019531,-1.4375,1.4375,3.0,1.81,-1.81,9.44
1540941672667042970,11016,0,/imu_data_acquisition2,136673.0,0.00653076171875,-0.132141113281,0.76806640625,0.626525878906,-2.375,1.0625,4.0625,2.03,-1.93,-0.01
1540941672676338911,11017,0,/imu_data_acquisition2,136682.0,0.00634765625,-0.132263183594,0.768249511719,0.626281738281,-1.625,1.0,4.1875,1.96,-1.91,9.33
1540941672685621976,11018,0,/imu_data_acquisition2,136691.0,0.00604248046875,-0.132263183594,0.7685546875,0.6259765625,-1.875,2.5625,5.25,1.65,-1.9,9.56
1540941672696309089,11019,0,/imu_data_acquisition2,136702.0,0.0057373046875,-0.132385253906,0.768798828125,0.625610351562,-2.8125,2.0,5.75,1.86,-2.06,9.36
1540941672710185050,11020,0,/imu_data_acquisition2,136715.0,0.00537109375,-0.00732421875,-6.103515625e-05,0.625305175781,-2.1875,3.5,5.125,1.83,-1.9,9.38
1540941672719976902,11021,0,/imu_data_acquisition2,136726.0,0.0048828125,-0.132385253906,0.769226074219,0.625061035156,-3.1875,3.8125,4.5625,1.76,-1.79,9.52
1540941672730221986,11022,0,/imu_data_acquisition2,136736.0,0.00439453125,-0.13232421875,0.769409179688,0.624877929688,-2.8125,4.625,3.6875,2.08,-1.88,9.38
1540941672736429929,11023,0,/imu_data_acquisition2,136741.0,0.00390625,-6.103515625e-05,-6.103515625e-05,0.624694824219,-5.375,-0.0625,-0.0625,2.08,-1.88,9.38
1540941672747584104,11024,0,/imu_data_acquisition2,136754.0,0.00323486328125,-0.132507324219,0.769653320312,0.624572753906,-5.5625,5.6875,3.1875,1.73,-1.82,9.42
1540941672757580995,11025,0,/imu_data_acquisition2,136763.0,0.00250244140625,-0.132629394531,0.769714355469,0.624450683594,-6.4375,6.75,3.25,1.9,-1.94,-0.01
1540941672766752004,11026,0,/imu_data_acquisition2,136771.0,0.001708984375,-0.132690429688,0.769836425781,0.624328613281,-6.5,7.0625,3.125,1.78,-1.88,9.44
1540941672776015996,11027,0,/imu_data_acquisition2,136782.0,0.00079345703125,-0.132873535156,0.769897460938,0.624145507812,-8.5625,7.375,3.625,1.73,-1.99,9.43
1540941672789180994,11028,0,/imu_data_acquisition2,136795.0,-0.00018310546875,-0.132995605469,0.769958496094,0.6240234375,-8.25,8.0625,3.1875,1.72,-2.0,9.6
1540941672799726963,11029,0,/imu_data_acquisition2,136801.0,-0.00115966796875,-0.133178710938,0.77001953125,0.623962402344,-9.625,8.9375,2.9375,1.95,-1.81,9.15
1540941672809417009,11030,0,/imu_data_acquisition2,136814.0,-0.00244140625,-0.133361816406,0.77001953125,0.623901367188,-11.1875,11.0,3.0,1.62,-1.97,9.33
1540941672819997072,11031,0,/imu_data_acquisition2,136826.0,-0.00384521484375,-0.133483886719,0.77001953125,0.623840332031,-11.8125,11.9375,2.5625,1.49,-2.09,9.48
1540941672825495004,11032,0,/imu_data_acquisition2,136831.0,-0.00531005859375,-6.103515625e-05,-6.103515625e-05,0.623840332031,-12.75,11.875,2.25,1.7,-2.04,9.41
1540941672836958885,11033,0,/imu_data_acquisition2,136842.0,-0.00689697265625,-0.133972167969,0.769958496094,0.623840332031,-14.25,12.75,2.4375,1.39,-2.06,9.61
1540941672847784042,11034,0,/imu_data_acquisition2,136852.0,-0.0086669921875,-0.134216308594,0.769958496094,0.623779296875,-15.6875,14.0,3.375,1.49,-2.35,9.52
1540941672854823112,11035,0,/imu_data_acquisition2,136861.0,-0.0103759765625,-0.134399414062,0.769897460938,0.623718261719,-13.6875,14.0625,2.4375,1.67,-2.0,9.21
1540941672868815898,11036,0,/imu_data_acquisition2,136872.0,-0.0120849609375,-0.134582519531,0.769897460938,0.623657226562,-15.0625,15.0,3.3125,1.63,-2.08,9.3
1540941672876864910,11037,0,/imu_data_acquisition2,136882.0,-0.0140380859375,-0.134887695312,0.769958496094,0.62353515625,-17.25,15.8125,4.875,1.6,-2.06,9.54
1540941672884737968,11038,0,/imu_data_acquisition2,136891.0,-0.0159912109375,-0.13525390625,0.770080566406,0.623291015625,-18.6875,15.5625,6.5,1.54,-2.11,9.45
1540941672896286010,11039,0,/imu_data_acquisition2,136902.0,-0.0182495117188,-0.135620117188,0.770263671875,0.622924804688,-19.6875,17.3125,8.3125,1.44,-2.27,9.45
1540941672908978939,11040,0,/imu_data_acquisition2,136913.0,-0.0205078125,-0.136108398438,0.7705078125,0.622375488281,-22.0,17.5,10.8125,1.55,-2.0,9.2
1540941672925745010,11041,0,/imu_data_acquisition2,136925.0,-0.02294921875,-0.136596679688,0.770874023438,0.621704101562,-24.25,19.1875,13.0625,1.6,-1.94,9.42
1540941672946963071,11042,0,/imu_data_acquisition2,136932.0,-0.0258178710938,-0.137329101562,0.771423339844,0.620788574219,-28.8125,21.1875,17.625,1.53,-2.29,9.31
1540941672973073959,11043,0,/imu_data_acquisition2,136941.0,-0.0289916992188,-0.137817382812,0.772033691406,0.619812011719,-28.75,25.8125,19.375,1.5,-2.16,-0.01
1540941673040791988,11044,0,/imu_data_acquisition2,136951.0,-0.0328979492188,-0.01318359375,-6.103515625e-05,0.618591308594,-31.4375,30.875,22.625,2.16,-2.27,9.07
1540941673046886920,11045,0,/imu_data_acquisition2,136962.0,-0.037353515625,-0.138244628906,0.773559570312,0.617309570312,-31.75,37.8125,25.0625,1.97,-2.35,9.29
1540941673051033973,11046,0,/imu_data_acquisition2,136973.0,-0.0423583984375,-0.0127563476562,-6.103515625e-05,0.615844726562,-31.375,46.75,29.25,1.41,-2.23,9.9
1540941673053483963,11047,0,/imu_data_acquisition2,136982.0,-0.0481567382812,-0.137329101562,0.775634765625,0.614135742188,-37.5625,52.875,33.0,1.46,-3.0,9.4
1540941673056942939,11048,0,/imu_data_acquisition2,136991.0,-0.0543212890625,-0.136108398438,0.776794433594,0.612426757812,-32.6875,61.5625,34.3125,2.39,-2.4,9.24
1540941673059057950,11049,0,/imu_data_acquisition2,137002.0,-0.0611572265625,-0.134399414062,0.777954101562,0.610778808594,-33.3125,72.0,35.9375,2.06,-2.09,9.48
1540941673060237884,11050,0,/imu_data_acquisition2,137011.0,-0.00665283203125,-6.103515625e-05,-6.103515625e-05,0.608581542969,-39.0625,82.8125,44.375,2.21,-1.53,9.96
1540941673061870098,11051,0,/imu_data_acquisition2,137021.0,-0.0784912109375,-0.13037109375,0.781127929688,0.605529785156,-47.6875,95.0,57.0,2.59,-1.03,-0.01
1540941673063299894,11052,0,/imu_data_acquisition2,137031.0,-0.0894165039062,-0.128356933594,0.783447265625,0.601440429688,-59.6875,107.5,73.1875,2.29,-1.16,11.04
1540941673069607973,11053,0,/imu_data_acquisition2,137041.0,-0.10205078125,-0.126342773438,0.786560058594,0.595825195312,-72.375,119.375,95.75,1.62,-0.64,12.49
1540941673076472997,11054,0,/imu_data_acquisition2,137052.0,-0.11669921875,-0.125854492188,0.791015625,0.587280273438,-102.5,121.375,133.5,0.53,0.3,12.66
1540941673081868886,11055,0,/imu_data_acquisition2,137062.0,-0.133666992188,-0.127746582031,0.796691894531,0.575439453125,-15.4375,-0.0625,-0.0625,-0.5,-2.75,10.19
1540941673083199024,11056,0,/imu_data_acquisition2,137071.0,-0.151306152344,-0.128601074219,0.802429199219,0.562805175781,-139.6875,132.375,183.875,0.29,-6.53,9.55
1540941673086429119,11057,0,/imu_data_acquisition2,137085.0,-0.168395996094,-0.126098632812,0.807739257812,0.550720214844,-103.625,151.1875,180.3125,1.81,-6.63,10.42
1540941673092716932,11058,0,/imu_data_acquisition2,137091.0,-0.183715820312,-0.119873046875,0.812438964844,0.540222167969,-54.0625,161.9375,166.8125,3.94,-6.6,12.19
1540941673098989963,11059,0,/imu_data_acquisition2,137102.0,-0.0076904296875,-6.103515625e-05,-6.103515625e-05,0.532165527344,5.1875,150.5,139.25,8.13,-2.89,15.55
1540941673107642889,11060,0,/imu_data_acquisition2,137112.0,-0.202087402344,-0.00634765625,-6.103515625e-05,0.52685546875,48.125,117.75,103.5625,0.06,-0.01,-0.01
1540941673117940902,11061,0,/imu_data_acquisition2,137124.0,-0.202331542969,-0.0974731445312,0.823303222656,0.521301269531,15.5625,3.125,84.5625,7.25,-1.15,17.25
1540941673128129005,11062,0,/imu_data_acquisition2,137134.0,-0.198608398438,-0.0979614257812,0.828125,0.514953613281,8.3125,-57.875,86.3125,5.65,-0.72,9.42
1540941673137229919,11063,0,/imu_data_acquisition2,137143.0,-0.006591796875,-6.103515625e-05,-6.103515625e-05,0.507934570312,9.75,-69.8125,94.1875,5.73,-2.5,6.5
1540941673145839929,11064,0,/imu_data_acquisition2,137152.0,-0.188781738281,-0.0989990234375,0.8388671875,0.500854492188,19.0625,-74.375,95.3125,5.61,-1.02,-0.01
1540941673166542053,11066,0,/imu_data_acquisition2,137172.0,-0.176086425781,-0.100280761719,0.848937988281,0.488098144531,18.75,-12.75,-0.0625,5.29,-7.36,8.32
1540941673175632953,11067,0,/imu_data_acquisition2,137182.0,-0.16845703125,-0.103088378906,0.853210449219,0.482727050781,9.5,-108.25,64.125,4.93,-8.08,7.35
1540941673192059040,11068,0,/imu_data_acquisition2,137192.0,-0.16015625,-0.106567382812,0.856628417969,0.478759765625,8.25,-115.25,42.375,4.29,-8.1,6.39
1540941673200941085,11069,0,/imu_data_acquisition2,137205.0,-0.151611328125,-0.110473632812,0.859130859375,0.476135253906,7.4375,-116.9375,22.3125,3.78,-7.16,6.04
1540941673205403089,11070,0,/imu_data_acquisition2,137212.0,-0.143310546875,-0.115295410156,0.86083984375,0.474426269531,-3.125,-116.875,7.875,3.07,-7.77,6.53
1540941673217052936,11071,0,/imu_data_acquisition2,137223.0,-0.134948730469,-0.120971679688,0.86181640625,0.473754882812,-11.125,-119.625,-8.6875,4.12,-8.62,8.47
1540941673225913047,11072,0,/imu_data_acquisition2,137231.0,-6.103515625e-05,-6.103515625e-05,-6.103515625e-05,0.474182128906,-14.625,-122.4375,-26.3125,3.13,-7.56,7.82
1540941673236510992,11073,0,/imu_data_acquisition2,137242.0,-0.117736816406,-0.13427734375,0.861389160156,0.475524902344,-22.375,-124.875,-39.8125,3.0,-7.43,7.94
1540941673247322082,11074,0,/imu_data_acquisition2,137251.0,-0.109008789062,-0.141662597656,0.860168457031,0.477661132812,-25.25,-125.25,-52.8125,2.87,-7.06,7.8
1540941673256618022,11075,0,/imu_data_acquisition2,137262.0,-0.100402832031,-0.149475097656,0.858337402344,0.480407714844,-30.3125,-124.5,-63.0,2.47,-7.48,8.35
1540941673267622947,11076,0,/imu_data_acquisition2,137273.0,-0.0918579101562,-0.157470703125,0.855895996094,0.48388671875,-32.875,-123.25,-74.125,2.18,-7.23,8.69
1540941673277134895,11077,0,/imu_data_acquisition2,137281.0,-0.0834350585938,-0.165771484375,0.852844238281,0.488098144531,-36.4375,-121.875,-84.6875,2.12,-7.41,9.21
1540941673287029981,11078,0,/imu_data_acquisition2,137293.0,-0.0748901367188,-0.174255371094,0.849182128906,0.492858886719,-39.375,-122.25,-94.3125,1.91,-6.92,9.58
1540941673296941041,11079,0,/imu_data_acquisition2,137303.0,-0.06640625,-0.183166503906,0.844970703125,0.498046875,-44.0,-122.9375,-6.0625,1.38,-6.68,9.81
1540941673306183099,11080,0,/imu_data_acquisition2,137311.0,-0.0580444335938,-0.1923828125,0.840270996094,0.503479003906,-48.625,-122.4375,-107.6875,0.93,-6.5,9.19
1540941673317552089,11081,0,/imu_data_acquisition2,137323.0,-0.0499267578125,-0.201599121094,0.835205078125,0.509216308594,-50.75,-119.5625,-112.375,1.03,-7.07,9.6
1540941673326565980,11082,0,/imu_data_acquisition2,137332.0,-0.0416870117188,-0.21044921875,0.829650878906,0.515380859375,-47.3125,-116.3125,-118.625,0.91,-6.42,9.88
1540941673336981058,11083,0,/imu_data_acquisition2,137341.0,-0.03369140625,-0.219360351562,0.823791503906,0.521606445312,-50.1875,-114.5,-121.625,0.96,-6.87,9.91
1540941673346818923,11084,0,/imu_data_acquisition2,137353.0,-0.0255737304688,-0.227905273438,0.817626953125,0.528137207031,-47.0625,-112.6875,-126.0625,0.97,-6.25,9.97
1540941673357002019,11085,0,/imu_data_acquisition2,137362.0,-0.0175170898438,-0.236267089844,0.811096191406,0.534729003906,-45.9375,-110.3125,-128.875,1.02,-6.02,9.57
1540941673367707967,11086,0,/imu_data_acquisition2,137372.0,-0.00946044921875,-0.244323730469,0.804443359375,0.541381835938,-43.3125,-108.25,-130.6875,0.95,-5.98,10.19
1540941673377223968,11087,0,/imu_data_acquisition2,137382.0,-0.0015869140625,-0.252197265625,0.797546386719,0.547973632812,-43.9375,-106.3125,-130.4375,0.76,-6.24,10.04
1540941673386542081,11088,0,/imu_data_acquisition2,137393.0,0.00640869140625,-0.259887695312,0.790466308594,0.554565429688,-41.75,-104.9375,-131.8125,1.06,-0.01,-0.01
1540941673397125005,11089,0,/imu_data_acquisition2,137403.0,0.0142211914062,-0.267395019531,0.783264160156,0.561096191406,-41.4375,-102.625,-132.125,0.89,-6.11,9.87
1540941673406650066,11090,0,/imu_data_acquisition2,137412.0,0.02197265625,-0.274291992188,0.77587890625,0.567687988281,-4.9375,-0.0625,-0.0625,0.53,-5.05,10.06
1540941673418519973,11091,0,/imu_data_acquisition2,137425.0,-6.103515625e-05,-6.103515625e-05,-6.103515625e-05,0.574157714844,-36.4375,-96.875,-132.375,0.69,-5.18,9.84
1540941673426975965,11092,0,/imu_data_acquisition2,137433.0,0.0371704101562,-0.287475585938,0.760986328125,0.580383300781,-34.5,-93.8125,-130.1875,0.43,-4.13,10.06
1540941673437645912,11093,0,/imu_data_acquisition2,137441.0,-6.103515625e-05,-6.103515625e-05,-6.103515625e-05,0.586364746094,-31.625,-91.1875,-126.875,0.34,-3.93,10.29
1540941673447572946,11094,0,/imu_data_acquisition2,137453.0,0.0516357421875,-0.299499511719,0.746520996094,0.591918945312,-31.3125,-88.8125,-120.75,0.31,-3.52,9.62
1540941673458395004,11095,0,/imu_data_acquisition2,137461.0,0.0584716796875,-0.304931640625,0.73974609375,0.596984863281,-27.25,-4.5625,-0.0625,0.06,-1.95,9.58
1540941673466960906,11096,0,/imu_data_acquisition2,137472.0,0.0647583007812,-0.31005859375,0.733520507812,0.601318359375,-26.1875,-79.875,-101.0,0.14,-1.74,9.74
1540941673478607892,11097,0,/imu_data_acquisition2,137484.0,0.0700073242188,-0.3154296875,0.727966308594,0.604675292969,-31.5,-75.8125,-83.8125,-0.09,-2.13,10.12
1540941673487617015,11098,0,/imu_data_acquisition2,137491.0,0.0748291015625,-0.320617675781,0.72314453125,0.607177734375,-30.625,-73.375,-69.125,-0.37,-1.46,10.83
1540941673496056079,11099,0,/imu_data_acquisition2,137502.0,0.0792846679688,-0.326110839844,0.719055175781,0.608581542969,-15.625,-0.0625,-0.0625,-0.48,-2.56,10.24
1540941673508217096,11100,0,/imu_data_acquisition2,137512.0,0.08349609375,-0.331481933594,0.715637207031,0.609069824219,-12.75,-0.0625,-0.0625,-0.88,-1.99,10.22
1540941673515686988,11101,0,/imu_data_acquisition2,137521.0,0.0880126953125,-0.336242675781,0.713195800781,0.608764648438,-17.375,-75.6875,-28.0625,-0.86,-1.74,10.15
1540941673528224945,11102,0,/imu_data_acquisition2,137531.0,0.0922241210938,-0.340698242188,0.711547851562,0.607543945312,-12.3125,-74.5625,-13.4375,-1.08,-2.23,10.37
1540941673540184020,11103,0,/imu_data_acquisition2,137545.0,0.0963134765625,-0.344787597656,0.710815429688,0.60546875,-5.875,-73.25,0.4375,-1.55,-2.94,10.96
1540941673547194957,11104,0,/imu_data_acquisition2,137551.0,0.100158691406,-0.349182128906,0.710632324219,0.602478027344,-6.3125,-75.625,13.0,-1.63,-3.42,10.7
1540941673556674957,11105,0,/imu_data_acquisition2,137562.0,0.104064941406,-0.353698730469,0.710876464844,0.598937988281,-4.6875,-79.8125,21.0,-2.48,-3.19,8.77
1540941673567240953,11106,0,/imu_data_acquisition2,137572.0,0.107788085938,-0.3583984375,0.711486816406,0.594787597656,-5.9375,-0.0625,-0.0625,-2.55,-3.5,7.43
1540941673575706005,11107,0,/imu_data_acquisition2,137582.0,0.11083984375,-0.362854003906,0.71240234375,0.59033203125,-6.6875,-74.75,36.4375,-2.95,-4.27,7.05
1540941673586666107,11108,0,/imu_data_acquisition2,137592.0,0.113464355469,-0.366638183594,0.713623046875,0.586059570312,-2.75,-65.75,38.1875,-3.09,-2.19,-0.01
1540941673598320960,11109,0,/imu_data_acquisition2,137602.0,0.115783691406,-0.369567871094,0.714904785156,0.582092285156,2.5,-0.0625,-0.0625,-2.94,-2.04,-0.01
1540941673604788064,11110,0,/imu_data_acquisition2,137611.0,0.117553710938,-0.371704101562,0.716369628906,0.578674316406,5.25,-42.75,33.9375,-2.95,-2.29,-0.01
1540941673616400003,11111,0,/imu_data_acquisition2,137622.0,0.11865234375,-0.372863769531,0.717834472656,0.575805664062,8.375,-27.6875,31.1875,-2.88,-4.62,4.92
1540941673628505945,11112,0,/imu_data_acquisition2,137633.0,0.119018554688,-0.373168945312,0.719421386719,0.573608398438,9.8125,-12.375,28.875,-2.48,-4.71,5.09
1540941673635297060,11113,0,/imu_data_acquisition2,137641.0,0.118469238281,-0.372680664062,0.721069335938,0.571899414062,9.9375,2.375,26.875,-2.19,-4.72,5.11
1540941673647207975,11114,0,/imu_data_acquisition2,137652.0,0.1171875,-0.371520996094,0.722778320312,0.570861816406,9.9375,16.6875,24.75,-2.13,-4.87,5.16
1540941673659352064,11115,0,/imu_data_acquisition2,137663.0,0.115173339844,-0.36962890625,0.724487304688,0.5703125,10.6875,30.125,22.375,-1.66,-4.63,5.43
1540941673665230989,11116,0,/imu_data_acquisition2,137672.0,0.112365722656,-0.0076904296875,-6.103515625e-05,0.5703125,11.25,43.5625,20.5,-1.48,-2.25,-0.01
1540941673676552057,11117,0,/imu_data_acquisition2,137682.0,0.10888671875,-0.364135742188,0.727966308594,0.570678710938,8.625,53.8125,19.8125,-1.16,-4.88,6.06
1540941673687696933,11118,0,/imu_data_acquisition2,137693.0,0.104736328125,-6.103515625e-05,-6.103515625e-05,0.571411132812,6.25,63.5,18.25,-0.63,-5.03,6.81
1540941673695532083,11119,0,/imu_data_acquisition2,137702.0,0.104736328125,-0.36083984375,0.729614257812,0.571411132812,1.75,72.5,18.1875,-0.44,-4.76,6.9
