%time,field.header.seq,field.header.stamp,field.header.frame_id,field.time_stamp,field.quat_x,field.quat_y,field.quat_z,field.quat_w,field.gyro_x,field.gyro_y,field.gyro_z,field.accel_x,field.accel_y,field.accel_z
1540941220616786956,2991,0,/imu_data_acquisition2,66033.0,-0.105163574219,-0.00482177734375,-6.103515625e-05,0.9765625,0.5,2.5625,4.5,1.6,-1.56,9.55
1540941220624475002,2992,0,/imu_data_acquisition2,66042.0,-0.105102539062,-0.00482177734375,-6.103515625e-05,0.976623535156,-0.5,2.5,5.5,1.87,-1.58,9.45
1540941220634238004,2993,0,/imu_data_acquisition2,66052.0,-0.105041503906,-0.00494384765625,-6.103515625e-05,0.976684570312,0.1875,2.4375,5.5,1.94,-1.76,9.36
1540941220643291950,2994,0,/imu_data_acquisition2,66062.0,-0.10498046875,-0.0518798828125,-0.007568359375,0.976745605469,-0.875,2.875,5.875,1.8,-1.53,9.52
1540941220653264045,2995,0,/imu_data_acquisition2,66072.0,-0.105041503906,-0.0516967773438,-0.179077148438,0.976867675781,-1.375,4.0625,5.125,1.71,-1.82,9.57
1540941220666096925,2996,0,/imu_data_acquisition2,66082.0,-0.105163574219,-0.00457763671875,-6.103515625e-05,0.976867675781,-2.5625,4.3125,4.5625,1.6,-1.66,9.6
1540941220674742937,2997,0,/imu_data_acquisition2,66093.0,-0.105285644531,-0.0510864257812,-0.178588867188,0.976928710938,-2.9375,5.1875,3.5,1.54,-1.71,9.63
1540941220684997081,2998,0,/imu_data_acquisition2,66103.0,-0.105529785156,-0.0507202148438,-0.178405761719,0.976989746094,-4.0,5.3125,2.8125,1.73,-1.67,9.44
1540941220694196939,2999,0,/imu_data_acquisition2,66112.0,-0.105773925781,-0.0504760742188,-0.178344726562,0.976989746094,-4.5625,-0.0625,-0.0625,1.72,-1.6,9.42
1540941220705233097,3000,0,/imu_data_acquisition2,66122.0,-0.106079101562,-0.0499877929688,-0.17822265625,0.976989746094,-5.75,6.0,2.5625,1.5,-1.66,9.61
1540941220725132942,3001,0,/imu_data_acquisition2,66138.0,-0.0128173828125,-6.103515625e-05,-6.103515625e-05,0.976989746094,-7.4375,7.75,3.75,1.43,-1.85,9.6
1540941220728046894,3002,0,/imu_data_acquisition2,66144.0,-0.107116699219,-0.0485229492188,-0.177734375,0.97705078125,-8.1875,8.0,4.5625,1.5,-1.85,9.56
1540941220735115051,3003,0,/imu_data_acquisition2,66153.0,-0.0139770507812,-6.103515625e-05,-6.103515625e-05,0.97705078125,-8.8125,8.3125,5.3125,1.54,-1.77,9.32
1540941220745753049,3004,0,/imu_data_acquisition2,66162.0,-0.108337402344,-0.0469970703125,-0.177062988281,0.977111816406,-9.0625,8.5,5.75,1.58,-1.86,9.47
1540941220754832029,3005,0,/imu_data_acquisition2,66173.0,-0.109069824219,-0.0460205078125,-0.176696777344,0.977111816406,-10.4375,10.0,6.0625,1.25,-1.96,9.72
1540941220765151023,3006,0,/imu_data_acquisition2,66182.0,-0.10986328125,-0.0448608398438,-0.0045166015625,0.977111816406,-11.4375,11.5625,5.8125,1.26,-1.87,9.41
1540941220777827024,3007,0,/imu_data_acquisition2,66193.0,-0.110717773438,-0.0436401367188,-0.176086425781,0.977172851562,-12.125,11.5,5.0,1.15,-1.92,9.68
1540941220783106088,3008,0,/imu_data_acquisition2,66202.0,-6.103515625e-05,-6.103515625e-05,-6.103515625e-05,0.977111816406,-13.3125,12.375,4.25,1.34,-1.96,9.46
1540941220794837951,3009,0,/imu_data_acquisition2,66213.0,-0.112548828125,-0.0411987304688,-0.175842285156,0.977111816406,-13.0,12.1875,2.6875,1.31,-2.04,9.64
1540941220806205034,3010,0,/imu_data_acquisition2,66223.0,-0.113525390625,-0.0399169921875,-0.175842285156,0.97705078125,-14.25,-0.0625,-0.0625,1.04,-1.8,9.52
1540941220814686059,3011,0,/imu_data_acquisition2,66233.0,-0.114562988281,-0.03857421875,-0.175903320312,0.976928710938,-14.8125,-0.0625,-0.0625,0.67,-2.24,9.77
1540941220828830957,3012,0,/imu_data_acquisition2,66247.0,-0.11572265625,-0.0372924804688,-0.175964355469,0.976867675781,-16.0,12.75,1.4375,1.01,-2.01,9.7
1540941220858903884,3015,0,/imu_data_acquisition2,66275.0,-0.119140625,-0.0338134765625,-0.176330566406,0.976501464844,-17.4375,11.6875,1.0625,1.1,-2.0,9.62
1540941220874131917,3016,0,/imu_data_acquisition2,66291.0,-0.120300292969,-0.03271484375,-0.176452636719,0.976379394531,-16.5,11.1875,0.6875,1.24,-2.03,9.56
1540941220886229991,3017,0,/imu_data_acquisition2,66303.0,-0.121459960938,-0.0315551757812,-0.176513671875,0.976257324219,-16.9375,11.0625,1.0,0.82,-2.29,9.45
1540941220892983913,3018,0,/imu_data_acquisition2,66311.0,-0.122741699219,-0.0146484375,-6.103515625e-05,0.976135253906,-18.375,12.9375,2.8125,1.21,-1.98,9.24
1540941220904476881,3019,0,/imu_data_acquisition2,66322.0,-0.1240234375,-0.0289306640625,-0.176452636719,0.976013183594,-18.375,12.9375,2.8125,1.21,-1.98,9.24
1540941220914042949,3020,0,/imu_data_acquisition2,66331.0,-0.125244140625,-0.027587890625,-0.176452636719,0.975891113281,-17.4375,12.625,2.3125,1.16,-2.48,9.4
1540941220923110008,3021,0,/imu_data_acquisition2,66339.0,-0.126647949219,-0.0260009765625,-0.176391601562,0.975769042969,-19.75,15.4375,3.625,1.16,-2.48,9.4
1540941220931998968,3022,0,/imu_data_acquisition2,66349.0,-0.1279296875,-0.0242919921875,-0.0045166015625,0.975646972656,-18.5625,16.9375,2.375,1.03,-2.56,9.63
1540941220937535047,3023,0,/imu_data_acquisition2,66353.0,-0.129455566406,-0.00665283203125,-6.103515625e-05,0.975524902344,-22.125,20.1875,5.75,1.34,-2.0,9.08
1540941220986891984,3026,0,/imu_data_acquisition2,66395.0,-0.136352539062,-0.0112915039062,-0.173950195312,0.975219726562,-28.1875,32.4375,14.875,0.94,-2.98,9.48
1540941220995189905,3027,0,/imu_data_acquisition2,66411.0,-0.013427734375,-6.103515625e-05,-6.103515625e-05,0.975158691406,-32.0,36.75,18.5,0.74,-2.94,9.62
1540941221002739906,3028,0,/imu_data_acquisition2,66421.0,-0.140258789062,-0.00360107421875,-0.171936035156,0.97509765625,-29.0625,40.5,17.4375,1.62,-1.92,9.29
1540941221006690979,3029,0,/imu_data_acquisition2,66425.0,-0.14208984375,0.00103759765625,-0.170715332031,0.975036621094,-31.0,47.875,21.625,1.62,-1.92,9.29
1540941221037547111,3033,0,/imu_data_acquisition2,66455.0,-0.149780273438,0.0186767578125,-0.164428710938,0.974792480469,-46.875,68.9375,42.8125,1.08,-2.25,9.46
1540941221058538913,3035,0,/imu_data_acquisition2,66476.0,-0.156433105469,0.0355224609375,-0.156433105469,0.974548339844,-58.125,88.5625,66.5625,2.02,-0.9,10.65
1540941221065423011,3036,0,/imu_data_acquisition2,66483.0,-0.161071777344,0.0457763671875,-0.150512695312,0.974304199219,-75.625,99.3125,85.375,1.28,-1.13,-0.01
1540941221090414047,3037,0,/imu_data_acquisition2,66496.0,-0.167236328125,0.0569458007812,-0.142883300781,0.973815917969,-96.375,103.3125,104.3125,1.19,-2.53,10.24
1540941221128592014,3042,0,/imu_data_acquisition2,66545.0,-0.205261230469,0.121704101562,-0.0855102539062,0.967346191406,-15.25,-0.0625,-0.0625,0.19,-5.68,10.06
1540941221162749052,3043,0,/imu_data_acquisition2,66576.0,-0.20849609375,0.148132324219,-0.0650024414062,0.964538574219,4.6875,77.1875,114.9375,7.91,-0.55,13.97
1540941221190710067,3046,0,/imu_data_acquisition2,66602.0,-0.204223632812,0.159606933594,-0.0386962890625,0.965026855469,15.4375,-73.0625,92.5,5.43,-2.45,10.07
1540941221196120977,3048,0,/imu_data_acquisition2,66615.0,-0.200256347656,0.150024414062,-0.0206909179688,0.967956542969,7.4375,-83.6875,99.125,5.48,-3.55,7.52
1540941221204969882,3049,0,/imu_data_acquisition2,66621.0,-0.200256347656,0.150024414062,-0.0206909179688,0.967956542969,7.4375,-83.6875,99.125,5.25,-2.88,8.26
1540941221214741945,3050,0,/imu_data_acquisition2,66628.0,-0.19775390625,0.143920898438,-0.0119018554688,0.969543457031,18.0625,-92.875,90.875,5.25,-2.88,8.26
1540941221221458911,3051,0,/imu_data_acquisition2,66633.0,-0.195556640625,0.136901855469,-0.0035400390625,0.971069335938,15.375,-102.75,83.5625,4.95,-4.98,8.43
1540941221246045112,3052,0,/imu_data_acquisition2,66643.0,-0.193786621094,0.128662109375,0.00396728515625,0.972534179688,12.1875,-113.9375,69.75,4.9,-5.85,8.14
1540941221256145000,3053,0,/imu_data_acquisition2,66671.0,-0.191284179688,0.109375,0.0148315429688,0.975280761719,8.625,-128.75,31.9375,4.15,-6.21,7.89
1540941221267524957,3054,0,/imu_data_acquisition2,66677.0,-0.1904296875,0.0987548828125,0.0180053710938,0.9765625,6.75,-131.375,13.625,4.15,-1.09,-0.01
1540941221269227981,3055,0,/imu_data_acquisition2,66686.0,-0.190002441406,0.087646484375,0.0199584960938,0.977661132812,2.625,-134.375,-1.9375,3.96,-6.12,8.32
1540941221312685966,3057,0,/imu_data_acquisition2,66704.0,-0.190612792969,0.0636596679688,0.02099609375,0.979370117188,-7.75,-142.9375,-27.625,3.46,-6.34,9.35
1540941221315793037,3058,0,/imu_data_acquisition2,66711.0,-0.190612792969,0.0636596679688,0.02099609375,0.979370117188,-7.75,-142.9375,-27.625,3.18,-6.57,9.55
1540941221322479009,3059,0,/imu_data_acquisition2,66722.0,-0.191528320312,0.0508422851562,0.0200805664062,0.97998046875,-13.75,-150.125,-52.25,3.01,-6.75,9.4
1540941221338360071,3062,0,/imu_data_acquisition2,66747.0,-0.194946289062,0.0104370117188,0.0115966796875,0.980712890625,-15.5,-148.8125,-75.8125,2.29,-6.6,9.88
1540941221344011068,3063,0,/imu_data_acquisition2,66757.0,-0.196411132812,-0.00323486328125,0.0068359375,0.98046875,-18.375,-147.875,-86.5625,1.91,-6.77,10.17
1540941221398015975,3066,0,/imu_data_acquisition2,66812.0,-0.204223632812,-0.0707397460938,-0.028076171875,0.975952148438,-20.1875,-130.0625,-127.75,0.44,-6.51,10.61
1540941221421721935,3067,0,/imu_data_acquisition2,66831.0,-0.205932617188,-0.0955200195312,-0.0467529296875,0.972778320312,-16.8125,-119.875,-12.625,0.6,-6.42,10.42
1540941221441926002,3070,0,/imu_data_acquisition2,66851.0,-0.206909179688,-0.118957519531,-0.067138671875,0.96875,-15.25,-0.0625,-0.0625,0.41,-6.51,10.92
1540941221444828033,3071,0,/imu_data_acquisition2,66860.0,-0.00408935546875,-6.103515625e-05,-6.103515625e-05,0.966491699219,-14.5,-106.0625,-150.0,0.41,-6.51,10.92
1540941221458156108,3072,0,/imu_data_acquisition2,66874.0,-0.207214355469,-0.141174316406,-0.08837890625,0.963989257812,-13.5,-101.5625,-151.625,-0.06,-6.18,10.77
1540941221464482069,3073,0,/imu_data_acquisition2,66883.0,-0.004150390625,-6.103515625e-05,-6.103515625e-05,0.961303710938,-14.8125,-99.0,-150.3125,-0.08,-5.91,10.35
1540941221476372957,3074,0,/imu_data_acquisition2,66893.0,-0.207336425781,-0.162536621094,-0.109741210938,0.958435058594,-14.8125,-99.0,-150.3125,-0.16,-6.16,9.76
1540941221481467008,3075,0,/imu_data_acquisition2,66899.0,-0.207275390625,-0.172546386719,-0.120300292969,0.955383300781,-14.375,-13.8125,-0.0625,-0.16,-1.04,-0.01
1540941221495462894,3076,0,/imu_data_acquisition2,66913.0,-6.103515625e-05,-6.103515625e-05,-6.103515625e-05,0.952331542969,-10.1875,-88.25,-146.75,-0.61,-4.77,9.65
1540941221503513097,3077,0,/imu_data_acquisition2,66920.0,-0.206237792969,-0.191284179688,-0.140991210938,0.94921875,-8.875,-83.875,-144.625,-0.61,-2.21,-0.01
1540941221523830890,3078,0,/imu_data_acquisition2,66935.0,-0.205749511719,-0.199890136719,-0.150939941406,0.945983886719,-6.875,-73.6875,-132.6875,-1.21,-3.17,9.78
1540941221525516033,3079,0,/imu_data_acquisition2,66942.0,-0.205017089844,-0.2080078125,-0.160339355469,0.94287109375,-6.875,-0.0625,-0.0625,-1.21,-3.17,9.78
1540941221559708118,3081,0,/imu_data_acquisition2,66966.0,-0.204345703125,-0.229614257812,-0.182250976562,0.933959960938,-8.125,-68.125,-89.1875,-1.61,-1.76,9.76
1540941221567770004,3082,0,/imu_data_acquisition2,66978.0,-0.204162597656,-0.236145019531,-0.186889648438,0.931457519531,-2.3125,-67.375,-72.8125,-1.73,-1.02,9.9
1540941221587471961,3084,0,/imu_data_acquisition2,66994.0,-0.204223632812,-0.242370605469,-0.18994140625,0.929260253906,0.875,-65.5625,-33.3125,-1.78,-1.15,9.29
1540941221598340988,3085,0,/imu_data_acquisition2,67005.0,-0.204711914062,-0.253295898438,-0.19140625,0.925903320312,6.0,-14.4375,-0.0625,-1.95,-1.82,8.64
1540941221606014966,3087,0,/imu_data_acquisition2,67024.0,-0.20458984375,-0.258178710938,-0.190063476562,0.924865722656,19.6875,-54.625,14.625,-2.28,-2.2,8.51
1540941221689966917,3088,0,/imu_data_acquisition2,67041.0,-6.103515625e-05,-6.103515625e-05,-6.103515625e-05,0.923889160156,20.125,-0.0625,-0.0625,-2.07,-3.0,8.56
1540941221710372924,3089,0,/imu_data_acquisition2,67046.0,-0.204467773438,-0.269775390625,-0.179443359375,0.923706054688,17.5,-49.3125,41.125,-1.93,-0.01,-0.01
1540941221711999893,3090,0,/imu_data_acquisition2,67054.0,-0.204772949219,-0.27294921875,-0.174560546875,0.923645019531,18.875,-14.6875,-0.0625,-1.86,-4.74,7.76
1540941221713172912,3091,0,/imu_data_acquisition2,67060.0,-0.204772949219,-0.27294921875,-0.174560546875,0.923645019531,18.875,-46.6875,46.625,-1.86,-2.18,-0.01
1540941221714297056,3092,0,/imu_data_acquisition2,67077.0,-0.204956054688,-0.275756835938,-0.169555664062,0.923706054688,20.5625,-37.6875,48.875,-1.85,-3.69,6.53
1540941221715500116,3093,0,/imu_data_acquisition2,67080.0,-0.205017089844,-0.278137207031,-0.164611816406,0.923828125,20.5625,-37.6875,48.875,-1.85,-3.69,6.53
1540941221716279983,3094,0,/imu_data_acquisition2,67091.0,-0.205871582031,-0.279663085938,-0.159790039062,0.924072265625,10.5,-29.5625,52.5,-1.74,-5.63,5.32
1540941221717114925,3095,0,/imu_data_acquisition2,67097.0,-0.206604003906,-0.2802734375,-0.1552734375,0.924438476562,9.0,-0.0625,-0.0625,-1.46,-6.27,5.18
1540941221718473911,3096,0,/imu_data_acquisition2,67111.0,-0.207336425781,-0.279907226562,-0.1513671875,0.925048828125,5.125,-4.75,47.1875,-1.03,-5.57,5.5
1540941221733098030,3097,0,/imu_data_acquisition2,67119.0,-6.103515625e-05,-6.103515625e-05,-6.103515625e-05,0.925720214844,-0.125,6.3125,41.5,-1.02,-6.66,5.12
1540941221734287977,3098,0,/imu_data_acquisition2,67128.0,-0.208923339844,-0.276672363281,-0.00537109375,0.926513671875,-1.625,17.6875,33.25,-0.79,-5.98,5.33
1540941221735647916,3099,0,/imu_data_acquisition2,67137.0,-0.209777832031,-0.27392578125,-0.14453125,0.927429199219,-6.625,-0.0625,-0.0625,-0.46,-5.26,5.21
1540941221736398935,3100,0,/imu_data_acquisition2,67148.0,-0.210876464844,-0.270263671875,-0.143798828125,0.928344726562,-14.125,39.0,22.5,-0.43,-6.04,5.21
1540941221739778041,3101,0,/imu_data_acquisition2,67158.0,-0.212097167969,-0.265869140625,-0.143737792969,0.929321289062,-18.0,49.8125,17.5,-0.48,-5.5,5.88
1540941221752935886,3102,0,/imu_data_acquisition2,67170.0,-0.213623046875,-0.260681152344,-0.144226074219,0.930358886719,-24.375,59.0,-0.0625,0.1,-5.64,6.04
1540941221759160995,3103,0,/imu_data_acquisition2,67177.0,-0.215209960938,-0.254821777344,-0.145385742188,0.931457519531,-28.1875,67.5625,9.1875,-0.03,-5.45,6.41
1540941221772372961,3104,0,/imu_data_acquisition2,67189.0,-0.216674804688,-0.24853515625,-0.14697265625,0.932556152344,-29.4375,74.625,4.5625,0.2,-4.91,6.72
1540941221782455921,3105,0,/imu_data_acquisition2,67198.0,-0.218383789062,-0.24169921875,-0.148986816406,0.933654785156,-33.625,80.375,2.0625,0.97,-4.42,6.99
1540941221792397022,3106,0,/imu_data_acquisition2,67210.0,-0.220703125,-0.234375,-0.151245117188,0.934631347656,-42.4375,85.5625,2.625,1.72,-1.06,-0.01
1540941221799988031,3107,0,/imu_data_acquisition2,67217.0,-0.220703125,-0.226440429688,-0.154846191406,0.935974121094,-4.4375,-0.0625,-0.0625,2.05,-5.93,7.91
1540941221816241979,3108,0,/imu_data_acquisition2,67229.0,-0.220031738281,-0.218872070312,-0.159729003906,0.937072753906,-16.75,100.5,-34.6875,14.42,-14.77,7.4
1540941221831336021,3110,0,/imu_data_acquisition2,67248.0,-0.20947265625,-0.00457763671875,-6.103515625e-05,0.938659667969,20.6875,83.3125,-111.625,13.67,1.24,-0.01
1540941221852736949,3111,0,/imu_data_acquisition2,67261.0,-0.205932617188,-0.201599121094,-0.187866210938,0.93896484375,4.0,99.9375,-98.0,4.77,0.85,-0.01
1540941221884320020,3112,0,/imu_data_acquisition2,67269.0,-0.197509765625,-0.192016601562,-0.196411132812,0.941040039062,57.0625,151.125,-6.875,0.09,13.01,-0.83
1540941221887587070,3113,0,/imu_data_acquisition2,67278.0,-0.190979003906,-0.176330566406,-0.200622558594,0.944580078125,34.5625,207.6875,-0.0625,-0.42,5.04,7.77
1540941221906481981,3114,0,/imu_data_acquisition2,67287.0,-0.179809570312,-0.161315917969,-0.202514648438,0.949035644531,95.625,208.0,-0.5625,2.9,7.91,11.39
1540941221912463903,3115,0,/imu_data_acquisition2,67299.0,-0.168090820312,-0.144958496094,-0.2021484375,0.953857421875,103.1875,220.3125,-0.0625,11.6,-21.58,26.62
1540941221945663928,3116,0,/imu_data_acquisition2,67313.0,-0.157287597656,-0.1240234375,-0.204467773438,0.958129882812,76.4375,274.125,7.125,-13.68,-23.57,36.72
1540941221954422950,3117,0,/imu_data_acquisition2,67327.0,-0.141723632812,-0.118896484375,-0.205993652344,0.960876464844,185.5,64.8125,-33.4375,7.8,8.52,14.5
1540941221958306074,3118,0,/imu_data_acquisition2,67332.0,-0.125183105469,-0.117248535156,-0.207580566406,0.963073730469,185.5,64.8125,-33.4375,7.8,8.52,14.5
1540941221959330081,3119,0,/imu_data_acquisition2,67343.0,-0.106323242188,-0.113342285156,-0.211120605469,0.965026855469,204.0625,99.0625,-0.0625,5.41,19.9,29.16
1540941221966084003,3120,0,/imu_data_acquisition2,67359.0,-0.005859375,-6.103515625e-05,-6.103515625e-05,0.966552734375,63.25,91.625,-0.0625,4.93,-0.33,-5.54
1540941221973220109,3122,0,/imu_data_acquisition2,67374.0,-0.118286132812,-0.094482421875,-0.199645996094,0.968078613281,-109.375,78.6875,87.875,3.25,8.81,12.06
1540941221991238117,3123,0,/imu_data_acquisition2,67381.0,-0.113220214844,-0.0922241210938,-0.19921875,0.968994140625,54.5625,38.6875,3.9375,3.25,8.81,12.06
1540941222006302118,3124,0,/imu_data_acquisition2,67390.0,-0.112365722656,-0.0894775390625,-0.196960449219,0.969848632812,6.8125,31.5625,30.625,2.9,4.44,11.0
1540941222012325048,3125,0,/imu_data_acquisition2,67407.0,-0.113525390625,-0.00531005859375,-6.103515625e-05,0.971130371094,11.25,26.8125,17.0,1.83,0.18,10.47
1540941222030181884,3126,0,/imu_data_acquisition2,67418.0,-0.113525390625,-0.0834350585938,-0.192443847656,0.971130371094,-3.625,20.625,19.3125,2.04,-2.11,10.06
1540941222040597915,3127,0,/imu_data_acquisition2,67427.0,-0.113586425781,-0.0814819335938,-0.191101074219,0.971557617188,-2.75,17.75,12.6875,1.74,-1.69,9.97
1540941222044903993,3128,0,/imu_data_acquisition2,67434.0,-0.113647460938,-0.0798950195312,-0.190246582031,0.971862792969,-2.75,17.75,12.6875,2.12,-1.67,9.8
1540941222047004938,3129,0,/imu_data_acquisition2,67443.0,-0.113586425781,-0.0786743164062,-0.189758300781,0.972045898438,-1.3125,13.375,7.375,2.12,-1.67,9.8
1540941222061100006,3130,0,/imu_data_acquisition2,67476.0,-0.114013671875,-0.0768432617188,-0.189208984375,0.972229003906,-8.8125,7.5,3.875,2.02,-1.56,9.1
1540941222062295913,3131,0,/imu_data_acquisition2,67479.0,-0.115295410156,-0.0752563476562,-0.188903808594,0.972290039062,-9.0,7.75,3.125,1.84,-1.98,9.71
1540941222088749885,3132,0,/imu_data_acquisition2,67496.0,-0.115966796875,-0.0745849609375,-0.188781738281,0.972290039062,-7.0,4.4375,2.5,1.67,-2.21,9.61
1540941222115710973,3133,0,/imu_data_acquisition2,67504.0,-0.116516113281,-0.0740966796875,-0.188659667969,0.972290039062,-7.0,4.4375,2.5,1.67,-2.21,9.61
1540941222121853113,3134,0,/imu_data_acquisition2,67529.0,-0.117370605469,-0.072998046875,-0.188110351562,0.972351074219,-3.9375,4.625,4.25,1.77,-1.95,9.24
1540941222151956081,3136,0,/imu_data_acquisition2,67560.0,-0.00775146484375,-6.103515625e-05,-6.103515625e-05,0.972961425781,2.4375,7.25,6.8125,1.69,-2.23,9.41
1540941222191010951,3137,0,/imu_data_acquisition2,67582.0,-6.103515625e-05,-6.103515625e-05,-6.103515625e-05,0.973083496094,2.125,7.25,6.6875,1.98,-1.83,9.37
1540941222192956924,3138,0,/imu_data_acquisition2,67606.0,-0.116027832031,-0.068115234375,-0.184509277344,0.973571777344,1.5625,7.875,6.0,1.3,-2.3,9.82
1540941222199811935,3139,0,/imu_data_acquisition2,67618.0,-0.115539550781,-0.0671997070312,-0.183898925781,0.973815917969,2.375,5.125,3.75,1.51,-2.02,9.66
1540941222209608078,3140,0,/imu_data_acquisition2,67626.0,-0.00616455078125,-6.103515625e-05,-6.103515625e-05,0.973815917969,2.375,5.125,3.75,1.46,-1.88,9.68
1540941222216670989,3141,0,/imu_data_acquisition2,67635.0,-6.103515625e-05,-6.103515625e-05,-6.103515625e-05,0.973876953125,2.5,4.1875,2.9375,1.46,-1.88,9.68
1540941222226022005,3142,0,/imu_data_acquisition2,67642.0,-6.103515625e-05,-6.103515625e-05,-6.103515625e-05,0.973999023438,1.875,3.875,2.9375,1.49,-1.94,9.57
1540941222258797883,3143,0,/imu_data_acquisition2,67655.0,-0.114929199219,-0.0662231445312,-0.183288574219,0.974060058594,1.375,3.3125,2.5625,1.53,-1.99,9.76
1540941222260576963,3144,0,/imu_data_acquisition2,67670.0,-0.00537109375,-6.103515625e-05,-6.103515625e-05,0.97412109375,1.5625,2.3125,2.0,1.6,-1.89,9.19
1540941222282990932,3145,0,/imu_data_acquisition2,67681.0,-0.114685058594,-0.0655517578125,-0.182739257812,0.974243164062,0.5,2.625,2.75,1.47,-2.14,-0.01
1540941222294836997,3146,0,/imu_data_acquisition2,67700.0,-0.114685058594,-0.0655517578125,-0.182739257812,0.974243164062,1.5,1.3125,1.9375,1.49,-2.06,9.79
1540941222298099994,3147,0,/imu_data_acquisition2,67709.0,-0.114196777344,-0.065185546875,-0.182312011719,0.974426269531,2.3125,1.0,1.125,1.45,-1.69,9.47
1540941222302556037,3148,0,/imu_data_acquisition2,67716.0,-0.114196777344,-0.065185546875,-0.182312011719,0.974426269531,0.125,1.9375,2.0625,1.31,-2.19,9.48
1540941222317322015,3149,0,/imu_data_acquisition2,67725.0,-6.103515625e-05,-6.103515625e-05,-6.103515625e-05,0.974426269531,0.125,1.9375,2.0625,1.31,-2.19,9.48
1540941222321180105,3150,0,/imu_data_acquisition2,67737.0,-0.114074707031,-0.0647583007812,-0.182067871094,0.974487304688,1.5,1.3125,0.9375,1.33,-2.13,9.56
1540941222330651998,3151,0,/imu_data_acquisition2,67743.0,-0.004638671875,-6.103515625e-05,-6.103515625e-05,0.974548339844,0.6875,1.5,1.5,1.33,-2.13,-0.01
1540941222335803985,3152,0,/imu_data_acquisition2,67752.0,-0.113891601562,-0.0643310546875,-0.181823730469,0.974609375,1.6875,1.0625,1.25,1.51,-1.98,9.6
1540941222341428995,3153,0,/imu_data_acquisition2,67758.0,-6.103515625e-05,-6.103515625e-05,-6.103515625e-05,0.974609375,1.5625,0.875,0.75,1.44,-2.06,-0.01
1540941222354418039,3154,0,/imu_data_acquisition2,67770.0,-0.11376953125,-0.064208984375,-0.181762695312,0.974609375,0.625,0.875,0.9375,1.55,-1.99,9.45
1540941222362538099,3155,0,/imu_data_acquisition2,67779.0,-0.113708496094,-0.0640869140625,-0.181701660156,0.974670410156,1.6875,0.0625,0.125,1.37,-1.79,9.55
1540941222372167110,3156,0,/imu_data_acquisition2,67788.0,-0.113525390625,-0.0640869140625,-0.181640625,0.974670410156,0.5625,0.25,0.9375,1.45,-1.79,9.58
1540941222386207103,3157,0,/imu_data_acquisition2,67798.0,-6.103515625e-05,-6.103515625e-05,-6.103515625e-05,0.974731445312,0.5625,0.25,0.9375,1.45,-1.79,9.58
1540941222485599994,3158,0,/imu_data_acquisition2,67808.0,-0.113342285156,-0.06396484375,-0.181579589844,0.974731445312,1.5,0.0,0.375,1.65,-1.86,9.32
1540941222488306045,3159,0,/imu_data_acquisition2,67820.0,-0.113220214844,-0.06396484375,-0.181518554688,0.974731445312,1.8125,0.0,0.5,1.13,-2.19,9.63
1540941222489350080,3160,0,/imu_data_acquisition2,67828.0,-0.113098144531,-0.0638427734375,-0.181518554688,0.974792480469,1.375,0.625,1.125,1.25,-1.95,9.54
1540941222490149021,3161,0,/imu_data_acquisition2,67838.0,-0.112976074219,-0.0636596679688,-0.181396484375,0.974853515625,1.375,0.625,1.125,1.56,-2.11,9.39
1540941222490840911,3162,0,/imu_data_acquisition2,67845.0,-0.11279296875,-0.0635986328125,-0.181274414062,0.974853515625,2.5,-0.0625,-0.0625,1.56,-2.11,9.39
1540941222492111921,3164,0,/imu_data_acquisition2,67866.0,-0.112365722656,-0.0634765625,-0.181030273438,0.974975585938,2.3125,0.75,1.75,1.5,-1.85,9.38
1540941222493545055,3165,0,/imu_data_acquisition2,67876.0,-0.112060546875,-0.0634765625,-0.180908203125,0.975036621094,3.9375,0.375,1.25,1.5,-1.85,9.38
1540941222494497060,3166,0,/imu_data_acquisition2,67885.0,-0.11181640625,-0.0634155273438,-0.180786132812,0.97509765625,3.1875,0.625,1.6875,1.7,-2.14,9.56
1540941222509828090,3167,0,/imu_data_acquisition2,67893.0,-0.111511230469,-0.0634155273438,-0.1806640625,0.975158691406,4.625,0.1875,0.875,1.36,-2.11,9.65
1540941222511127948,3168,0,/imu_data_acquisition2,67903.0,-0.111267089844,-0.0634155273438,-0.180480957031,0.975219726562,2.625,0.625,1.8125,1.52,-1.76,9.5
1540941222539493083,3172,0,/imu_data_acquisition2,67952.0,-0.110229492188,-0.0635375976562,-0.180114746094,0.975402832031,1.3125,0.0,0.375,1.31,-1.55,9.49
1540941222548367023,3174,0,/imu_data_acquisition2,67966.0,-0.110168457031,-0.0634765625,-0.179992675781,0.975402832031,-0.75,0.6875,1.375,1.42,-1.74,9.29
1540941222556354045,3175,0,/imu_data_acquisition2,67973.0,-0.109985351562,-0.0635375976562,-0.180053710938,0.975402832031,2.25,-0.1875,-0.6875,1.42,-1.74,9.29
1540941222577857017,3176,0,/imu_data_acquisition2,67992.0,-0.10986328125,-0.0635375976562,-0.179992675781,0.975463867188,2.4375,-0.8125,-0.8125,1.39,-2.38,-0.01
1540941222585401058,3177,0,/imu_data_acquisition2,67995.0,-0.10986328125,-0.0635375976562,-0.179992675781,0.975463867188,2.4375,-0.8125,-0.8125,1.39,-2.38,-0.01
1540941222593729972,3178,0,/imu_data_acquisition2,68007.0,-0.109924316406,-0.0633544921875,-0.179870605469,0.975463867188,-0.875,1.4375,1.75,1.34,-1.99,9.69
1540941222611576080,3179,0,/imu_data_acquisition2,68026.0,-0.109680175781,-0.0634155273438,-0.179748535156,0.975524902344,1.0,0.5625,1.5,1.77,-1.69,9.49
1540941222617156028,3180,0,/imu_data_acquisition2,68030.0,-0.109497070312,-0.0634155273438,-0.1796875,0.9755859375,2.3125,0.25,0.75,1.6,-1.97,9.63
1540941222707400083,3181,0,/imu_data_acquisition2,68036.0,-0.109497070312,-0.0634155273438,-0.1796875,0.9755859375,2.3125,0.25,0.75,1.6,-1.97,9.63
1540941222710664033,3184,0,/imu_data_acquisition2,68069.0,-0.109069824219,-0.0632934570312,-0.179382324219,0.975646972656,1.0,0.75,0.8125,1.4,-2.09,9.66
1540941222714426994,3185,0,/imu_data_acquisition2,68077.0,-0.108947753906,-0.063232421875,-0.179321289062,0.975708007812,1.0,0.75,0.8125,1.4,-2.09,9.66
1540941222716747999,3186,0,/imu_data_acquisition2,68088.0,-0.108825683594,-0.063232421875,-0.179321289062,0.975708007812,1.125,0.25,0.1875,1.54,-1.7,9.53
1540941222726349115,3187,0,/imu_data_acquisition2,68096.0,-0.108825683594,-0.0631713867188,-0.179260253906,0.975708007812,0.25,0.125,0.1875,1.38,-1.76,9.51
1540941222732517004,3188,0,/imu_data_acquisition2,68108.0,-0.0149536132812,-6.103515625e-05,-6.103515625e-05,0.975708007812,-0.25,-0.5,0.0,1.64,-1.86,9.33
1540941222744885921,3191,0,/imu_data_acquisition2,68136.0,-0.108642578125,-0.0628662109375,-0.0074462890625,0.975769042969,-0.3125,0.125,0.0625,1.19,-1.67,9.68
1540941222767477035,3193,0,/imu_data_acquisition2,68160.0,-0.014892578125,-6.103515625e-05,-6.103515625e-05,0.975769042969,0.0,-0.3125,-0.375,1.25,-2.11,9.5
1540941222775415897,3194,0,/imu_data_acquisition2,68178.0,-0.014892578125,-6.103515625e-05,-6.103515625e-05,0.975769042969,0.3125,-0.6875,-0.25,1.17,-2.06,-0.01
1540941222781711101,3195,0,/imu_data_acquisition2,68188.0,-0.108703613281,-0.0621337890625,-0.179260253906,0.975830078125,0.0625,-0.4375,-0.0625,1.17,-2.06,-0.01
1540941222783615112,3196,0,/imu_data_acquisition2,68200.0,-0.108642578125,-0.0619506835938,-0.179260253906,0.975830078125,0.5,-0.625,-0.5625,1.3,-1.98,9.54
1540941222796850919,3197,0,/imu_data_acquisition2,68209.0,-0.108642578125,-0.0618286132812,-0.17919921875,0.975830078125,0.8125,-1.125,-0.5625,1.24,-1.77,9.34
1540941222810439109,3198,0,/imu_data_acquisition2,68221.0,-0.108581542969,-0.0618286132812,-0.17919921875,0.975830078125,0.5,-0.3125,-0.1875,1.28,-1.95,9.31
1540941222817563056,3199,0,/imu_data_acquisition2,68229.0,-0.108581542969,-0.0617065429688,-0.17919921875,0.975830078125,1.3125,-1.1875,-0.375,0.92,-1.83,9.61
1540941222823206901,3200,0,/imu_data_acquisition2,68240.0,-0.108459472656,-0.0614624023438,-0.179138183594,0.975891113281,0.375,0.125,0.25,0.99,-2.16,9.74
1540941222830955028,3201,0,/imu_data_acquisition2,68248.0,-0.108459472656,-0.0610961914062,-0.0072021484375,0.975891113281,0.375,0.125,0.25,1.35,-1.91,9.65
1540941222841603040,3202,0,/imu_data_acquisition2,68258.0,-0.108337402344,-0.0609741210938,-0.0072021484375,0.975952148438,1.6875,-1.0625,-0.375,1.26,-1.82,9.28
1540941222857178926,3203,0,/imu_data_acquisition2,68268.0,-0.108276367188,-0.0609130859375,-0.179016113281,0.975952148438,1.0,-0.0625,-0.0625,1.02,-2.03,9.72
1540941222863773107,3204,0,/imu_data_acquisition2,68281.0,-0.108215332031,-0.0137939453125,-6.103515625e-05,0.976013183594,0.9375,-0.75,0.0625,1.16,-1.83,9.72
1540941222869949102,3205,0,/imu_data_acquisition2,68288.0,-0.108093261719,-0.0604858398438,-0.178955078125,0.976013183594,0.9375,-0.0625,-0.0625,1.16,-1.83,9.72
1540941222878412008,3206,0,/imu_data_acquisition2,68294.0,-0.107971191406,-0.060302734375,-0.178955078125,0.97607421875,1.3125,-0.6875,-0.4375,1.15,-1.85,9.58
1540941222895627021,3207,0,/imu_data_acquisition2,68306.0,-0.107849121094,-0.0602416992188,-0.178894042969,0.97607421875,1.1875,-1.4375,-0.5625,1.24,-1.83,9.45
1540941222897258043,3208,0,/imu_data_acquisition2,68311.0,-0.107727050781,-0.0601196289062,-0.178894042969,0.97607421875,1.1875,-1.6875,-0.625,1.08,-1.85,9.71
1540941222907902002,3209,0,/imu_data_acquisition2,68322.0,-0.107543945312,-0.0601196289062,-0.178955078125,0.976135253906,1.25,-2.0625,-0.875,1.19,-1.74,9.57
1540941222915638923,3210,0,/imu_data_acquisition2,68332.0,-0.107482910156,-0.0599975585938,-0.178894042969,0.976135253906,1.0625,-1.1875,-0.5,1.19,-2.08,-0.01
1540941222922842979,3211,0,/imu_data_acquisition2,68338.0,-0.107482910156,-0.0599975585938,-0.178894042969,0.976135253906,1.0625,-1.1875,-0.5,1.19,-2.08,-0.01
1540941222931123971,3212,0,/imu_data_acquisition2,68348.0,-0.0136108398438,-6.103515625e-05,-6.103515625e-05,0.976135253906,1.0,-0.0625,-0.0625,1.25,-1.64,9.62
1540941222938726902,3213,0,/imu_data_acquisition2,68356.0,-0.013427734375,-6.103515625e-05,-6.103515625e-05,0.976135253906,1.1875,-1.875,-0.875,1.14,-1.69,9.63
1540941222950881958,3214,0,/imu_data_acquisition2,68367.0,-0.107116699219,-0.0599365234375,-0.178955078125,0.976196289062,0.875,-0.0625,-0.0625,1.38,-2.17,-0.01
1540941222958715915,3215,0,/imu_data_acquisition2,68377.0,-0.107116699219,-0.0599365234375,-0.00701904296875,0.976196289062,0.1875,-0.0625,-0.0625,1.26,-1.78,9.55
1540941222964792966,3216,0,/imu_data_acquisition2,68383.0,-0.0133056640625,-6.103515625e-05,-6.103515625e-05,0.976196289062,1.4375,-1.375,-1.0625,1.09,-2.0,9.87
1540941223000197887,3217,0,/imu_data_acquisition2,68414.0,-0.10693359375,-0.0128173828125,-6.103515625e-05,0.976196289062,0.5625,-0.0625,-0.0625,1.07,-2.06,-0.01
1540941223037183046,3222,0,/imu_data_acquisition2,68449.0,-0.0131225585938,-6.103515625e-05,-6.103515625e-05,0.976196289062,-0.25,0.375,0.3125,1.56,-1.86,9.48
1540941223039756059,3223,0,/imu_data_acquisition2,68455.0,-0.106750488281,-0.0125732421875,-6.103515625e-05,0.976196289062,1.3125,-0.875,-0.8125,1.56,-1.86,9.48
1540941223050880908,3224,0,/imu_data_acquisition2,68467.0,-0.106689453125,-0.0594482421875,-0.0072021484375,0.976196289062,1.0625,-0.6875,-0.5625,1.1,-1.8,9.42
1540941223068777084,3226,0,/imu_data_acquisition2,68485.0,-0.012939453125,-6.103515625e-05,-6.103515625e-05,0.976257324219,1.125,-0.75,-0.4375,1.26,-1.96,9.69
1540941223078744888,3227,0,/imu_data_acquisition2,68493.0,-0.106628417969,-0.0592651367188,-0.179077148438,0.976257324219,0.6875,-0.0625,-0.0625,1.42,-1.61,9.28
1540941223111336946,3228,0,/imu_data_acquisition2,68513.0,-0.106506347656,-0.0120849609375,-6.103515625e-05,0.976257324219,0.9375,-0.3125,-0.5,0.56,-1.84,9.93
1540941223113785028,3229,0,/imu_data_acquisition2,68529.0,-0.1064453125,-0.0587768554688,-0.178955078125,0.976318359375,1.25,2.375,0.0625,1.24,-1.19,10.52
1540941223125068902,3230,0,/imu_data_acquisition2,68535.0,-0.106323242188,-0.0586547851562,-0.178955078125,0.976318359375,1.4375,1.3125,0.125,1.24,-1.19,10.52
1540941223136471033,3231,0,/imu_data_acquisition2,68541.0,-0.106323242188,-0.0586547851562,-0.178955078125,0.976318359375,-0.5,2.1875,0.9375,1.83,-2.36,8.99
1540941223143174886,3232,0,/imu_data_acquisition2,68548.0,-0.106262207031,-0.0584716796875,-0.178894042969,0.976379394531,-0.5,2.1875,0.9375,1.83,-2.36,8.99
1540941223146758079,3233,0,/imu_data_acquisition2,68560.0,-0.106201171875,-0.0582275390625,-0.178955078125,0.976379394531,-0.0625,2.875,0.25,1.86,-1.51,9.65
1540941223159737110,3234,0,/imu_data_acquisition2,68569.0,-0.106201171875,-0.05810546875,-0.007080078125,0.976379394531,0.25,1.125,-0.3125,2.25,-2.42,9.38
1540941223166773080,3235,0,/imu_data_acquisition2,68584.0,-0.106079101562,-0.057373046875,-0.178771972656,0.976440429688,-0.25,4.125,1.875,1.94,-1.97,-0.01
1540941223177826881,3236,0,/imu_data_acquisition2,68593.0,-0.106079101562,-0.057373046875,-0.178771972656,0.976440429688,-0.625,5.8125,3.1875,2.28,-1.64,9.83
1540941223197225093,3237,0,/imu_data_acquisition2,68603.0,-0.10595703125,-0.0564575195312,-0.178344726562,0.976623535156,0.6875,4.5625,3.1875,2.35,-1.44,9.41
1540941223207874059,3238,0,/imu_data_acquisition2,68610.0,-0.01220703125,-6.103515625e-05,-6.103515625e-05,0.976623535156,0.6875,4.5625,3.1875,2.03,-2.07,9.43
1540941223209886074,3239,0,/imu_data_acquisition2,68623.0,-0.105895996094,-0.0560302734375,-0.178039550781,0.976684570312,-1.5625,5.0,4.375,2.39,-1.47,9.33
1540941223214318037,3240,0,/imu_data_acquisition2,68630.0,-0.10595703125,-0.0555419921875,-0.177734375,0.976745605469,-1.5625,5.0,4.375,1.96,-1.61,9.41
1540941223224030017,3241,0,/imu_data_acquisition2,68639.0,-0.105834960938,-0.0552368164062,-0.177551269531,0.976867675781,1.1875,3.25,2.5,2.0,-1.76,9.49
1540941223233526945,3242,0,/imu_data_acquisition2,68648.0,-0.105895996094,-0.0548095703125,-0.00543212890625,0.976928710938,-1.3125,4.625,3.625,2.0,-1.76,9.49
1540941223241369009,3243,0,/imu_data_acquisition2,68659.0,-0.0121459960938,-6.103515625e-05,-6.103515625e-05,0.976989746094,-0.875,4.1875,3.625,1.61,-1.79,9.71
1540941223249340057,3244,0,/imu_data_acquisition2,68668.0,-0.105895996094,-0.0540771484375,-0.1767578125,0.97705078125,0.5,3.875,3.75,1.61,-1.79,9.71
1540941223262576103,3245,0,/imu_data_acquisition2,68680.0,-0.0120849609375,-6.103515625e-05,-6.103515625e-05,0.977111816406,-0.4375,4.125,5.25,1.89,-1.78,9.54
1540941223270833969,3246,0,/imu_data_acquisition2,68688.0,-0.105773925781,-0.053466796875,-0.175964355469,0.977233886719,0.875,2.25,5.0,1.89,-1.78,9.54
1540941223281359910,3247,0,/imu_data_acquisition2,68699.0,-0.105712890625,-0.0533447265625,-0.175598144531,0.977294921875,-0.5,3.3125,5.1875,1.61,-1.75,9.58
1540941223286222934,3248,0,/imu_data_acquisition2,68705.0,-0.0119018554688,-6.103515625e-05,-6.103515625e-05,0.977416992188,-0.5,3.3125,5.1875,1.3,-1.6,9.51
1540941223304042100,3249,0,/imu_data_acquisition2,68720.0,-0.105712890625,-0.052734375,-0.174865722656,0.977478027344,-1.625,4.125,4.5625,1.63,-1.76,9.39
1540941223316121101,3251,0,/imu_data_acquisition2,68733.0,-0.105895996094,-0.05224609375,-0.174743652344,0.977478027344,-2.75,3.5,0.625,1.54,-2.01,9.89
1540941223326481103,3252,0,/imu_data_acquisition2,68744.0,-0.105895996094,-0.00537109375,-6.103515625e-05,0.977478027344,-2.75,3.5,0.625,1.54,-2.01,9.89
1540941223335655927,3253,0,/imu_data_acquisition2,68753.0,-0.106079101562,-0.0048828125,-6.103515625e-05,0.977478027344,-5.25,4.1875,0.3125,1.68,-2.14,9.38
1540941223361263036,3254,0,/imu_data_acquisition2,68778.0,-0.013427734375,-6.103515625e-05,-6.103515625e-05,0.977416992188,-6.75,5.5,0.625,1.58,-2.16,9.66
1540941223369239091,3255,0,/imu_data_acquisition2,68784.0,-0.107604980469,-0.0496826171875,-0.175048828125,0.977416992188,-6.25,6.625,0.8125,1.33,-1.7,9.69
1540941223387958049,3256,0,/imu_data_acquisition2,68789.0,-0.107604980469,-0.0496826171875,-0.175048828125,0.977416992188,-6.25,6.625,0.8125,1.33,-1.7,9.69
1540941223406881093,3259,0,/imu_data_acquisition2,68814.0,-0.109191894531,-0.047607421875,-0.174560546875,0.977416992188,-8.3125,8.375,4.3125,1.16,-1.83,9.44
1540941223415234088,3260,0,/imu_data_acquisition2,68825.0,-0.10986328125,-0.0467529296875,-0.174255371094,0.977416992188,-9.125,8.6875,4.875,1.28,-2.14,9.5
1540941223420193910,3261,0,/imu_data_acquisition2,68833.0,-0.110412597656,-0.0458984375,-0.174072265625,0.977478027344,-8.5625,9.3125,4.375,1.68,-1.67,9.36
1540941223433779001,3262,0,/imu_data_acquisition2,68843.0,-0.111145019531,-0.0448608398438,-0.173767089844,0.977478027344,-10.6875,11.0625,4.9375,1.37,-1.91,9.46
1540941223445669889,3263,0,/imu_data_acquisition2,68852.0,-0.111877441406,-0.0436401367188,-0.173583984375,0.977478027344,-11.125,12.25,4.5625,1.24,-1.88,9.55
1540941223455096960,3264,0,/imu_data_acquisition2,68863.0,-0.112731933594,-0.0423583984375,-0.17333984375,0.977478027344,-12.5625,12.875,4.875,1.1,-2.2,-0.01
1540941223457264900,3265,0,/imu_data_acquisition2,68873.0,-0.113525390625,-0.0410766601562,-0.173156738281,0.977478027344,-12.0,12.875,3.8125,1.31,-1.96,9.43
1540941223469043016,3266,0,/imu_data_acquisition2,68883.0,-0.114501953125,-0.0397338867188,-0.173034667969,0.977416992188,-13.5,-0.0625,-0.0625,1.3,-2.09,9.54
1540941223483866930,3267,0,/imu_data_acquisition2,68892.0,-0.114501953125,-0.0397338867188,-0.173034667969,0.977416992188,-14.125,13.6875,2.8125,1.16,-1.92,9.63
1540941223495203971,3268,0,/imu_data_acquisition2,68910.0,-0.116516113281,-0.0370483398438,-0.172973632812,0.977294921875,-15.8125,13.8125,2.75,1.25,-1.96,9.38
1540941223515600919,3270,0,/imu_data_acquisition2,68930.0,-0.118957519531,-0.0341796875,-0.172912597656,0.977111816406,-18.625,15.4375,2.6875,0.95,-2.07,9.6
1540941223527491092,3271,0,/imu_data_acquisition2,68938.0,-0.120300292969,-0.03271484375,-0.172973632812,0.976989746094,-19.0,14.125,2.125,1.23,-2.32,9.84
1540941223530478000,3272,0,/imu_data_acquisition2,68942.0,-0.121826171875,-0.0310668945312,-0.172912597656,0.976867675781,-20.75,15.625,3.375,0.8,-2.38,9.9
1540941223542329072,3273,0,/imu_data_acquisition2,68960.0,-0.123413085938,-0.0294189453125,-0.172729492188,0.976745605469,-22.0,15.5625,4.5,1.32,-1.82,9.51
1540941223553941011,3274,0,/imu_data_acquisition2,68970.0,-0.124877929688,-0.0121459960938,-6.103515625e-05,0.976623535156,-20.4375,16.375,4.3125,1.32,-1.82,9.51
1540941223584676027,3275,0,/imu_data_acquisition2,68982.0,-0.126525878906,-0.0256958007812,-0.172241210938,0.9765625,-22.5625,22.375,7.75,1.29,-2.02,9.62
1540941223619878053,3276,0,/imu_data_acquisition2,68990.0,-0.127990722656,-0.023681640625,-0.171936035156,0.976501464844,-22.5625,22.375,7.75,1.29,-2.02,9.62
1540941223717689990,3277,0,/imu_data_acquisition2,69014.0,-0.131469726562,-0.0182495117188,-0.171020507812,0.976318359375,-28.4375,33.6875,13.25,1.18,-1.99,9.55
1540941223807776927,3278,0,/imu_data_acquisition2,69026.0,-0.135375976562,-0.0111694335938,-0.169311523438,0.976135253906,-31.375,37.5,17.625,1.23,-0.9,9.94
1540941223814636945,3279,0,/imu_data_acquisition2,69032.0,-0.135375976562,-0.0111694335938,-0.169311523438,0.976135253906,-41.3125,43.0625,25.75,1.33,-2.96,9.24
1540941223819459915,3280,0,/imu_data_acquisition2,69036.0,-0.13818359375,-0.0067138671875,-0.167724609375,0.97607421875,-41.3125,43.0625,25.75,1.33,-2.96,9.24
1540941223822364091,3281,0,/imu_data_acquisition2,69046.0,-0.13818359375,-0.0067138671875,-0.167724609375,0.97607421875,-37.4375,48.0625,25.375,1.39,-1.9,9.48
1540941223823971033,3282,0,/imu_data_acquisition2,69052.0,-0.140625,-0.001953125,-0.166198730469,0.976013183594,-37.4375,48.0625,25.375,1.37,-1.46,9.93
1540941223825855016,3283,0,/imu_data_acquisition2,69074.0,-0.150329589844,0.0175170898438,-0.158508300781,0.975708007812,-60.1875,72.4375,50.5,1.19,-2.19,9.74
1540941223827317953,3284,0,/imu_data_acquisition2,69082.0,-0.150329589844,0.0175170898438,-0.158508300781,0.975708007812,-12.1875,-0.0625,-0.0625,1.18,-1.8,9.75
1540941223828872919,3285,0,/imu_data_acquisition2,69086.0,-0.154418945312,0.02587890625,-0.154602050781,0.975463867188,-64.1875,82.25,58.875,1.18,-1.8,9.75
1540941223830537080,3286,0,/imu_data_acquisition2,69095.0,-0.154418945312,0.02587890625,-0.154602050781,0.975463867188,-73.125,92.3125,69.5625,1.76,-1.95,10.82
1540941223840148925,3287,0,/imu_data_acquisition2,69101.0,-0.159118652344,0.0353393554688,-0.14990234375,0.975158691406,-73.125,92.3125,69.5625,1.76,-1.95,10.82
1540941223844578981,3288,0,/imu_data_acquisition2,69105.0,-0.164978027344,0.0460205078125,-0.14404296875,0.974670410156,-90.0625,101.8125,84.375,0.84,-1.64,11.01
1540941223845752954,3289,0,/imu_data_acquisition2,69115.0,-6.103515625e-05,-6.103515625e-05,-6.103515625e-05,0.973693847656,-119.625,104.8125,105.1875,-0.56,-2.65,12.87
1540941223847768068,3290,0,/imu_data_acquisition2,69124.0,-0.173095703125,0.0575561523438,-0.136352539062,0.973693847656,-144.625,92.9375,124.6875,-0.01,-1.34,10.6
1540941223849030017,3291,0,/imu_data_acquisition2,69135.0,-0.195190429688,0.080322265625,-0.115234375,0.970642089844,-167.5625,92.75,145.0,-0.69,-2.59,10.49
1540941223850325107,3292,0,/imu_data_acquisition2,69153.0,-0.217468261719,0.10595703125,-0.091552734375,0.965942382812,-154.375,113.0,151.375,-0.78,-0.01,-0.01
1540941223852715969,3293,0,/imu_data_acquisition2,69158.0,-0.217468261719,0.10595703125,-0.091552734375,0.965942382812,-154.375,113.0,151.375,-0.78,-6.82,8.23
1540941223853991985,3294,0,/imu_data_acquisition2,69163.0,-0.217468261719,0.10595703125,-0.091552734375,0.965942382812,-116.125,123.5,-0.0625,0.8,-6.43,9.52
1540941223856065034,3295,0,/imu_data_acquisition2,69177.0,-0.229431152344,0.132690429688,-0.0730590820312,0.961486816406,-84.0,126.8125,123.75,4.77,-0.01,-0.01
1540941223858875036,3296,0,/imu_data_acquisition2,69195.0,-0.230407714844,0.151672363281,-0.0613403320312,0.959228515625,-8.125,76.3125,80.3125,7.83,-1.38,13.51
1540941223860743045,3297,0,/imu_data_acquisition2,69198.0,-0.230407714844,0.151672363281,-0.0613403320312,0.959228515625,-8.125,76.3125,80.3125,7.83,-1.38,13.51
1540941223863470077,3298,0,/imu_data_acquisition2,69202.0,-0.230407714844,0.151672363281,-0.0613403320312,0.959228515625,-8.125,76.3125,80.3125,3.79,-3.74,20.42
1540941223864878892,3299,0,/imu_data_acquisition2,69213.0,-0.230102539062,0.156555175781,-0.0553588867188,0.958923339844,-2.6875,-37.3125,67.5,8.73,-0.66,11.39
1540941223868911981,3300,0,/imu_data_acquisition2,69223.0,-0.229553222656,0.154846191406,-0.0491333007812,0.959655761719,15.25,-68.1875,63.0,7.78,0.98,11.14
1540941223871325969,3301,0,/imu_data_acquisition2,69235.0,-0.227783203125,0.150512695312,-0.0429077148438,0.961059570312,14.3125,-78.9375,69.125,6.72,-3.48,9.66
1540941223873991012,3302,0,/imu_data_acquisition2,69244.0,-0.226013183594,0.145385742188,-0.0359497070312,0.962524414062,31.0625,-89.8125,61.5625,6.52,-1.08,-0.01
1540941223875251054,3303,0,/imu_data_acquisition2,69255.0,-6.103515625e-05,-6.103515625e-05,-6.103515625e-05,0.966247558594,31.0,-99.625,56.5,5.98,-5.11,9.58
1540941223876436948,3304,0,/imu_data_acquisition2,69271.0,-0.217041015625,0.123352050781,-0.018310546875,0.968139648438,33.8125,-114.375,41.6875,5.85,-5.42,9.16
1540941223878460884,3305,0,/imu_data_acquisition2,69276.0,-0.214538574219,0.113525390625,-0.0140991210938,0.969970703125,29.5,-13.5,-0.0625,5.12,-7.06,8.22
1540941223886154890,3306,0,/imu_data_acquisition2,69295.0,-0.210021972656,0.0912475585938,-0.00970458984375,0.973388671875,28.0,-137.5,-8.4375,4.41,-7.06,7.79
1540941223893495082,3307,0,/imu_data_acquisition2,69304.0,-0.210021972656,0.0912475585938,-0.00970458984375,0.973388671875,24.25,-139.625,-23.6875,3.98,-7.15,8.08
1540941223903605937,3308,0,/imu_data_acquisition2,69310.0,-0.208312988281,0.079345703125,-0.0093994140625,0.974792480469,24.25,-139.625,-23.6875,3.98,-7.15,8.08
1540941223911010026,3309,0,/imu_data_acquisition2,69321.0,-0.207153320312,0.0670166015625,-0.010009765625,0.975952148438,18.125,-141.4375,-4.4375,3.79,-7.57,8.43
1540941223917886972,3310,0,/imu_data_acquisition2,69326.0,-0.206420898438,0.0542602539062,-0.0116577148438,0.976867675781,13.375,-143.875,-49.8125,3.55,-7.97,8.67
1540941223921377897,3311,0,/imu_data_acquisition2,69335.0,-0.206420898438,0.0542602539062,-0.0116577148438,0.976867675781,12.0,-146.25,-64.3125,3.11,-7.7,8.86
1540941223954790115,3313,0,/imu_data_acquisition2,69371.0,-0.205261230469,-0.00030517578125,-0.0282592773438,0.978271484375,4.125,-0.0625,-0.0625,2.34,-7.3,9.49
1540941224045620918,3314,0,/imu_data_acquisition2,69384.0,-0.205505371094,-0.014404296875,-0.0340576171875,0.977966308594,0.8125,-4.9375,-0.0625,1.55,-8.09,9.74
1540941224046971082,3315,0,/imu_data_acquisition2,69387.0,-0.205871582031,-0.0283813476562,-0.0404663085938,0.977355957031,-1.125,-146.625,-108.4375,1.55,-8.09,9.74
1540941224048747062,3317,0,/imu_data_acquisition2,69419.0,-0.206298828125,-0.0689697265625,-0.063720703125,0.973999023438,-1.5625,-133.25,-129.75,0.82,-7.96,9.5
1540941224074075937,3324,0,/imu_data_acquisition2,69490.0,-0.208068847656,-0.151428222656,-0.128784179688,0.957702636719,-11.125,-108.8125,-130.1875,-0.5,-4.19,10.27
1540941224085057973,3325,0,/imu_data_acquisition2,69498.0,-0.208679199219,-0.161926269531,-0.0119018554688,0.954711914062,-12.3125,-105.0,-120.8125,-0.98,-4.3,10.37
1540941224094413995,3326,0,/imu_data_acquisition2,69509.0,-0.0057373046875,-6.103515625e-05,-6.103515625e-05,0.951843261719,-6.625,-0.0625,-0.0625,-1.54,-2.96,10.2
1540941224103524923,3327,0,/imu_data_acquisition2,69520.0,-0.208679199219,-0.181457519531,-0.150573730469,0.949157714844,-1.75,-97.0625,-100.0,-1.78,-2.06,10.68
1540941224121864080,3328,0,/imu_data_acquisition2,69534.0,-0.208618164062,-0.190612792969,-0.0150146484375,0.946533203125,0.25,-95.1875,-4.75,-1.77,-1.83,10.25
1540941224132364034,3329,0,/imu_data_acquisition2,69550.0,-0.208312988281,-0.207214355469,-0.161682128906,0.942077636719,6.875,-90.0,-50.75,-1.14,-1.89,9.18
1540941224139022111,3330,0,/imu_data_acquisition2,69557.0,-0.208312988281,-0.214477539062,-0.162658691406,0.940307617188,6.6875,-82.5625,-31.9375,-1.58,-3.95,9.32
1540941224147670030,3331,0,/imu_data_acquisition2,69566.0,-0.00518798828125,-6.103515625e-05,-6.103515625e-05,0.940307617188,18.75,-14.0625,-0.0625,-1.75,-2.78,9.3
1540941224158616065,3332,0,/imu_data_acquisition2,69575.0,-6.103515625e-05,-6.103515625e-05,-6.103515625e-05,0.938842773438,18.75,-78.0625,-23.75,-1.8,-2.34,8.94
1540941224168955087,3333,0,/imu_data_acquisition2,69587.0,-0.207214355469,-0.234069824219,-0.160522460938,0.936218261719,9.3125,-75.8125,0.8125,-1.86,-3.53,8.26
1540941224180310964,3334,0,/imu_data_acquisition2,69594.0,-0.207214355469,-0.0153198242188,-6.103515625e-05,0.936218261719,9.3125,-75.8125,0.8125,-1.86,-3.53,8.26
1540941224183201074,3335,0,/imu_data_acquisition2,69600.0,-0.207702636719,-0.239807128906,-0.158325195312,0.93505859375,9.25,-72.5,9.625,-1.91,-3.68,8.12
1540941224195663928,3336,0,/imu_data_acquisition2,69612.0,-0.208068847656,-0.244934082031,-0.155700683594,0.93408203125,10.25,-66.75,15.4375,-1.63,-4.37,7.34
1540941224212244033,3337,0,/imu_data_acquisition2,69623.0,-0.208129882812,-0.249328613281,-0.0122680664062,0.933349609375,13.875,-58.0,18.8125,-1.67,-4.43,7.38
1540941224213546037,3338,0,/imu_data_acquisition2,69631.0,-0.207885742188,-0.253173828125,-0.150024414062,0.932800292969,16.6875,-50.75,21.0625,-1.63,-4.1,7.39
1540941224223690032,3339,0,/imu_data_acquisition2,69641.0,-0.2080078125,-0.256469726562,-0.147033691406,0.932373046875,12.625,-45.3125,24.5,-1.32,-4.36,6.86
1540941224230739116,3340,0,/imu_data_acquisition2,69649.0,-0.208557128906,-0.259033203125,-0.14404296875,0.932006835938,6.0625,-37.875,27.5625,-1.53,-5.27,7.01
1540941224245691061,3341,0,/imu_data_acquisition2,69662.0,-0.00579833984375,-6.103515625e-05,-6.103515625e-05,0.931823730469,7.8125,-29.625,26.125,-1.16,-2.11,-0.01
1540941224258403062,3342,0,/imu_data_acquisition2,69676.0,-0.209228515625,-0.262573242188,-0.136596679688,0.932006835938,7.3125,-8.75,23.5625,-0.91,-4.68,5.84
1540941224267057895,3343,0,/imu_data_acquisition2,69685.0,-6.103515625e-05,-6.103515625e-05,-6.103515625e-05,0.932006835938,7.3125,-8.75,23.5625,-0.98,-4.74,5.97
1540941224276303052,3344,0,/imu_data_acquisition2,69694.0,-0.209228515625,-0.262023925781,-0.134765625,0.932434082031,5.875,2.625,22.375,-0.98,-4.74,5.97
1540941224283309936,3345,0,/imu_data_acquisition2,69702.0,-0.209228515625,-0.2607421875,-0.13330078125,0.932983398438,3.375,-0.0625,-0.0625,-0.6,-4.77,6.23
1540941224292211055,3346,0,/imu_data_acquisition2,69709.0,-0.209655761719,-0.258666992188,-0.132080078125,0.933654785156,-2.1875,21.625,20.375,-0.62,-4.68,7.23
1540941224303083896,3347,0,/imu_data_acquisition2,69721.0,-0.209838867188,-0.256225585938,-0.131225585938,0.934387207031,-1.625,26.6875,17.6875,-0.13,-3.92,6.43
1540941224310503005,3348,0,/imu_data_acquisition2,69728.0,-0.210693359375,-0.253112792969,-0.130554199219,0.935119628906,-10.4375,33.1875,18.625,-0.21,-5.41,6.58
1540941224320391893,3349,0,/imu_data_acquisition2,69738.0,-0.211608886719,-0.249572753906,-0.00518798828125,0.935913085938,-12.125,39.4375,16.75,-0.04,-4.85,7.03
1540941224337938070,3350,0,/imu_data_acquisition2,69752.0,-0.212463378906,-0.245666503906,-0.130126953125,0.936767578125,-13.5,44.125,14.375,0.47,-0.72,-0.01
1540941224372795104,3351,0,/imu_data_acquisition2,69770.0,-0.214172363281,-0.241088867188,-0.130249023438,0.937561035156,-24.4375,51.0625,16.6875,0.32,-5.7,6.46
1540941224383688926,3352,0,/imu_data_acquisition2,69790.0,-0.01220703125,-6.103515625e-05,-6.103515625e-05,0.938537597656,-20.4375,62.6875,9.6875,0.86,-0.88,-0.01
1540941224389105081,3353,0,/imu_data_acquisition2,69802.0,-0.217956542969,-0.224853515625,-0.132446289062,0.9404296875,-25.125,70.125,7.4375,0.85,-3.31,8.42
1540941224406599044,3354,0,/imu_data_acquisition2,69807.0,-0.220947265625,-0.212585449219,-0.134826660156,0.942260742188,-28.375,72.6875,8.4375,1.78,-3.86,7.82
1540941224438494920,3357,0,/imu_data_acquisition2,69843.0,-0.220703125,-0.191772460938,-0.141906738281,0.945739746094,-1.875,91.625,-18.375,9.62,-9.75,6.73
1540941224457983970,3360,0,/imu_data_acquisition2,69874.0,-0.210205078125,-0.172912597656,-0.15869140625,0.949096679688,8.4375,93.0,-48.1875,1.89,7.89,0.25
1540941224465694904,3361,0,/imu_data_acquisition2,69879.0,-0.205139160156,-0.163940429688,-0.1630859375,0.950988769531,36.125,125.1875,-34.3125,1.17,7.93,3.82
1540941224472313880,3362,0,/imu_data_acquisition2,69890.0,-0.201599121094,-0.151550292969,-0.16455078125,0.95361328125,19.375,154.9375,12.0,2.49,1.87,9.09
1540941224484277963,3363,0,/imu_data_acquisition2,69899.0,-0.19482421875,-0.138732910156,-0.165344238281,0.956787109375,58.0,165.5625,15.3125,6.42,-18.02,29.09
1540941224490664958,3364,0,/imu_data_acquisition2,69909.0,-0.0152587890625,-6.103515625e-05,-6.103515625e-05,0.959411621094,60.375,177.5,-22.375,-0.94,-0.01,-0.01
1540941224501409053,3365,0,/imu_data_acquisition2,69919.0,-0.178527832031,-0.122985839844,-0.171508789062,0.961059570312,93.25,54.1875,-28.375,-0.96,-2.86,4.68
1540941224510963916,3366,0,/imu_data_acquisition2,69929.0,-0.0150756835938,-6.103515625e-05,-6.103515625e-05,0.962524414062,76.8125,54.3125,-14.9375,6.25,-3.44,7.75
1540941224528815031,3367,0,/imu_data_acquisition2,69944.0,-0.158996582031,-0.118225097656,-0.174438476562,0.964538574219,138.5625,50.25,-12.875,5.34,-0.43,3.58
1540941224536843061,3368,0,/imu_data_acquisition2,69955.0,-0.14501953125,-0.11474609375,-0.1748046875,0.967102050781,156.625,73.25,-11.8125,4.86,1.17,3.56
1540941224553318977,3369,0,/imu_data_acquisition2,69962.0,-0.129760742188,-0.107604980469,-0.174682617188,0.970092773438,165.125,116.75,-1.1875,3.18,-2.41,9.92
1540941224556032896,3370,0,/imu_data_acquisition2,69970.0,-0.114135742188,-0.0996704101562,-0.174621582031,0.972900390625,168.0625,127.0625,-1.5,-6.18,16.99,36.42
1540941224564409971,3371,0,/imu_data_acquisition2,69979.0,-0.01513671875,-6.103515625e-05,-6.103515625e-05,0.974060058594,62.125,21.375,-0.0625,3.55,-0.01,-0.01
1540941224572978973,3372,0,/imu_data_acquisition2,69990.0,-0.115417480469,-0.0950317382812,-0.167114257812,0.974548339844,-75.4375,21.5625,71.375,2.89,-0.01,-0.01
1540941224585680007,3373,0,/imu_data_acquisition2,70000.0,-0.11865234375,-0.0122680664062,-6.103515625e-05,0.975158691406,-42.125,43.875,48.1875,1.83,0.45,8.85
1540941224604830980,3375,0,/imu_data_acquisition2,70020.0,-0.117370605469,-0.08349609375,-0.159729003906,0.976623535156,-9.375,38.4375,38.1875,2.2,-4.22,9.11
1540941224611289978,3376,0,/imu_data_acquisition2,70029.0,-0.116333007812,-0.080322265625,-0.157958984375,0.977294921875,9.1875,36.75,25.375,1.15,-0.72,11.58
1540941224696166992,3378,0,/imu_data_acquisition2,70049.0,-0.114379882812,-0.013427734375,-6.103515625e-05,0.978271484375,6.6875,23.4375,18.0625,2.07,-1.96,10.12
1540941224703521966,3379,0,/imu_data_acquisition2,70059.0,-6.103515625e-05,-6.103515625e-05,-6.103515625e-05,0.978698730469,9.0,23.25,14.125,2.0,-1.31,9.87
1540941224707305908,3382,0,/imu_data_acquisition2,70099.0,-6.103515625e-05,-6.103515625e-05,-6.103515625e-05,0.979431152344,-1.5625,4.9375,0.875,1.82,-1.54,9.29
1540941224708210945,3383,0,/imu_data_acquisition2,70102.0,-0.112243652344,-0.0692749023438,-0.15283203125,0.979431152344,-1.5625,4.9375,0.875,1.82,-1.54,9.29
1540941224710048913,3384,0,/imu_data_acquisition2,70111.0,-6.103515625e-05,-6.103515625e-05,-6.103515625e-05,0.979431152344,-2.8125,5.0625,0.6875,1.64,-2.29,9.68
1540941224711201906,3385,0,/imu_data_acquisition2,70119.0,-0.112731933594,-0.0682983398438,-0.152770996094,0.979431152344,-4.0625,4.9375,1.9375,1.58,-2.08,9.28
1540941224712665081,3386,0,/imu_data_acquisition2,70129.0,-0.112854003906,-0.06787109375,-0.0120239257812,0.9794921875,-1.8125,5.0625,2.125,1.61,-2.18,-0.01
1540941224738147974,3387,0,/imu_data_acquisition2,70140.0,-0.112915039062,-0.0674438476562,-0.152404785156,0.979553222656,-1.25,4.375,3.125,1.54,-2.0,-0.01
1540941224739339113,3388,0,/imu_data_acquisition2,70152.0,-6.103515625e-05,-6.103515625e-05,-6.103515625e-05,0.979614257812,-0.6875,5.25,3.8125,1.54,-2.22,9.33
1540941224741404056,3389,0,/imu_data_acquisition2,70159.0,-0.11279296875,-0.0665283203125,-0.151916503906,0.979675292969,0.8125,4.75,3.875,1.56,-1.85,9.26
1540941224753942012,3390,0,/imu_data_acquisition2,70171.0,-0.112609863281,-0.0661010742188,-0.151550292969,0.979797363281,1.6875,4.875,4.125,1.59,-2.08,9.74
1540941224776341915,3391,0,/imu_data_acquisition2,70188.0,-6.103515625e-05,-6.103515625e-05,-6.103515625e-05,0.979858398438,2.875,3.75,2.5,1.97,-1.51,9.46
1540941224783379077,3392,0,/imu_data_acquisition2,70199.0,-0.112365722656,-0.0654296875,-0.151062011719,0.979919433594,-0.875,5.6875,4.5625,1.24,-2.17,9.82
1540941224790910959,3393,0,/imu_data_acquisition2,70209.0,-6.103515625e-05,-6.103515625e-05,-6.103515625e-05,0.980102539062,0.1875,4.6875,3.0625,1.65,-1.85,9.6
1540941224798738002,3394,0,/imu_data_acquisition2,70217.0,-6.103515625e-05,-6.103515625e-05,-6.103515625e-05,0.980102539062,0.3125,3.5625,1.8125,1.49,-1.89,9.29
1540941224812727928,3395,0,/imu_data_acquisition2,70222.0,-0.1123046875,-0.0641479492188,-0.150390625,0.980102539062,0.3125,3.5625,1.8125,1.49,-1.89,9.29
1540941224814254999,3396,0,/imu_data_acquisition2,70230.0,-0.112243652344,-0.0638427734375,-0.150268554688,0.980163574219,-0.375,3.5,2.25,1.33,-2.25,9.62
1540941224829334974,3397,0,/imu_data_acquisition2,70243.0,-0.112243652344,-0.0635986328125,-0.150146484375,0.980224609375,-0.25,2.6875,1.75,1.41,-1.8,9.43
1540941224843573093,3398,0,/imu_data_acquisition2,70255.0,-0.112182617188,-0.0633544921875,-0.150024414062,0.980224609375,0.0625,2.6875,1.875,1.45,-2.3,-0.01
1540941224847110986,3399,0,/imu_data_acquisition2,70259.0,-0.112060546875,-0.0631713867188,-0.14990234375,0.980285644531,1.8125,2.125,1.4375,1.62,-2.13,9.3
1540941224855967998,3400,0,/imu_data_acquisition2,70273.0,-0.111999511719,-0.06298828125,-0.149719238281,0.980346679688,0.8125,2.5625,2.4375,1.71,-2.05,9.67
1540941224875184059,3401,0,/imu_data_acquisition2,70287.0,-0.11181640625,-0.0628051757812,-0.149536132812,0.980407714844,2.0,2.125,2.0625,1.54,-1.73,8.84
1540941224876549005,3402,0,/imu_data_acquisition2,70291.0,-0.111633300781,-0.0623779296875,-0.149291992188,0.98046875,1.625,4.5625,3.625,1.81,-2.39,9.55
1540941224883757114,3403,0,/imu_data_acquisition2,70300.0,-0.111389160156,-0.062255859375,-0.149047851562,0.980590820312,3.3125,1.5625,2.5,1.81,-1.08,9.03
1540941224915910959,3404,0,/imu_data_acquisition2,70317.0,-0.111022949219,-0.0620727539062,-0.148803710938,0.980651855469,3.5625,3.0,2.9375,1.45,-1.51,9.04
1540941224930578947,3405,0,/imu_data_acquisition2,70322.0,-0.110717773438,-0.0618286132812,-0.148559570312,0.980712890625,3.6875,2.625,3.125,1.45,-1.51,9.04
1540941224932010889,3406,0,/imu_data_acquisition2,70331.0,-6.103515625e-05,-6.103515625e-05,-6.103515625e-05,0.980834960938,3.0625,3.625,3.8125,1.42,-2.06,9.48
1540941224950943946,3407,0,/imu_data_acquisition2,70339.0,-0.110107421875,-0.0145263671875,-6.103515625e-05,0.980895996094,4.125,2.0,2.3125,1.48,-1.54,9.5
1540941224955095052,3408,0,/imu_data_acquisition2,70356.0,-0.109924316406,-0.0612182617188,-0.147827148438,0.98095703125,2.0625,2.25,2.8125,1.31,-2.08,9.84
1540941224960808038,3409,0,/imu_data_acquisition2,70373.0,-0.109680175781,-0.0611572265625,-0.147705078125,0.981018066406,2.3125,0.8125,1.5,1.27,-1.88,9.51
1540941225078912973,3414,0,/imu_data_acquisition2,70410.0,-0.109680175781,-0.0610961914062,-0.1474609375,0.981079101562,-0.0625,-0.75,-0.125,1.44,-1.8,9.64
1540941225089762926,3418,0,/imu_data_acquisition2,70489.0,-0.109985351562,-0.06103515625,-0.147033691406,0.981079101562,0.125,-0.5625,0.875,1.54,-1.92,9.63
1540941225099726915,3419,0,/imu_data_acquisition2,70502.0,-0.109985351562,-0.06103515625,-0.147033691406,0.981079101562,0.625,-0.375,0.5,1.32,-2.04,9.44
1540941225107007026,3421,0,/imu_data_acquisition2,70520.0,-0.10986328125,-0.06103515625,-0.146911621094,0.981140136719,1.1875,-0.75,0.5625,1.44,-1.94,9.4
1540941225115325927,3423,0,/imu_data_acquisition2,70532.0,-0.109680175781,-0.0609741210938,-0.146911621094,0.981140136719,1.5,-0.5,0.5625,1.09,-1.91,9.57
1540941225131860971,3424,0,/imu_data_acquisition2,70546.0,-0.109680175781,-0.0609130859375,-0.146789550781,0.981201171875,0.8125,0.5,1.4375,1.3,-2.21,-0.01
1540941225145277023,3425,0,/imu_data_acquisition2,70550.0,-0.109497070312,-0.0609130859375,-0.146728515625,0.981201171875,2.1875,-0.5,0.6875,1.35,-1.74,9.53
1540941225154866933,3427,0,/imu_data_acquisition2,70572.0,-0.109375,-0.0608520507812,-0.146545410156,0.981262207031,1.9375,-0.9375,0.5,1.51,-1.66,9.22
1540941225166063070,3428,0,/imu_data_acquisition2,70579.0,-0.109252929688,-0.0609741210938,-0.146545410156,0.981262207031,1.5,-0.0625,-0.0625,1.21,-2.09,9.78
1540941225172368049,3429,0,/imu_data_acquisition2,70590.0,-0.015380859375,-6.103515625e-05,-6.103515625e-05,0.981262207031,1.25,-0.8125,0.8125,1.33,-1.88,9.77
1540941225187771081,3430,0,/imu_data_acquisition2,70597.0,-0.109008789062,-0.0140991210938,-6.103515625e-05,0.981323242188,1.25,-0.8125,0.8125,1.33,-1.88,9.77
1540941225206176042,3431,0,/imu_data_acquisition2,70612.0,-0.108947753906,-0.01416015625,-6.103515625e-05,0.981323242188,0.9375,-0.8125,0.75,1.66,-1.67,9.54
1540941225223464965,3433,0,/imu_data_acquisition2,70629.0,-0.108764648438,-0.0144653320312,-6.103515625e-05,0.981323242188,1.25,-1.625,0.0,1.14,-2.14,9.86
1540941225226388931,3434,0,/imu_data_acquisition2,70639.0,-0.108703613281,-0.0145874023438,-6.103515625e-05,0.981323242188,-0.0625,-0.6875,1.125,1.46,-1.81,9.25
1540941225228122949,3435,0,/imu_data_acquisition2,70646.0,-0.108703613281,-0.0614624023438,-0.146179199219,0.981323242188,-0.0625,-0.6875,1.125,1.46,-1.81,9.25
1540941225247433900,3436,0,/imu_data_acquisition2,70656.0,-0.108520507812,-0.0615844726562,-0.146118164062,0.981384277344,1.75,-1.3125,0.0625,1.43,-1.93,9.41
1540941225252568960,3437,0,/imu_data_acquisition2,70668.0,-0.108520507812,-0.0617065429688,-0.146118164062,0.981384277344,0.6875,-1.5,0.5,1.57,-1.91,9.27
1540941225261447906,3438,0,/imu_data_acquisition2,70679.0,-0.108459472656,-0.0618286132812,-0.146118164062,0.981384277344,0.75,-1.1875,0.375,1.37,-1.94,9.53
1540941225297586917,3441,0,/imu_data_acquisition2,70710.0,-0.108337402344,-0.0621948242188,-0.00543212890625,0.981384277344,1.25,-1.3125,0.0625,1.55,-1.89,9.71
1540941225311624050,3442,0,/imu_data_acquisition2,70726.0,-0.108276367188,-0.0623168945312,-0.146057128906,0.981384277344,1.0,-0.0625,-0.0625,1.44,-2.05,9.74
1540941225339245080,3444,0,/imu_data_acquisition2,70751.0,-0.108154296875,-0.0625,-0.14599609375,0.981384277344,1.375,-1.25,-0.25,1.38,-1.98,9.67
